     3.02           OBSERVATION DATA    M: Mixed            RINEX VERSION / TYPE
RTKCONV 2.4.2                           20191009 090858 UTC PGM / RUN BY / DATE 
log: C:\Users\Shimpei\Documents\signal_classifier\data\191  COMMENT             
format: u-blox                                              COMMENT             
                                                            MARKER NAME         
                                                            MARKER NUMBER       
                                                            MARKER TYPE         
                                                            OBSERVER / AGENCY   
                                                            REC # / TYPE / VERS 
                                                            ANT # / TYPE        
 -3751245.6886  3686071.3732  3596584.2659                  APPROX POSITION XYZ 
        0.0000        0.0000        0.0000                  ANTENNA: DELTA H/E/N
G    4 C1C L1C D1C S1C                                      SYS / # / OBS TYPES 
R    4 C1C L1C D1C S1C                                      SYS / # / OBS TYPES 
J    4 C1C L1C D1C S1C                                      SYS / # / OBS TYPES 
  2019    10     9     7    17   34.9970000     GPS         TIME OF FIRST OBS   
  2019    10     9     7    48   33.9980000     GPS         TIME OF LAST OBS    
G                                                           SYS / PHASE SHIFT   
R                                                           SYS / PHASE SHIFT   
J                                                           SYS / PHASE SHIFT   
  0                                                         GLONASS SLOT / FRQ #
 C1C    0.000 C1P    0.000 C2C    0.000 C2P    0.000        GLONASS COD/PHS/BIS 
                                                            END OF HEADER       
> 2019 10  9  7 17 34.9970000  0 13                     
G 5  21724801.840   114164590.525       -3151.584          48.000  
G13  21010576.015   110411335.406       -2678.335          46.000  
G15  19675234.102   103394052.442        -866.426          50.000  
G24  20131552.306   105792023.927        1745.969          47.000  
G28  23816781.303   125158042.878        -907.909          38.000  
R16  19089898.843   101974760.162        1185.002          44.000  
R15  20588483.012   110018568.656       -2920.629          47.000  
J 1  37992384.069   199651326.951         -63.708          41.000  
J 2  36200129.267   190232956.267        -511.787          44.000  
R 5  20622787.861   110240583.202       -2164.356          49.000  
R 9  22534439.174   120332628.596        3829.326          36.000  
R 7  22427378.607                        2063.937          23.000  
R 6  19470197.905   103896470.849         627.289          32.000  
> 2019 10  9  7 17 35.9970000  0 14                     
G 5  21725401.744   114167741.996       -3151.783          49.000  
G13  21011085.806   110414013.600       -2678.523          46.000  
G15  19675398.902   103394918.836        -866.639          50.000  
G24  20131219.704   105790278.044        1745.524          47.000  
G28  23816953.816   125158950.705        -908.281          38.000  
R16  19089676.614   101973575.359        1184.246          43.000  
R15  20589030.164   110021489.363       -2921.113          47.000  
J 1  37992396.162   199651390.351         -63.452          41.000  
J 2  36200226.657   190233467.909        -511.890          44.000  
R 5  20623193.457   110242747.483       -2164.625          49.000  
R 9  22533722.179   120328799.078        3829.017          37.000  
R21  21485039.069                       -3436.066          27.000  
R 7  22426992.399                        2058.441          25.000  
R 6  19470080.465   103895843.781         626.250          33.000  
> 2019 10  9  7 17 36.9970000  0 14                     
G 5  21726001.560   114170893.588       -3151.352          49.000  
G13  21011595.596   110416691.718       -2677.881          46.000  
G15  19675563.912   103395785.314        -866.216          50.000  
G24  20130887.208   105788532.448        1745.720          46.000  
G28  23817126.573   125159858.828        -908.043          38.000  
R16  19089455.171   101972391.190        1184.051          43.000  
R15  20589577.769   110024410.636       -2921.326          47.000  
J 1  37992408.063   199651453.471         -62.512          41.000  
J 2  36200323.889   190233979.437        -511.099          44.000  
R 5  20623598.389   110244911.782       -2163.983          49.000  
R 9  22533004.731   120324969.393        3829.871          36.000  
R21  21485681.446   114974192.6142      -3435.474          27.000  
R 7  22426606.313   120051359.6662       2060.242          27.000  
R 6  19469962.868   103895216.694         627.055          33.000  
> 2019 10  9  7 17 37.9970000  0 14                     
G 5  21726601.289   114174045.275       -3152.281          49.000  
G13  21012105.387   110419369.766       -2678.387          46.000  
G15  19675728.903   103396651.859        -867.129          50.000  
G24  20130555.078   105786787.150        1744.698          47.000  
G28  23817299.382   125160767.284        -908.893          38.000  
R16  19089233.798   101971207.656        1182.618          44.000  
R15  20590125.584   110027332.453       -2922.655          47.000  
J 1  37992420.121   199651516.349         -63.452          41.000  
J 2  36200421.436   190234490.859        -511.762          44.000  
R 5  20624003.600   110247076.109       -2164.961          49.000  
R 9  22532286.986   120321139.545        3829.239          36.000  
R21  21486322.183   114977628.7632      -3436.872          28.000  
R 7  22426224.136                        2059.979          26.000  
R 6  19469845.376   103894589.506         627.313          33.000  
> 2019 10  9  7 17 38.9970000  0 14                     
G 5  21727201.350   114177197.996       -3153.074          49.000  
G13  21012615.474   110422048.658       -2679.125          46.000  
G15  19675894.139   103397519.403        -867.848          50.000  
G24  20130223.314   105785043.073        1743.772          46.000  
G28  23817472.558   125161676.948        -909.952          38.000  
R16  19089012.581   101970025.690        1181.413          44.000  
R15  20590673.294   110030255.701       -2923.776          47.000  
J 1  37992432.266   199651579.853         -63.361          40.000  
J 2  36200519.227   190235003.092        -512.444          44.000  
R 5  20624408.480   110249241.385       -2165.540          49.000  
R 9  22531569.730   120317310.502        3828.660          37.000  
R21  21486966.724   114981066.0682      -3437.802          29.000  
R 7  22425839.114                        2058.984          24.000  
R 6  19469728.093   103893963.361         625.320          33.000  
> 2019 10  9  7 17 39.9970000  0 14                     
G 5  21727801.445   114180351.590       -3153.879          49.000  
G13  21013125.806   110424728.271       -2679.872          46.000  
G15  19676059.201   103398387.819        -868.739          50.000  
G24  20129891.673   105783300.127        1742.499          47.000  
G28  23817646.048   125162587.708        -910.942          38.000  
R16  19088791.923   101968845.152        1179.867          44.000  
R15  20591220.707   110033180.244       -2925.023          47.000  
J 1  37992444.115   199651643.914         -64.423          40.000  
J 2  36200616.879   190235516.005        -513.335          44.000  
R 5  20624813.238   110251407.516       -2166.441          49.000  
R 9  22530852.997   120313482.080        3828.185          38.000  
R21  21487612.051   114984504.4752      -3439.061          29.000  
R 7  22425455.715                        2058.725          23.000  
R 6  19469610.932   103893337.906         624.717          32.000  
> 2019 10  9  7 17 40.9970000  0 15                     
G 5  21728401.890   114183505.493       -3154.217          49.000  
G13  21013635.911   110427408.015       -2679.989          46.000  
G15  19676224.612   103399256.518        -869.033          50.000  
G24  20129560.258   105781557.695        1742.069          46.000  
G28  23817819.189   125163498.995        -911.437          37.000  
R16  19088571.353   101967665.439        1179.216          44.000  
R15  20591768.522   110036105.530       -2925.872          47.000  
J 1  37992456.400   199651707.891         -64.191          41.000  
J 2  36200714.827   190236029.000        -513.175          45.000  
R 5  20625218.136   110253573.900       -2166.718          49.000  
R 9  22530136.072   120309653.769        3828.117          38.000  
R21  21488249.542   114987943.3952      -3438.934          30.000  
R 7  22425074.673                        2051.456          22.000  
R 6  19469493.527   103892712.660         624.012          31.000  
R22  22064502.616                         -90.143          26.000  
> 2019 10  9  7 17 41.9970000  0 15                     
G 5  21729002.195   114186659.759       -3154.395          49.000  
G13  21014145.859   110430087.942       -2679.914          46.000  
G15  19676389.918   103400125.545        -869.085          50.000  
G24  20129228.635   105779815.840        1741.584          46.000  
G28  23817992.679   125164410.844        -911.972          37.000  
R16  19088350.747   101966486.632        1178.402          44.000  
R15  20592316.616   110039031.642       -2926.448          47.000  
J 1  37992468.598   199651771.858         -63.727          41.000  
J 2  36200812.757   190236542.140        -513.191          45.000  
R 5  20625623.207   110255740.561       -2166.752          49.000  
R 9  22529419.287   120305825.553        3828.273          38.000  
R21  21488891.099   114991382.8422      -3439.903          30.000  
R 7  22424692.617                        2049.717          21.000  
R 6  19469375.930   103892087.628         624.917          30.000  
R22  22064530.048                         -90.177          25.000  
> 2019 10  9  7 17 42.9970000  0 15                     
G 5  21729602.570   114189814.336       -3155.046          49.000  
G13  21014656.260   110432768.010       -2680.491          46.000  
G15  19676555.555   103400994.879        -869.817          50.000  
G24  20128897.342   105778074.511        1740.574          46.000  
G28  23818166.449   125165323.199        -912.891          37.000  
R16  19088130.263   101965308.695        1177.075          44.000  
R15  20592864.204   110041958.515       -2927.585          47.000  
J 1  37992480.534   199651835.776         -64.136          40.000  
J 2  36200910.269   190237055.377        -513.609          44.000  
R 5  20626028.384   110257907.482       -2167.437          50.000  
R 9  22528702.502   120301997.391        3827.678          38.000  
R21  21489520.337   114994822.711       -3440.293          29.000  
R 7  22424308.364                        2052.514          19.000  
R 6  19469258.682   103891462.795         624.369          31.000  
R22  22064554.723                         -91.450          25.000  
> 2019 10  9  7 17 43.9970000  0 14                     
G 5  21730203.101   114192969.277       -3155.302          49.000  
G13  21015166.312   110435448.280       -2680.500          46.000  
G15  19676721.315   103401864.559        -870.065          51.000  
G24  20128566.085   105776333.741        1740.384          46.000  
G28  23818339.817   125166236.118        -913.342          37.000  
R16  19087910.007   101964131.672        1176.370          44.000  
R15  20593412.210   110044886.182       -2928.175          47.000  
J 1  37992492.854   199651899.709         -64.032          41.000  
J 2  36201008.060   190237568.769        -513.673          44.000  
R 5  20626433.735   110260074.682       -2167.454          50.000  
R 9  22527985.891   120298169.347        3827.997          38.000  
R21  21490166.484   114998263.246       -3440.954          29.000  
R 7  22423923.133                        2063.148          17.000  
R 6  19469141.242   103890838.278         623.686          31.000  
> 2019 10  9  7 17 44.9970000  0 14                     
G 5  21730803.441   114196124.625       -3155.255          49.000  
G13  21015676.853   110438128.782       -2680.227          46.000  
G15  19676886.865   103402734.621        -869.939          51.000  
G24  20128234.810   105774593.611        1740.345          46.000  
G28  23818513.743   125167149.682        -913.702          37.000  
R16  19087689.837   101962955.580        1175.886          44.000  
R15  20593960.514   110047814.690       -2928.620          47.000  
J 1  37992505.069   199651963.663         -63.715          41.000  
J 2  36201105.712   190238082.365        -513.462          44.000  
R 5  20626839.383   110262242.204       -2167.240          50.000  
R 9  22527268.931   120294341.454        3828.127          38.000  
R21  21490811.845   115001704.376       -3441.707          30.000  
R 7  22423532.544                        2081.630          12.000  
R 6  19469023.663   103890214.025         625.029          31.000  
> 2019 10  9  7 17 45.9970000  0 14                     
G 5  21731404.165   114199280.298       -3156.084          49.000  
G13  21016187.010   110440809.441       -2680.946          47.000  
G15  19677052.642   103403604.994        -870.835          51.000  
G24  20127904.041   105772854.054        1738.977          46.000  
G28  23818687.826   125168063.734        -914.504          36.000  
R16  19087470.104   101961780.339        1174.425          44.000  
R15  20594508.607   110050743.947       -2930.052          47.000  
J 1  37992517.755   199652027.574         -64.008          41.000  
J 2  36201203.258   190238596.059        -513.958          44.000  
R 5  20627244.682   110264409.981       -2168.198          50.000  
R 9  22526552.234   120290513.668        3827.513          38.000  
R21  21491457.782   115005146.040       -3443.510          30.000  
R 7  22423146.214                        2055.101          14.000  
R 6  19468906.310   103889589.996         623.628          31.000  
> 2019 10  9  7 17 46.9970000  0 14                     
G 5  21732004.261   114202436.008       -3155.482          49.000  
G13  21016697.499   110443489.956       -2680.103          47.000  
G15  19677218.349   103404475.376        -870.074          51.000  
G24  20127572.731   105771114.717        1739.538          46.000  
G28  23818861.421   125168978.045        -913.828          36.000  
R16  19087250.266   101960605.641        1174.680          44.000  
R15  20595056.928   110053673.631       -2929.621          47.000  
J 1  37992529.883   199652091.168         -63.116          41.000  
J 2  36201300.857   190239109.583        -513.094          44.000  
R 5  20627650.521   110266577.726       -2167.361          50.000  
R 9  22525835.361   120286685.632        3828.611          38.000  
R21  21492100.264   115008587.796       -3441.693          30.000  
R 7  22422761.419                        2058.920          16.000  
R 6  19468788.975   103888965.822         624.608          30.000  
> 2019 10  9  7 17 47.9970000  0 14                     
G 5  21732604.862   114205591.660       -3156.329          49.000  
G13  21017207.831   110446170.248       -2680.935          47.000  
G15  19677384.074   103405345.682        -871.012          51.000  
G24  20127241.683   105769375.531        1738.344          46.000  
G28  23819034.964   125169892.525        -915.511          35.000  
R16  19087030.463   101959431.420        1173.370          44.000  
R15  20595605.092   110056603.713       -2931.065          47.000  
J 1  37992541.941   199652154.334         -63.770          41.000  
J 2  36201398.648   190239622.829        -513.769          44.000  
R 5  20628056.064   110268745.366       -2168.213          50.000  
R 9  22525118.820   120282857.296        3827.758          39.000  
R21  21492746.376   115012029.716       -3442.036          31.000  
R 7  22422376.118                        2058.920          14.000  
R 6  19468671.674   103888341.591         622.915          31.000  
> 2019 10  9  7 17 48.9970000  0 13                     
G 5  21733205.586   114208748.483       -3157.140          49.000  
G13  21017718.197   110448851.518       -2681.557          47.000  
G15  19677550.043   103406217.122        -871.660          51.000  
G24  20126910.984   105767637.709        1737.525          46.000  
G28  23819209.326   125170808.322        -916.214          36.000  
R16  19086811.132   101958258.935        1171.855          44.000  
R15  20596153.378   110059535.424       -2932.292          47.000  
J 1  37992553.982   199652218.283         -63.910          41.000  
J 2  36201496.753   190240137.025        -514.416          44.000  
R 5  20628462.131   110270914.115       -2168.982          50.000  
R 9  22524402.018   120279029.860        3827.222          38.000  
R21  21493389.591   115015473.004       -3443.160          30.000  
R 6  19468553.484   103887718.342         623.069          31.000  
> 2019 10  9  7 17 49.9970000  0 13                     
G 5  21733806.414   114211906.050       -3157.902          49.000  
G13  21018228.110   110451533.370       -2681.978          46.000  
G15  19677715.785   103407089.300        -872.430          51.000  
G24  20126580.721   105765900.849        1736.538          46.000  
G28  23819383.671   125171725.122        -917.046          36.000  
R16  19086591.922   101957087.762        1170.414          44.000  
R15  20596701.664   110062468.308       -2933.396          46.000  
J 1  37992565.987   199652282.640         -64.404          41.000  
J 2  36201594.719   190240651.766        -514.941          44.000  
R 5  20628867.849   110273083.563       -2169.838          50.000  
R 9  22523685.250   120275202.952        3826.739          38.000  
R21  21494033.923   115018917.262       -3443.273          31.000  
R 6  19468438.295   103887095.709         622.234          31.000  
> 2019 10  9  7 17 50.9970000  0 13                     
G 5  21734407.452   114215064.143       -3158.118          49.000  
G13  21018738.512   110454215.574       -2682.198          46.000  
G15  19677881.667   103407961.984        -872.772          50.000  
G24  20126250.563   105764164.707        1735.840          46.000  
G28  23819558.156   125172642.643        -918.061          36.000  
R16  19086372.800   101955917.661        1169.783          44.000  
R15  20597250.735   110065402.133       -2934.144          47.000  
J 1  37992578.133   199652347.142         -64.606          41.000  
J 2  36201692.824   190241166.812        -515.057          44.000  
R 5  20629273.549   110275253.450       -2169.958          50.000  
R 9  22522968.901   120271376.325        3826.619          39.000  
R21  21494672.775   115022362.312       -3445.934          31.000  
R 6  19468321.955   103886473.531         622.210          32.000  
> 2019 10  9  7 17 51.9970000  0 14                     
G 5  21735008.316   114218222.509       -3158.542          49.000  
G13  21019248.808   110456897.885       -2682.469          46.000  
G15  19678047.810   103408834.921        -873.214          50.000  
G24  20125920.213   105762429.018        1735.205          46.000  
G28  23819732.885   125173560.639        -918.636          36.000  
R16  19086153.817   101954748.375        1168.593          44.000  
R15  20597799.928   110068336.673       -2935.048          47.000  
J 1  37992590.418   199652411.549         -64.410          41.000  
J 2  36201790.894   190241681.918        -515.460          44.000  
R 5  20629679.354   110277423.553       -2170.330          50.000  
R 9  22522252.290   120267549.714        3826.919          39.000  
R21  21495311.035   115025807.677       -3444.753          30.000  
R 6  19468205.405   103885851.460         622.053          32.000  
R22  22064712.490                         -98.840          25.000  
> 2019 10  9  7 17 52.9970000  0 14                     
G 5  21735609.231   114221381.214       -3158.680          49.000  
G13  21019759.035   110459580.356       -2682.464          46.000  
G15  19678214.285   103409708.173        -873.372          50.000  
G24  20125590.159   105760693.878        1734.933          46.000  
G28  23819908.120   125174479.139        -918.460          36.000  
R16  19085935.026   101953579.923        1168.056          44.000  
R15  20598349.034   110071271.983       -2935.631          46.000  
J 1  37992602.877   199652475.928         -64.288          41.000  
J 2  36201888.720   190242197.130        -515.091          44.000  
R 5  20630085.298   110279593.919       -2170.421          50.000  
R 9  22521535.854   120263723.189        3827.038          39.000  
R21  21495953.744   115029253.676       -3446.721          30.000  
R 6  19468088.488   103885229.600         622.465          32.000  
R22  22064740.009                        -100.853          25.000  
> 2019 10  9  7 17 53.9970000  0 14                     
G 5  21736210.269   114224540.236       -3159.122          49.000  
G13  21020269.471   110462262.957       -2682.698          46.000  
G15  19678380.202   103410581.693        -873.486          50.000  
G24  20125260.246   105758959.254        1734.466          46.000  
G28  23820083.233   125175398.175        -919.084          36.000  
R16  19085716.602   101952412.283        1167.475          44.000  
R15  20598898.245   110074208.028       -2936.395          47.000  
J 1  37992615.389   199652540.239         -64.325          41.000  
J 2  36201986.581   190242712.446        -515.265          44.000  
R 5  20630491.382   110281764.516       -2170.612          50.000  
R 9  22520819.069   120259896.745        3826.539          38.000  
R21  21496595.615   115032700.050       -3446.873          30.000  
R 6  19467973.299   103884608.003         621.594          32.000  
R22  22064766.551                        -101.339          26.000  
> 2019 10  9  7 17 54.9970000  0 14                     
G 5  21736811.394   114227699.531       -3159.414          49.000  
G13  21020779.821   110464945.656       -2682.551          46.000  
G15  19678546.084   103411455.493        -873.877          50.000  
G24  20124930.628   105757225.134        1733.920          47.000  
G28  23820258.171   125176317.687        -919.486          36.000  
R16  19085498.142   101951245.461        1166.697          44.000  
R15  20599447.892   110077144.772       -2936.993          47.000  
J 1  37992627.883   199652604.458         -64.001          40.000  
J 2  36202084.704   190243227.830        -515.579          44.000  
R 5  20630897.396   110283935.350       -2170.900          50.000  
R 9  22520102.877   120256070.336        3826.328          39.000  
R21  21497240.086   115036146.960       -3446.833          29.000  
R 6  19467859.227   103883986.573         620.932          32.000  
R22  22064795.152   117783248.4842       -101.613          28.000  
> 2019 10  9  7 17 55.9970000  0 14                     
G 5  21737412.450   114230859.111       -3159.812          49.000  
G13  21021290.047   110467628.485       -2683.061          46.000  
G15  19678711.983   103412329.540        -874.311          50.000  
G24  20124600.715   105755491.512        1733.367          47.000  
G28  23820433.092   125177237.706        -920.653          35.000  
R16  19085280.137   101950079.490        1165.403          44.000  
R15  20599997.399   110080082.233       -2937.888          47.000  
J 1  37992639.889   199652668.620         -64.349          41.000  
J 2  36202182.826   190243743.284        -515.616          44.000  
R 5  20631303.707   110286106.387       -2171.256          50.000  
R 9  22519386.476   120252243.977        3826.294          39.000  
R21  21497890.351   115039594.383       -3447.668          30.000  
R 6  19467744.614   103883365.255         621.010          33.000  
R22  22064819.809   117783350.8032       -102.420          28.000  
> 2019 10  9  7 17 56.9970000  0 14                     
G 5  21738013.644   114234018.951       -3159.456          49.000  
G13  21021800.623   110470311.389       -2682.378          46.000  
G15  19678878.162   103413203.833        -873.905          50.000  
G24  20124271.045   105753758.392        1733.245          46.000  
G28  23820607.961   125178158.162        -920.208          35.000  
R16  19085061.677   101948914.309        1165.294          44.000  
R15  20600547.273   110083020.406       -2937.986          47.000  
J 1  37992652.017   199652732.659         -63.629          41.000  
J 2  36202280.652   190244258.778        -514.933          44.000  
R 5  20631709.861   110288277.620       -2170.939          50.000  
R 9  22518670.389   120248417.607        3826.758          39.000  
R21  21498540.320   115043042.200       -3447.048          31.000  
R 6  19467628.134   103882744.071         621.691          33.000  
R22  22064844.815   117783453.9852       -103.063          28.000  
> 2019 10  9  7 17 57.9970000  0 14                     
G 5  21738615.049   114237178.517       -3159.840          49.000  
G13  21022310.920   110472993.847       -2682.584          46.000  
G15  19679044.165   103414077.832        -874.226          50.000  
G24  20123941.149   105752025.175        1732.911          47.000  
G28  23820783.126   125179078.563        -920.431          35.000  
R16  19084843.585   101947749.414        1164.449          44.000  
R15  20601097.042   110085958.724       -2938.815          47.000  
J 1  37992664.110   199652796.066         -63.593          41.000  
J 2  36202378.426   190244773.790        -515.102          44.000  
R 5  20632116.364   110290448.500       -2171.157          50.000  
R 9  22517953.674   120244590.719        3826.639          39.000  
R21  21499188.211   115046489.915       -3448.044          30.000  
R 6  19467511.968   103882122.508         621.296          33.000  
R22  22064867.117   117783557.3252       -104.054          27.000  
> 2019 10  9  7 17 58.9970000  0 14                     
G 5  21739216.558   114240339.070       -3160.999          49.000  
G13  21022821.199   110475677.118       -2683.568          46.000  
G15  19679210.518   103414952.789        -875.256          50.000  
G24  20123611.619   105750293.183        1731.467          46.000  
G28  23820958.518   125180000.174        -922.262          35.000  
R16  19084625.876   101946586.050        1162.754          44.000  
R15  20601647.422   110088898.463       -2940.378          47.000  
J 1  37992676.412   199652860.083         -64.319          41.000  
J 2  36202476.618   190245289.571        -516.018          44.000  
R 5  20632522.692   110292620.333       -2172.216          50.000  
R 9  22517237.709   120240764.538        3825.816          39.000  
R21  21499835.387   115049938.810       -3449.726          30.000  
R 6  19467396.186   103881501.841         619.606          33.000  
R22  22064891.163   117783662.2732       -105.586          27.000  
> 2019 10  9  7 17 59.9970000  0 15                     
G 5  21739818.346   114243500.536       -3161.485          49.000  
G13  21023331.915   110478361.141       -2683.962          46.000  
G15  19679377.430   103415828.651        -875.836          50.000  
G24  20123281.932   105748562.291        1730.858          47.000  
G28  23821133.980   125180922.877        -922.665          35.000  
R16  19084408.551   101945424.161        1161.642          44.000  
R15  20602197.959   110091839.553       -2941.226          47.000  
J 1  37992688.593   199652924.649         -64.349          41.000  
J 2  36202574.915   190245806.066        -516.409          44.000  
R 5  20632929.125   110294793.028       -2172.587          49.000  
R 9  22516522.023   120236939.051        3825.854          39.000  
R21  21500477.067   115053388.752       -3448.856          30.000  
R 7  22417620.044                        2054.014          13.000  
R 6  19467280.089   103880881.965         619.875          33.000  
R22  22064911.004   117783768.6132       -106.343          26.000  
> 2019 10  9  7 18  0.9970000  0 15                     
G 5  21740419.890   114246662.468       -3161.982          49.000  
G13  21023842.787   110481045.441       -2684.177          46.000  
G15  19679543.975   103416704.953        -876.255          50.000  
G24  20122952.489   105746832.097        1730.001          46.000  
G28  23821309.477   125181846.270        -923.687          35.000  
R16  19084191.261   101944263.253        1160.763          43.000  
R15  20602748.391   110094781.543       -2942.243          47.000  
J 1  37992700.895   199652989.320         -64.508          41.000  
J 2  36202673.125   190246322.807        -516.794          44.000  
R 5  20633335.331   110296966.110       -2173.147          49.000  
R 9  22515806.128   120233113.793        3825.522          40.000  
R21  21501123.458   115056839.464       -3451.042          30.000  
R 7  22417236.994                        2053.652          17.000  
R 6  19467164.045   103880262.426         619.467          33.000  
R22  22064927.267   117784004.9733       -107.846          26.000  
> 2019 10  9  7 18  1.9970000  0 16                     
G 5  21741021.643   114249824.667       -3162.352          49.000  
G13  21024353.468   110483729.847       -2684.316          46.000  
G15  19679710.851   103417581.495        -876.587          50.000  
G24  20122623.675   105745102.376        1729.594          47.000  
G28  23821485.044   125182770.119        -923.982          36.000  
R16  19083973.656   101943103.164        1159.790          43.000  
R15  20603299.364   110097724.226       -2943.083          47.000  
J 1  37992713.198   199653053.889         -64.636          40.000  
J 2  36202771.370   190246839.588        -516.856          44.000  
R 5  20633742.009   110299139.362       -2173.298          49.000  
R 9  22515090.337   120229288.578        3825.126          40.000  
R20  23817380.610                       -4576.269          24.000  
R21  21501764.177   115060290.539       -3451.254          29.000  
R 7  22416855.864                        2055.277          20.000  
R 6  19467048.089   103879643.007         620.132          32.000  
R22  22064942.065                        -109.808          24.000  
> 2019 10  9  7 18  2.9970000  0 14                     
G 5  21741623.362   114252987.192       -3162.673          49.000  
G13  21024864.672   110486414.390       -2684.589          46.000  
G15  19679877.483   103418458.346        -877.138          50.000  
G24  20122294.948   105743373.184        1728.913          47.000  
G28  23821661.012   125183694.490        -924.937          36.000  
R16  19083756.837   101941943.920        1158.673          43.000  
R15  20603850.006   110100667.663       -2944.011          46.000  
J 1  37992725.482   199653118.395         -64.514          40.000  
J 2  36202869.527   190247356.491        -517.000          44.000  
R 5  20634148.791   110301312.876       -2173.805          49.000  
R 9  22514374.861   120225463.446        3824.845          40.000  
R21  21502403.065   115063742.114       -3451.273          28.000  
R 7  22416473.373                        2056.469          20.000  
R 6  19466931.661   103879023.873         619.562          32.000  
> 2019 10  9  7 18  3.9970000  0 15                     
G 5  21742225.429   114256149.949       -3162.922          49.000  
G13  21025375.667   110489099.010       -2684.644          46.000  
G15  19680044.290   103419335.400        -877.292          50.000  
G24  20121965.941   105741644.430        1728.521          47.000  
G28  23821836.736   125184619.301        -925.186          36.000  
R16  19083539.774   101940785.458        1157.988          43.000  
R15  20604400.839   110103611.763       -2944.421          47.000  
J 1  37992737.541   199653182.785         -64.478          40.000  
J 2  36202967.842   190247873.408        -516.952          44.000  
R 5  20634555.398   110303486.563       -2173.777          49.000  
R 9  22513658.809   120221638.262        3825.126          40.000  
R21  21503049.316   115067194.175       -3452.764          28.000  
R 7  22416094.564                        2052.603          21.000  
R 6  19466815.093   103878404.886         618.382          31.000  
R22  22064979.548                        -109.593          24.000  
> 2019 10  9  7 18  4.9970000  0 15                     
G 5  21742827.461   114259312.981       -3163.149          49.000  
G13  21025886.958   110491783.724       -2684.696          46.000  
G15  19680211.114   103420212.704        -877.467          50.000  
G24  20121636.708   105739916.163        1727.886          47.000  
G28  23822012.948   125185544.616        -925.881          36.000  
R16  19083322.693   101939627.808        1157.355          43.000  
R15  20604951.603   110106556.569       -2945.123          46.000  
J 1  37992749.948   199653247.073         -64.105          40.000  
J 2  36203066.086   190248390.392        -517.076          44.000  
R 5  20634961.779   110305660.502       -2174.065          48.000  
R 9  22512942.948   120217813.165        3825.054          40.000  
R21  21503695.061   115070646.707       -3453.246          27.000  
R 7  22415712.072                        2066.867          22.000  
R 6  19466690.953   103877786.059         618.316          31.000  
R22  22064999.930                        -110.999          24.000  
> 2019 10  9  7 18  5.9970000  0 16                     
G 5  21743429.424   114262476.310       -3163.682          49.000  
G13  21026398.093   110494468.565       -2685.230          46.000  
G15  19680378.060   103421090.289        -878.005          50.000  
G24  20121307.789   105738188.375        1727.262          47.000  
G28  23822188.951   125186470.370        -926.322          36.000  
R16  19083106.032   101938470.994        1156.152          43.000  
R15  20605502.786   110109502.108       -2946.194          46.000  
J 1  37992762.233   199653311.298         -64.508          40.000  
J 2  36203164.436   190248907.453        -517.408          44.000  
R 5  20635368.037   110307834.652       -2174.584          49.000  
R 9  22512226.966   120213988.049        3824.643          40.000  
G12  24944628.313                        2409.345          15.000  
R21  21504339.550   115074099.675       -3453.695          26.000  
R 7  22415330.471                        2050.988          21.000  
R 6  19466571.070   103877167.354         618.771          30.000  
R22  22065019.701                        -113.803          24.000  
> 2019 10  9  7 18  6.9970000  0 16                     
G 5  21744031.108   114265639.946       -3163.845          49.000  
G13  21026909.367   110497153.524       -2684.972          47.000  
G15  19680545.146   103421968.153        -877.914          50.000  
G24  20120979.341   105736461.143        1726.995          47.000  
G28  23822365.372   125187396.694        -926.686          36.000  
R16  19082889.719   101937315.018        1155.682          43.000  
R15  20606054.038   110112448.370       -2946.587          46.000  
J 1  37992774.343   199653375.453         -63.892          40.000  
J 2  36203262.907   190249424.605        -517.270          44.000  
R 5  20635774.435   110310009.025       -2174.610          49.000  
R 9  22511511.106   120210163.020        3825.207          40.000  
G12  24944176.160                        2409.345          14.000  
R21  21504986.447   115077553.091       -3453.184          26.000  
R 7  22414948.032                        2058.133          20.000  
R 6  19466447.138   103876548.920         618.679          30.000  
R22  22065039.856                        -114.211          24.000  
> 2019 10  9  7 18  7.9970000  0 16                     
G 5  21744633.332   114268803.312       -3163.540          49.000  
G13  21027420.396   110499838.052       -2684.515          47.000  
G15  19680712.337   103422845.732        -877.811          50.000  
G24  20120650.457   105734733.858        1727.101          47.000  
G28  23822541.410   125188322.927        -926.465          36.000  
R16  19082673.406   101936159.302        1155.398          43.000  
R15  20606605.221   110115394.812       -2946.756          46.000  
J 1  37992786.314   199653439.000         -63.507          40.000  
J 2  36203361.379   190249941.282        -516.746          44.000  
R 5  20636180.921   110312183.038       -2174.154          49.000  
R 9  22510795.350   120206337.446        3825.701          41.000  
G12  24943715.160                        2409.345          14.000  
R21  21505630.326                       -3452.743          25.000  
R 7  22414564.668                        2057.198          19.000  
R 6  19466335.020   103875930.095         618.333          31.000  
R22  22065060.395                        -112.506          25.000  
> 2019 10  9  7 18  8.9970000  0 16                     
G 5  21745235.539   114271967.361       -3164.857          49.000  
G13  21027931.408   110502523.095       -2685.814          47.000  
G15  19680879.527   103423723.960        -879.008          50.000  
G24  20120321.799   105733007.466        1725.494          46.000  
G28  23822717.954   125189250.059        -928.296          36.000  
R16  19082457.163   101935004.805        1153.520          44.000  
R15  20607156.560   110118342.347       -2948.506          46.000  
J 1  37992798.494   199653502.842         -64.185          40.000  
J 2  36203459.868   190250458.432        -517.858          44.000  
R 5  20636587.319   110314357.695       -2175.403          49.000  
R 9  22510079.420   120202512.316        3824.700          41.000  
G12  24943262.624                        2409.345          13.000  
R21  21506274.448                       -3456.121          24.000  
R 7  22414181.287                        2047.079          18.000  
R 6  19466224.247   103875311.716         618.262          31.000  
R22  22065083.866                        -114.715          25.000  
> 2019 10  9  7 18  9.9970000  0 16                     
G 5  21745837.868   114275132.333       -3165.302          49.000  
G13  21028442.298   110505208.880       -2686.003          46.000  
G15  19681046.875   103424603.110        -879.476          50.000  
G24  20119993.386   105731282.223        1724.801          46.000  
G28  23822894.707   125190178.335        -928.856          37.000  
R16  19082240.850   101933851.778        1152.336          43.000  
R15  20607708.109   110121291.242       -2949.440          46.000  
J 1  37992810.831   199653567.257         -64.459          40.000  
J 2  36203558.392   190250976.290        -518.183          44.000  
R 5  20636994.310   110316533.252       -2175.948          49.000  
R 9  22509363.978   120198687.924        3824.112          41.000  
G12  24942807.854                        2409.345          11.000  
R21  21506919.617                       -3457.582          24.000  
R 7  22413800.034                        2063.810          19.000  
R 6  19466108.133   103874694.225         617.312          32.000  
R22  22065103.235                        -114.500          25.000  
> 2019 10  9  7 18 10.9970000  0 16                     
G 5  21746440.006   114278297.768       -3165.636          49.000  
G13  21028953.642   110507894.962       -2686.333          47.000  
G15  19681214.309   103425482.683        -879.836          50.000  
G24  20119665.147   105729557.650        1724.157          46.000  
G28  23823071.775   125191107.253        -929.698          37.000  
R16  19082025.287   101932699.737        1151.388          43.000  
R15  20608260.077   110124241.048       -2950.333          46.000  
J 1  37992822.977   199653631.765         -64.697          41.000  
J 2  36203656.637   190251494.383        -518.260          44.000  
R 5  20637400.796   110318709.171       -2176.215          49.000  
R 9  22508648.380   120194863.752        3823.745          41.000  
G12  24942359.348                        2409.345          13.000  
R21  21507565.747                       -3455.579          24.000  
R 7  22413416.147                        2066.051          20.000  
R 6  19466000.552   103874077.044         616.908          32.000  
R22  22065124.385                        -116.310          25.000  
> 2019 10  9  7 18 11.9970000  0 16                     
G 5  21747042.631   114281463.587       -3166.115          49.000  
G13  21029464.811   110510581.234       -2686.380          46.000  
G15  19681382.093   103426362.610        -880.158          50.000  
G24  20119337.136   105727833.663        1723.647          46.000  
G28  23823248.772   125192036.753        -929.695          36.000  
R16  19081809.777   101931548.620        1150.690          43.000  
R15  20608811.870   110127191.664       -2951.094          46.000  
J 1  37992835.436   199653696.278         -64.648          40.000  
J 2  36203755.108   190252012.653        -518.404          44.000  
R 5  20637807.979   110320885.396       -2176.408          49.000  
R 9  22507932.694   120191039.656        3824.239          41.000  
G12  24941898.418                        2409.345          11.000  
R21  21508210.672                       -3456.717          24.000  
R 7  22413032.539                        2059.849          21.000  
R 6  19465889.831   103873460.123         616.565          33.000  
R22  22065145.657                        -119.373          25.000  
> 2019 10  9  7 18 12.9970000  0 16                     
G 5  21747645.083   114284629.614       -3166.232          49.000  
G13  21029976.050   110513267.547       -2686.478          46.000  
G15  19681549.807   103427242.722        -880.373          50.000  
G24  20119008.915   105726110.097        1723.228          46.000  
G28  23823425.718   125192966.671        -930.342          36.000  
R16  19081594.354   101930398.250        1149.996          43.000  
R15  20609363.943   110130142.911       -2951.766          46.000  
J 1  37992847.983   199653760.634         -64.465          40.000  
J 2  36203853.754   190252530.904        -518.248          44.000  
R 5  20638215.424   110323061.757       -2176.531          49.000  
R 9  22507216.537   120187215.570        3823.907          41.000  
G12  24941438.553                        2409.345          12.000  
R21  21508854.759                       -3457.040          24.000  
R 7  22412649.960                        2062.502          22.000  
R 6  19465774.956   103872843.289         616.906          32.000  
R22  22065167.662                        -118.007          25.000  
> 2019 10  9  7 18 13.9970000  0 15                     
G 5  21748247.935   114287795.893       -3166.441          49.000  
G13  21030487.115   110515953.939       -2686.553          46.000  
G15  19681717.399   103428123.075        -880.574          50.000  
G24  20118680.850   105724387.011        1722.682          46.000  
G28  23823602.541   125193897.054        -930.731          36.000  
R16  19081379.350   101929248.697        1148.951          43.000  
R15  20609916.260   110133094.827       -2952.312          46.000  
J 1  37992859.989   199653824.877         -64.252          40.000  
J 2  36203952.331   190253049.209        -518.456          44.000  
R 5  20638622.398   110325238.314       -2176.607          49.000  
R 9  22506500.468   120183391.485        3823.529          41.000  
R21  21509500.173                       -3459.320          24.000  
R 7  22412269.406                        2058.688          22.000  
R 6  19465661.111   103872226.630         616.331          33.000  
R22  22065191.987                        -118.113          25.000  
> 2019 10  9  7 18 14.9970000  0 15                     
G 5  21748850.753   114290962.487       -3166.708          49.000  
G13  21030998.284   110518640.477       -2686.613          46.000  
G15  19681885.183   103429003.724        -880.744          50.000  
G24  20118353.048   105722664.433        1722.297          46.000  
G28  23823779.678   125194827.963        -931.549          36.000  
R16  19081164.259   101928099.982        1148.186          44.000  
R15  20610468.489   110136047.477       -2952.887          46.000  
J 1  37992872.274   199653889.077         -64.478          40.000  
J 2  36204051.047   190253567.597        -518.335          44.000  
R 5  20639029.721   110327415.138       -2176.986          49.000  
R 9  22505784.590   120179567.482        3823.825          41.000  
R21  21510144.645                       -3457.649          23.000  
R 7  22411887.613                        2057.344          22.000  
R 6  19465545.136   103871610.133         616.350          33.000  
R22  22065214.254                        -120.171          25.000  
> 2019 10  9  7 18 15.9970000  0 15                     
G 5  21749453.501   114294129.320       -3166.847          49.000  
G13  21031509.244   110521327.082       -2686.495          46.000  
G15  19682052.915   103429884.595        -880.909          50.000  
G24  20118025.350   105720942.321        1721.996          46.000  
G28  23823956.605   125195759.285        -931.347          36.000  
R16  19080949.412   101926952.046        1147.654          43.000  
R15  20611021.330   110139000.802       -2953.575          46.000  
J 1  37992884.419   199653953.132         -63.983          40.000  
J 2  36204149.797   190254086.027        -518.316          44.000  
R 5  20639437.166   110329592.134       -2177.072          49.000  
R 9  22505068.066   120175743.468        3824.102          40.000  
R21  21510791.699                       -3457.204          24.000  
R 7  22411508.280                        2056.694          23.000  
R 6  19465428.691   103870993.794         616.520          33.000  
R22  22065239.155                        -120.847          24.000  
> 2019 10  9  7 18 16.9970000  0 15                     
G 5  21750056.441   114297296.579       -3167.658          50.000  
G13  21032020.727   110524013.952       -2687.189          46.000  
G15  19682220.698   103430765.873        -881.619          50.000  
G24  20117697.496   105719220.857        1720.981          46.000  
G28  23824133.708   125196691.265        -932.252          36.000  
R16  19080734.425   101925805.068        1146.491          43.000  
R15  20611573.961   110141954.963       -2954.870          46.000  
J 1  37992896.809   199654017.257         -64.447          40.000  
J 2  36204248.339   190254604.679        -518.929          44.000  
R 5  20639844.350   110331769.495       -2177.608          49.000  
R 9  22504352.014   120171919.627        3823.699          40.000  
R21  21511436.763                       -3458.944          24.000  
R 7  22411126.801                        2061.633          24.000  
R 6  19465312.350   103870377.775         615.653          33.000  
R22  22065265.453                        -121.985          24.000  
> 2019 10  9  7 18 17.9970000  0 15                     
G 5  21750659.329   114300463.565       -3167.077          50.000  
G13  21032531.914   110526700.364       -2686.255          46.000  
G15  19682388.639   103431646.860        -881.070          50.000  
G24  20117369.589   105717499.323        1721.449          46.000  
G28  23824310.880   125197623.190        -932.178          36.000  
R16  19080519.421   101924658.352        1146.247          43.000  
R15  20612126.958   110144909.283       -2954.651          46.000  
J 1  37992908.780   199654080.752         -63.513          40.000  
J 2  36204347.194   190255122.836        -518.091          44.000  
R 5  20640251.551   110333946.494       -2177.029          49.000  
R 9  22503635.962   120168095.264        3824.471          40.000  
R21  21512085.091                       -3459.539          25.000  
R 7  22410741.587                        2062.667          23.000  
R 6  19465196.865   103869761.405         616.060          33.000  
R22  22065289.412                        -121.792          24.000  
> 2019 10  9  7 18 18.9970000  0 15                     
G 5  21751262.251   114303630.887       -3168.025          50.000  
G13  21033043.118   110529386.953       -2687.213          46.000  
G15  19682556.615   103432528.158        -881.952          51.000  
G24  20117042.066   105715778.369        1720.046          46.000  
G28  23824488.087   125198555.626        -933.173          36.000  
R16  19080304.469   101923512.513        1144.730          43.000  
R15  20612679.763   110147864.413       -2956.002          46.000  
J 1  37992920.890   199654144.219         -64.185          40.000  
J 2  36204446.207   190255641.120        -518.967          44.000  
R 5  20640658.873   110336123.751       -2178.031          49.000  
R 9  22502919.892   120164271.018        3823.472          40.000  
R21  21512733.157                       -3458.202          26.000  
R 7  22410355.100                        2058.902          24.000  
R 6  19465081.449   103869145.198         615.357          33.000  
R22  22065314.052                        -123.701          23.000  
> 2019 10  9  7 18 19.9970000  0 14                     
G 5  21751865.069   114306799.376       -3168.708          50.000  
G13  21033554.357   110532074.520       -2687.840          46.000  
G15  19682724.765   103433410.595        -882.727          51.000  
G24  20116714.822   105714058.768        1719.288          46.000  
G28  23824665.835   125199489.444        -934.011          36.000  
R16  19080090.250   101922368.402        1143.769          43.000  
R15  20613233.145   110150821.172       -2957.169          46.000  
J 1  37992933.158   199654208.474         -64.288          40.000  
J 2  36204544.783   190256160.362        -519.543          44.000  
R 5  20641066.319   110338302.138       -2178.620          49.000  
R 9  22502203.770   120160447.691        3822.978          40.000  
R21  21513382.742   115122414.3603      -3460.888          26.000  
R 7  22409970.340                        2050.949          24.000  
R 6  19464966.121   103868530.041         615.370          33.000  
> 2019 10  9  7 18 20.9970000  0 14                     
G 5  21752468.113   114309968.361       -3169.144          50.000  
G13  21034065.683   110534762.420       -2687.994          46.000  
G15  19682892.794   103434293.511        -883.088          51.000  
G24  20116387.648   105712339.875        1718.668          46.000  
G28  23824843.949   125200423.973        -934.642          36.000  
R16  19079875.892   101921225.351        1142.679          43.000  
R15  20613786.683   110153778.836       -2957.844          46.000  
J 1  37992945.408   199654272.857         -64.404          40.000  
J 2  36204643.743   190256679.872        -519.598          44.000  
R 5  20641474.200   110340480.975       -2178.986          49.000  
R 9  22501487.317   120156624.614        3823.040          40.000  
R21  21514030.913   115125897.7173      -3461.344          26.000  
R 7  22409585.161                        2057.416          23.000  
R 6  19464850.845   103867915.376         614.061          34.000  
> 2019 10  9  7 18 21.9970000  0 14                     
G 5  21753071.542   114313137.647       -3169.530          50.000  
G13  21034577.219   110537450.436       -2688.046          46.000  
G15  19683061.014   103435176.705        -883.449          51.000  
G24  20116060.735   105710621.469        1718.191          46.000  
G28  23825021.924   125201359.030        -936.034          36.000  
R16  19079661.987   101920083.128        1141.877          43.000  
R15  20614340.169   110156737.201       -2958.823          46.000  
J 1  37992957.588   199654337.185         -64.435          40.000  
J 2  36204742.825   190257199.473        -519.683          44.000  
R 5  20641882.151   110342660.040       -2179.260          49.000  
R 9  22500771.038   120152801.574        3823.011          40.000  
R21  21514677.705   115129359.6222      -3462.477          27.000  
R 7  22409195.568                        2066.270          22.000  
R 6  19464735.865   103867300.804         614.255          34.000  
> 2019 10  9  7 18 22.9970000  0 14                     
G 5  21753674.744   114316307.187       -3169.732          50.000  
G13  21035088.615   110540138.539       -2688.290          46.000  
G15  19683229.042   103436060.133        -883.719          51.000  
G24  20115733.875   105708903.550        1717.550          46.000  
G28  23825199.933   125202294.502        -935.948          36.000  
R16  19079448.448   101918941.690        1140.901          43.000  
R15  20614893.934   110159696.250       -2959.584          46.000  
J 1  37992969.541   199654401.400         -64.276          40.000  
J 2  36204841.419   190257719.113        -519.660          44.000  
R 5  20642289.928   110344839.282       -2179.439          49.000  
R 9  22500054.619   120148978.602        3822.593          40.000  
R21  21515325.963   115132821.3951      -3462.725          28.000  
R 7  22408809.394                        2060.386          22.000  
R 6  19464620.851   103866686.378         614.448          34.000  
> 2019 10  9  7 18 23.9970000  0 14                     
G 5  21754277.963   114319476.971       -3169.882          50.000  
G13  21035600.290   110542826.724       -2688.282          46.000  
G15  19683397.070   103436943.789        -883.839          51.000  
G24  20115407.067   105707186.119        1717.129          46.000  
G28  23825378.100   125203230.435        -935.842          36.000  
R16  19079235.120   101917801.022        1140.215          44.000  
R15  20615447.752   110162655.991       -2960.044          46.000  
J 1  37992981.652   199654465.495         -64.124          40.000  
J 2  36204940.502   190258238.795        -519.658          44.000  
R 5  20642697.548   110347018.697       -2179.535          49.000  
R 9  22499337.938   120145155.577        3823.084          40.000  
R21  21515976.350   115136284.092       -3462.954          29.000  
R 7  22408422.279                        2060.282          21.000  
R 6  19464506.081   103866072.100         613.954          34.000  
> 2019 10  9  7 18 24.9970000  0 14                     
G 5  21754881.287   114322647.102       -3170.419          50.000  
G13  21036111.791   110545515.065       -2688.675          46.000  
G15  19683565.238   103437827.763        -884.151          51.000  
G24  20115080.452   105705469.225        1716.457          46.000  
G28  23825556.407   125204166.915        -936.692          36.000  
R16  19079021.686   101916661.238        1139.341          44.000  
R15  20616001.657   110165616.499       -2960.951          46.000  
J 1  37992993.710   199654529.559         -64.130          40.000  
J 2  36205039.183   190258758.606        -519.984          44.000  
R 5  20643105.673   110349198.389       -2179.869          49.000  
R 9  22498621.729   120141332.667        3822.256          41.000  
R21  21516626.074   115139747.287       -3462.430          29.000  
R 7  22408032.650                        2063.720          20.000  
R 6  19464391.101   103865458.037         613.346          35.000  
> 2019 10  9  7 18 25.9970000  0 14                     
G 5  21755484.698   114325817.572       -3170.607          50.000  
G13  21036623.414   110548203.576       -2688.494          46.000  
G15  19683733.405   103438712.056        -884.388          50.000  
G24  20114754.028   105703752.882        1716.109          46.000  
G28  23825735.010   125205103.966        -937.549          36.000  
R16  19078808.671   101915522.358        1138.522          44.000  
R15  20616555.631   110168577.777       -2961.743          46.000  
J 1  37993006.117   199654593.606         -64.117          40.000  
J 2  36205138.247   190259278.544        -520.060          44.000  
R 5  20643513.799   110351378.376       -2180.043          49.000  
R 9  22497905.049   120137509.838        3822.732          41.000  
R21  21517275.711   115143211.099       -3464.421          31.000  
R 7  22407646.774                        2055.622          20.000  
R 6  19464276.226   103864844.208         613.654          35.000  
> 2019 10  9  7 18 26.9970000  0 14                     
G 5  21756088.109   114328988.257       -3170.753          50.000  
G13  21037135.124   110550892.131       -2688.458          46.000  
G15  19683901.538   103439596.541        -884.484          50.000  
G24  20114427.447   105702036.982        1715.683          46.000  
G28  23825913.613   125206041.422        -937.735          37.000  
R16  19078595.848   101914384.227        1137.802          44.000  
R15  20617109.536   110171539.662       -2961.948          46.000  
J 1  37993018.315   199654657.492         -63.593          40.000  
J 2  36205237.260   190259798.488        -520.074          44.000  
R 5  20643922.047   110353558.507       -2180.145          49.000  
R 9  22497188.752   120133687.004        3822.913          41.000  
R21  21517925.906   115146675.244       -3464.477          32.000  
R 7  22407261.386                        2051.196          21.000  
R 6  19464161.421   103864230.497         613.505          34.000  
> 2019 10  9  7 18 27.9970000  0 14                     
G 5  21756691.345   114332158.773       -3170.538          50.000  
G13  21037646.730   110553580.340       -2688.099          46.000  
G15  19684069.706   103440480.843        -884.315          50.000  
G24  20114101.128   105700321.111        1715.676          46.000  
G28  23826091.797   125206978.881        -937.389          37.000  
R16  19078382.868   101913246.422        1137.708          44.000  
R15  20617663.860   110174501.810       -2962.376          46.000  
J 1  37993030.285   199654720.852         -63.226          40.000  
J 2  36205336.447   190260318.035        -519.383          44.000  
R 5  20644330.556   110355738.375       -2179.810          49.000  
R 9  22496472.019   120129863.770        3823.507          41.000  
R21  21518574.653   115150139.320       -3464.349          32.000  
R 7  22406876.224                        2061.878          22.000  
R 6  19464045.988   103863616.484         614.324          34.000  
> 2019 10  9  7 18 28.9970000  0 14                     
G 5  21757294.338   114335329.378       -3171.299          50.000  
G13  21038158.318   110556268.468       -2688.580          46.000  
G15  19684237.752   103441365.208        -885.024          50.000  
G24  20113774.547   105698605.545        1714.816          46.000  
G28  23826270.173   125207916.673        -938.122          37.000  
R16  19078170.098   101912109.227        1136.382          44.000  
R15  20618218.114   110177464.475       -2963.390          46.000  
J 1  37993042.361   199654783.933         -63.409          40.000  
J 2  36205435.285   190260837.473        -519.977          44.000  
R 5  20644738.612   110357918.251       -2180.370          49.000  
R 9  22495755.775   120126040.344        3823.029          41.000  
R21  21519218.060   115153603.702       -3464.364          32.000  
R 7  22406489.911                        2072.936          23.000  
R 6  19463930.852   103863002.476         613.307          34.000  
> 2019 10  9  7 18 29.9970000  0 14                     
G 5  21757897.993   114338501.081       -3172.271          50.000  
G13  21038670.115   110558957.524       -2689.506          46.000  
G15  19684406.076   103442250.656        -885.915          50.000  
G24  20113448.193   105696891.283        1713.630          46.000  
G28  23826448.706   125208855.791        -939.789          37.000  
R16  19077957.450   101910973.709        1134.669          44.000  
R15  20618772.978   110180428.714       -2964.796          46.000  
J 1  37993054.402   199654847.752         -64.044          40.000  
J 2  36205534.490   190261357.792        -520.587          44.000  
R 5  20645146.598   110360099.164       -2181.366          49.000  
R 9  22495039.095   120122217.787        3822.239          41.000  
R21  21519865.620   115157069.468       -3466.483          32.000  
R 7  22406107.106                        2056.198          24.000  
R 6  19463816.012   103862389.460         612.755          34.000  
> 2019 10  9  7 18 30.9970000  0 14                     
G 5  21758501.928   114341673.492       -3172.859          50.000  
G13  21039181.843   110561647.099       -2689.802          46.000  
G15  19684574.419   103443136.792        -886.534          50.000  
G24  20113121.892   105695177.940        1712.932          46.000  
G28  23826627.693   125209795.788        -940.221          37.000  
R16  19077745.237   101909839.462        1133.521          44.000  
R15  20619327.947   110183394.085       -2965.976          46.000  
J 1  37993066.250   199654911.921         -64.514          40.000  
J 2  36205633.764   190261878.607        -521.198          44.000  
R 5  20645554.829   110362280.749       -2181.934          49.000  
R 9  22494322.798   120118395.711        3821.792          41.000  
R21  21520517.124   115160536.102       -3467.273          32.000  
R 7  22405720.304                        2052.075          23.000  
R 6  19463701.329   103861777.029         611.950          34.000  
> 2019 10  9  7 18 31.9970000  0 14                     
G 5  21759105.618   114344846.234       -3172.753          50.000  
G13  21039694.129   110564336.840       -2689.634          46.000  
G15  19684743.093   103444023.233        -886.445          50.000  
G24  20112795.730   105693465.153        1712.678          46.000  
G28  23826806.872   125210736.326        -940.669          37.000  
R16  19077533.252   101908706.099        1133.069          44.000  
R15  20619883.213   110186360.190       -2966.319          46.000  
J 1  37993078.745   199654976.054         -64.288          40.000  
J 2  36205732.951   190262399.551        -520.864          44.000  
R 5  20645963.391   110364462.632       -2181.917          49.000  
R 9  22493606.519   120114573.692        3822.198          41.000  
R21  21521165.277   115164003.198       -3467.987          31.000  
R 7  22405335.824                        2065.660          22.000  
R 6  19463586.489   103861164.822         612.188          35.000  
> 2019 10  9  7 18 32.9970000  0 14                     
G 5  21759709.465   114348019.262       -3173.060          50.000  
G13  21040205.996   110567026.694       -2689.822          47.000  
G15  19684911.592   103444909.935        -886.712          50.000  
G24  20112470.091   105691752.856        1712.208          46.000  
G28  23826986.260   125211677.374        -941.340          37.000  
R16  19077321.180   101907573.539        1132.334          44.000  
R15  20620438.654   110189327.008       -2967.257          46.000  
J 1  37993090.803   199655040.074         -63.635          40.000  
J 2  36205832.068   190262920.544        -520.738          44.000  
R 5  20646371.569   110366644.740       -2182.132          49.000  
R 9  22492890.380   120110751.729        3822.091          41.000  
R21  21521812.698   115167470.723       -3467.690          31.000  
R 7  22404949.441                        2058.013          22.000  
R 6  19463471.963   103860552.807         611.641          35.000  
> 2019 10  9  7 18 33.9970000  0 14                     
G 5  21760313.208   114351192.622       -3173.568          50.000  
G13  21040717.933   110569716.693       -2690.058          47.000  
G15  19685080.405   103445796.951        -887.110          50.000  
G24  20112144.592   105690041.122        1711.428          46.000  
G28  23827165.648   125212618.950        -942.194          37.000  
R16  19077109.718   101906441.855        1131.353          44.000  
R15  20620994.059   110192294.596       -2967.722          46.000  
J 1  37993102.948   199655104.092         -63.959          40.000  
J 2  36205931.116   190263441.671        -521.066          45.000  
R 5  20646779.956   110368827.106       -2182.465          49.000  
R 9  22492174.275   120106929.889        3821.868          41.000  
R21  21522461.130   115170938.811       -3468.407          32.000  
R 7  22404563.198                        2050.970          22.000  
R 6  19463357.158   103859940.959         612.084          35.000  
> 2019 10  9  7 18 34.9970000  0 14                     
G 5  21760916.951   114354366.195       -3173.907          50.000  
G13  21041229.801   110572406.735       -2690.233          47.000  
G15  19685249.184   103446684.161        -887.526          50.000  
G24  20111818.866   105688329.805        1710.996          46.000  
G28  23827345.124   125213560.930        -942.519          37.000  
R16  19076898.605   101905310.915        1130.610          44.000  
R15  20621549.657   110195262.857       -2968.842          46.000  
J 1  37993114.849   199655167.950         -63.995          40.000  
J 2  36206030.303   190263962.792        -521.267          45.000  
R 5  20647188.309   110371009.599       -2182.738          49.000  
R 9  22491458.066   120103108.006        3821.729          41.000  
R21  21523109.336   115174407.334       -3469.583          31.000  
R 7  22404178.281                        2054.428          20.000  
R 6  19463242.702   103859329.260         611.491          35.000  
> 2019 10  9  7 18 35.9970000  0 14                     
G 5  21761520.745   114357539.953       -3173.879          50.000  
G13  21041741.947   110575096.799       -2690.091          47.000  
G15  19685417.945   103447571.534        -887.402          50.000  
G24  20111493.280   105686618.904        1710.652          46.000  
G28  23827524.617   125214503.311        -942.704          37.000  
R16  19076687.789   101904180.718        1129.736          45.000  
R15  20622105.115   110198231.684       -2968.957          46.000  
J 1  37993126.942   199655231.627         -63.580          40.000  
J 2  36206129.664   190264483.892        -521.071          45.000  
R 5  20647596.714   110373192.206       -2182.722          49.000  
R 9  22490742.293   120099286.080        3821.836          41.000  
R21  21523758.467   115177876.142       -3468.210          31.000  
R 7  22403793.172                        2061.683          20.000  
R 6  19463127.950   103858717.611         611.686          34.000  
> 2019 10  9  7 18 36.9970000  0 15                     
G 5  21762124.593   114360714.095       -3174.419          50.000  
G13  21042254.181   110577787.060       -2690.404          47.000  
G15  19685586.723   103448459.273        -887.929          50.000  
G24  20111167.764   105684908.605        1709.931          46.000  
G28  23827704.476   125215446.252        -943.260          37.000  
R16  19076476.502   101903051.449        1128.758          45.000  
R15  20622661.148   110201201.302       -2970.014          46.000  
J 1  37993139.122   199655295.322         -63.641          40.000  
J 2  36206228.869   190265005.160        -521.490          45.000  
R 5  20648005.258   110375375.105       -2183.077          49.000  
R 9  22490026.206   120095464.284        3821.659          41.000  
R21  21524409.412   115181345.532       -3469.601          31.000  
R 7  22403408.395                        2065.922          19.000  
R 6  19463013.057   103858106.238         610.952          34.000  
R22  22065759.294                        -137.882          26.000  
> 2019 10  9  7 18 37.9970000  0 15                     
G 5  21762728.597   114363888.181       -3173.977          50.000  
G13  21042766.153   110580477.106       -2689.796          47.000  
G15  19685755.746   103449346.929        -887.557          50.000  
G24  20110842.527   105683198.468        1710.148          46.000  
G28  23827884.074   125216389.397        -943.291          37.000  
R16  19076265.633   101901922.672        1128.655          45.000  
R15  20623217.130   110204171.308       -2970.208          46.000  
J 1  37993151.128   199655358.601         -62.787          40.000  
J 2  36206328.370   190265526.154        -520.800          45.000  
R 5  20648413.523   110377557.894       -2182.698          49.000  
R 9  22489310.101   120091642.165        3822.485          41.000  
R21  21525053.133   115184815.002       -3469.338          30.000  
R 7  22403022.361                        2051.010          19.000  
R 6  19462898.514   103857494.679         611.382          34.000  
R22  22065786.045   117788585.0532       -138.473          26.000  
> 2019 10  9  7 18 38.9970000  0 15                     
G 5  21763332.654   114367062.323       -3174.828          50.000  
G13  21043277.985   110583167.026       -2690.520          47.000  
G15  19685924.542   103450234.621        -888.382          50.000  
G24  20110517.359   105681488.607        1708.983          46.000  
G28  23828063.636   125217332.767        -944.037          38.000  
R16  19076054.573   101900794.488        1127.003          45.000  
R15  20623772.797   110207141.824       -2971.444          46.000  
J 1  37993163.012   199655421.563         -63.574          40.000  
J 2  36206427.574   190266046.992        -521.298          45.000  
R 5  20648821.579   110379740.674       -2183.480          49.000  
R 9  22488594.223   120087819.874        3821.812          41.000  
R21  21525697.448   115188284.780       -3470.928          30.000  
R 7  22402635.403                        2059.115          19.000  
R 6  19462783.430   103856883.019         610.984          34.000  
R22  22065816.845   117788753.5063       -140.307          27.000  
> 2019 10  9  7 18 39.9970000  0 15                     
G 5  21763936.728   114370237.561       -3175.684          50.000  
G13  21043789.922   110585857.876       -2691.178          47.000  
G15  19686093.809   103451123.391        -889.155          50.000  
G24  20110192.122   105679780.056        1708.000          46.000  
G28  23828243.775   125218277.450        -945.050          38.000  
R16  19075843.844   101899667.938        1125.839          45.000  
R15  20624328.866   110210113.859       -2972.550          46.000  
J 1  37993175.000   199655485.274         -63.965          40.000  
J 2  36206526.866   190266568.712        -521.885          45.000  
R 5  20649230.176   110381924.499       -2184.135          49.000  
R 9  22487878.328   120083998.472        3821.087          41.000  
R21  21526345.130   115191755.813       -3471.711          30.000  
R 7  22402252.964                        2062.246          17.000  
R 6  19462668.642   103856272.396         609.977          34.000  
R22  22065845.254   117788894.5622       -141.453          27.000  
> 2019 10  9  7 18 40.9970000  0 15                     
G 5  21764540.959   114373413.431       -3176.182          50.000  
G13  21044302.034   110588549.186       -2691.526          47.000  
G15  19686263.233   103452012.768        -889.631          50.000  
G24  20109867.374   105678072.341        1707.239          47.000  
G28  23828423.826   125219222.969        -945.611          38.000  
R16  19075633.168   101898542.567        1124.837          44.000  
R15  20624885.248   110213086.929       -2973.618          46.000  
J 1  37993187.076   199655549.239         -64.105          40.000  
J 2  36206626.437   190267090.866        -522.304          45.000  
R 5  20649638.947   110384108.909       -2184.764          49.000  
R 9  22487162.555   120080177.471        3820.850          41.000  
R21  21526985.954   115195227.692       -3471.967          29.000  
R 7  22401867.122                        2072.593          16.000  
R 6  19462554.117   103855662.292         610.011          33.000  
R22  22065876.978   117789036.7942       -142.744          28.000  
> 2019 10  9  7 18 41.9970000  0 15                     
G 5  21765145.260   114376589.667       -3176.544          50.000  
G13  21044814.023   110591240.682       -2691.630          47.000  
G15  19686432.623   103452902.493        -890.016          50.000  
G24  20109542.817   105676365.192        1706.769          47.000  
G28  23828603.756   125220169.073        -946.389          38.000  
R16  19075422.561   101897418.101        1123.897          44.000  
R15  20625441.910   110216060.781       -2974.412          46.000  
J 1  37993199.291   199655613.193         -64.069          40.000  
J 2  36206725.624   190267613.161        -522.535          45.000  
R 5  20650047.579   110386293.608       -2184.865          49.000  
R 9  22486446.939   120076356.567        3820.856          41.000  
R21  21527632.258   115198700.070       -3472.812          29.000  
R 7  22401479.518                        2048.958          17.000  
R 6  19462439.416   103855052.410         610.083          33.000  
R22  22065903.991   117789179.9432       -144.019          28.000  
> 2019 10  9  7 18 42.9970000  0 15                     
G 5  21765749.701   114379766.212       -3176.897          50.000  
G13  21045326.466   110593932.309       -2691.878          47.000  
G15  19686602.151   103453792.499        -890.291          50.000  
G24  20109217.981   105674658.562        1706.125          47.000  
G28  23828784.138   125221115.680        -947.014          38.000  
R16  19075212.007   101896294.469        1122.875          44.000  
R15  20625998.433   110219035.382       -2975.052          46.000  
J 1  37993211.558   199655677.107         -64.270          40.000  
J 2  36206825.212   190268135.555        -522.661          45.000  
R 5  20650456.228   110388478.567       -2185.295          49.000  
R 9  22485731.428   120072535.753        3820.629          41.000  
R21  21528269.662   115202172.943       -3473.127          29.000  
R 7  22401097.183                        2054.961          17.000  
R 6  19462324.908   103854442.776         608.960          34.000  
R22  22065933.848   117789323.8342       -143.952          27.000  
> 2019 10  9  7 18 43.9970000  0 15                     
G 5  21766353.845   114382942.998       -3176.991          50.000  
G13  21045838.717   110596624.006       -2691.872          47.000  
G15  19686771.680   103454682.722        -890.481          50.000  
G24  20108893.250   105672952.388        1705.837          47.000  
G28  23828964.364   125222062.742        -947.665          38.000  
R16  19075001.313   101895171.630        1122.305          44.000  
R15  20626554.798   110222010.700       -2975.714          46.000  
J 1  37993224.122   199655740.899         -64.093          40.000  
J 2  36206924.783   190268657.975        -522.518          45.000  
R 5  20650864.930   110390663.704       -2185.279          49.000  
R 9  22485016.108   120068714.943        3820.646          42.000  
R21  21528914.587   115205646.241       -3473.541          28.000  
R 7  22400714.762                        2050.166          18.000  
R 6  19462210.958   103853833.230         609.141          34.000  
R22  22065962.659   117789468.5612       -144.946          27.000  
> 2019 10  9  7 18 44.9970000  0 15                     
G 5  21766958.565   114386120.064       -3177.126          50.000  
G13  21046350.794   110599315.814       -2691.835          47.000  
G15  19686941.157   103455573.204        -890.534          50.000  
G24  20108568.868   105671246.702        1705.580          47.000  
G28  23829144.520   125223010.297        -947.812          38.000  
R16  19074790.916   101894049.632        1121.751          44.000  
R15  20627111.669   110224986.707       -2976.217          46.000  
J 1  37993236.058   199655804.598         -63.708          40.000  
J 2  36207024.354   190269180.479        -522.414          45.000  
R 5  20651273.771   110392849.058       -2185.392          49.000  
R 9  22484300.492   120064894.170        3820.787          42.000  
R21  21529555.796   115209119.979       -3473.785          28.000  
R 7  22400332.515                        2061.802          19.000  
R 6  19462096.520   103853223.883         609.125          34.000  
R22  22065991.958   117789614.094        -145.937          26.000  
> 2019 10  9  7 18 45.9970000  0 15                     
G 5  21767563.145   114389297.314       -3177.426          50.000  
G13  21046863.167   110602007.624       -2691.805          47.000  
G15  19687110.738   103456463.843        -890.809          50.000  
G24  20108244.469   105669541.428        1705.007          47.000  
G28  23829325.148   125223958.216        -947.909          38.000  
R16  19074580.797   101892928.367        1120.991          44.000  
R15  20627668.663   110227963.283       -2976.808          46.000  
J 1  37993248.082   199655868.108         -63.489          40.000  
J 2  36207123.943   190269702.946        -522.537          45.000  
R 5  20651682.892   110395034.510       -2185.591          49.000  
R 9  22483585.383   120061073.343        3820.908          42.000  
R21  21530209.603   115212594.158       -3474.128          28.000  
R 7  22399951.489                        2072.854          20.000  
R 6  19461982.186   103852614.589         609.018          35.000  
R22  22066018.779   117789760.311        -146.592          25.000  
> 2019 10  9  7 18 46.9970000  0 15                     
G 5  21768167.551   114392474.903       -3177.872          50.000  
G13  21047375.540   110604699.607       -2692.249          47.000  
G15  19687280.302   103457354.801        -891.281          50.000  
G24  20107919.912   105667836.718        1704.331          47.000  
G28  23829505.356   125224906.691        -948.970          38.000  
R16  19074370.994   101891808.001        1119.707          44.000  
R15  20628225.970   110230940.604       -2977.816          46.000  
J 1  37993260.175   199655931.596         -63.599          40.000  
J 2  36207223.287   190270225.543        -522.937          45.000  
R 5  20652091.907   110397220.221       -2186.046          49.000  
R 9  22482870.063   120057252.611        3820.733          42.000  
R21  21530861.089   115216068.795       -3475.087          27.000  
R 7  22399569.644                        2060.002          21.000  
R 6  19461868.131   103852005.546         609.041          34.000  
R22  22066048.409                        -143.382          24.000  
> 2019 10  9  7 18 47.9970000  0 14                     
G 5  21768772.323   114395652.389       -3177.087          50.000  
G13  21047887.582   110607391.305       -2691.202          47.000  
G15  19687449.900   103458245.631        -890.423          50.000  
G24  20107595.635   105666132.128        1704.909          47.000  
G28  23829685.844   125225855.266        -948.262          38.000  
R16  19074161.050   101890688.063        1119.949          44.000  
R15  20628783.330   110233918.274       -2977.557          46.000  
J 1  37993272.233   199655994.617         -62.292          40.000  
J 2  36207322.666   190270747.811        -521.788          45.000  
R 5  20652500.487   110399405.767       -2185.106          49.000  
R 9  22482154.796   120053431.528        3821.377          42.000  
R21  21531511.441   115219543.513       -3475.057          26.000  
R 7  22399187.833                        2056.957          21.000  
R 6  19461754.111   103851396.274         610.002          35.000  
> 2019 10  9  7 18 48.9970000  0 14                     
G 5  21769376.729   114398829.853       -3178.150          49.000  
G13  21048399.537   110610082.806       -2692.031          47.000  
G15  19687619.534   103459136.411        -891.297          50.000  
G24  20107271.218   105664427.748        1703.658          47.000  
G28  23829866.122   125226804.018        -949.549          38.000  
R16  19073951.455   101889568.619        1118.608          44.000  
R15  20629340.743   110236896.361       -2978.811          46.000  
J 1  37993284.413   199656057.241         -62.897          40.000  
J 2  36207422.184   190271269.852        -522.599          45.000  
R 5  20652909.537   110401591.236       -2186.143          49.000  
R 9  22481439.215   120049610.186        3820.599          42.000  
R21  21532161.829                       -3475.016          25.000  
R 7  22398808.570                        2064.397          22.000  
R 6  19461639.708   103850786.886         608.425          34.000  
> 2019 10  9  7 18 49.9970000  0 14                     
G 5  21769981.641   114402008.465       -3178.940          49.000  
G13  21048911.823   110612775.297       -2692.795          47.000  
G15  19687789.325   103460028.340        -892.297          50.000  
G24  20106947.150   105662724.749        1702.532          47.000  
G28  23830046.993   125227754.139        -950.577          38.000  
R16  19073742.105   101888450.869        1117.113          44.000  
R15  20629898.120   110239876.074       -2980.515          46.000  
J 1  37993296.297   199656120.684         -63.763          40.000  
J 2  36207521.546   190271792.834        -523.261          45.000  
R 5  20653318.762   110403777.806       -2186.974          49.000  
R 9  22480723.896   120045789.767        3820.218          43.000  
R21  21532808.411                       -3477.327          24.000  
R 7  22398425.538                        2056.892          22.000  
R 6  19461525.618   103850178.539         608.120          34.000  
> 2019 10  9  7 18 50.9970000  0 14                     
G 5  21770586.291   114405187.810       -3179.560          49.000  
G13  21049424.510   110615468.349       -2693.206          47.000  
G15  19687959.342   103460920.984        -892.927          50.000  
G24  20106623.535   105661022.714        1701.611          47.000  
G28  23830228.004   125228705.209        -951.536          38.000  
R16  19073532.772   101887334.370        1116.107          44.000  
R15  20630455.532   110242856.908       -2981.336          46.000  
J 1  37993308.442   199656184.478         -64.020          40.000  
J 2  36207621.152   190272316.342        -523.654          45.000  
R 5  20653727.970   110405965.060       -2187.391          49.000  
R 9  22480008.786   120041969.826        3819.828          43.000  
R21  21533455.064                       -3475.686          22.000  
R 7  22398044.338                        2055.013          22.000  
R 6  19461411.825   103849570.881         606.609          34.000  
> 2019 10  9  7 18 51.9970000  0 14                     
G 5  21771191.255   114408367.519       -3179.755          49.000  
G13  21049937.285   110618161.589       -2693.450          47.000  
G15  19688129.307   103461813.967        -893.121          50.000  
G24  20106299.816   105659321.245        1701.148          47.000  
G28  23830409.190   125229656.842        -951.971          38.000  
R16  19073323.631   101886218.802        1115.134          44.000  
R15  20631012.840   110245838.521       -2982.126          46.000  
J 1  37993320.640   199656248.278         -63.898          40.000  
J 2  36207720.827   190272840.000        -523.768          45.000  
R 5  20654137.666   110408152.622       -2187.642          49.000  
R 9  22479293.885   120038150.043        3819.852          43.000  
R21  21534103.584                       -3473.853          21.000  
R 7  22397659.822                        2058.361          21.000  
R 6  19461297.736   103848963.438         607.685          33.000  
> 2019 10  9  7 18 52.9970000  0 14                     
G 5  21771796.184   114411547.479       -3180.244          49.000  
G13  21050449.763   110620854.888       -2693.451          47.000  
G15  19688299.220   103462707.159        -893.366          50.000  
G24  20105975.958   105657620.225        1700.583          47.000  
G28  23830590.149   125230608.911        -952.379          38.000  
R16  19073115.084   101885104.025        1114.347          44.000  
R15  20631570.846   110248820.793       -2982.682          46.000  
J 1  37993332.715   199656311.931         -63.647          40.000  
J 2  36207820.608   190273363.679        -523.752          45.000  
R 5  20654547.048   110410340.363       -2187.898          49.000  
R 9  22478578.985   120034330.269        3819.739          43.000  
R21  21534751.493                       -3483.203          19.000  
R 7  22397276.319                        2058.987          22.000  
R 6  19461183.629   103848356.139         607.001          33.000  
> 2019 10  9  7 18 53.9970000  0 14                     
G 5  21772401.235   114414727.869       -3180.661          49.000  
G13  21050962.241   110623548.459       -2693.723          47.000  
G15  19688469.307   103463600.789        -893.973          50.000  
G24  20105652.448   105655919.852        1700.038          47.000  
G28  23830771.369   125231561.614        -952.719          38.000  
R16  19072906.362   101883990.264        1113.287          44.000  
R15  20632128.956   110251803.960       -2983.736          46.000  
J 1  37993344.651   199656375.678         -63.574          40.000  
J 2  36207920.336   190273887.599        -523.991          45.000  
R 5  20654956.273   110412528.503       -2188.384          49.000  
R 9  22477864.119   120030510.674        3819.436          43.000  
R21  21535404.952                       -3483.139          17.000  
R 7  22396892.833                        2058.525          22.000  
R 6  19461069.382   103847749.140         606.470          33.000  
> 2019 10  9  7 18 54.9970000  0 14                     
G 5  21773006.461   114417908.546       -3180.722          49.000  
G13  21051474.928   110626242.133       -2693.719          47.000  
G15  19688639.534   103464494.669        -893.945          50.000  
G24  20105328.712   105654220.029        1699.528          47.000  
G28  23830952.974   125232514.815        -952.962          38.000  
R16  19072697.971   101882877.349        1112.665          44.000  
R15  20632686.805   110254787.837       -2984.231          46.000  
J 1  37993356.796   199656439.347         -63.495          40.000  
J 2  36208020.151   190274411.581        -523.958          45.000  
R 5  20655365.585   110414716.869       -2188.345          49.000  
R 9  22477149.184   120026691.156        3819.450          43.000  
R21  21536055.216                       -3481.123          14.000  
R 7  22396509.329                        2057.989          22.000  
R 6  19460955.310   103847142.300         606.965          33.000  
> 2019 10  9  7 18 55.9970000  0 15                     
G 5  21773611.530   114421089.447       -3181.140          49.000  
G13  21051987.493   110628935.860       -2693.899          47.000  
G15  19688809.587   103465388.746        -894.282          50.000  
G24  20105005.185   105652520.655        1699.033          47.000  
G28  23831134.526   125233468.483        -953.908          38.000  
R16  19072489.755   101881765.179        1111.680          44.000  
R15  20633244.932   110257772.371       -2984.941          45.000  
J 1  37993368.593   199656502.876         -63.519          40.000  
J 2  36208120.001   190274935.569        -524.201          45.000  
R 5  20655774.706   110416905.376       -2188.585          49.000  
R 9  22476434.022   120022871.582        3819.586          43.000  
R21  21536707.715                       -3479.441          13.000  
R 7  22396127.641                        2053.824          23.000  
R 6  19460841.343   103846535.584         606.727          33.000  
R22  22066303.130                        -153.700          25.000  
> 2019 10  9  7 18 56.9970000  0 15                     
G 5  21774216.756   114424270.769       -3181.533          49.000  
G13  21052500.059   110631629.818       -2694.042          47.000  
G15  19688979.447   103466283.224        -894.536          50.000  
G24  20104681.692   105650821.891        1698.601          47.000  
G28  23831316.008   125234422.741        -954.444          38.000  
R16  19072281.871   101880653.949        1110.898          44.000  
R15  20633803.427   110260757.743       -2985.663          45.000  
J 1  37993380.703   199656566.442         -63.544          40.000  
J 2  36208219.607   190275459.760        -524.123          45.000  
R 5  20656184.140   110419094.219       -2188.823          49.000  
R 9  22475719.156   120019052.194        3819.442          44.000  
R21  21537357.823                       -3474.370          11.000  
R 7  22395744.992                        2059.046          23.000  
R 6  19460727.428   103845929.174         606.364          33.000  
R22  22066329.602   117791490.7393       -156.236          26.000  
> 2019 10  9  7 18 57.9970000  0 15                     
G 5  21774822.191   114427452.072       -3181.143          49.000  
G13  21053012.763   110634323.590       -2693.507          47.000  
G15  19689149.412   103467177.663        -894.294          50.000  
G24  20104358.514   105649123.319        1698.614          47.000  
G28  23831497.857   125235377.194        -954.462          38.000  
R16  19072073.725   101879543.229        1110.712          44.000  
R15  20634362.043   110263743.483       -2985.765          45.000  
J 1  37993393.006   199656629.636         -62.872          40.000  
J 2  36208319.527   190275983.728        -523.739          46.000  
R 5  20656593.487   110421282.961       -2188.593          49.000  
R 9  22475004.203   120015232.544        3820.082          44.000  
R21  21538011.124                       -3477.867          13.000  
R 7  22395363.461                        2063.289          24.000  
R 6  19460613.443   103845322.624         606.469          33.000  
R22  22066356.405   117791647.3102       -156.309          27.000  
> 2019 10  9  7 18 58.9970000  0 15                     
G 5  21775427.662   114430633.156       -3181.575          49.000  
G13  21053525.172   110637016.969       -2693.683          47.000  
G15  19689319.691   103468071.861        -894.693          50.000  
G24  20104035.110   105647424.701        1697.973          46.000  
G28  23831679.548   125236331.634        -955.349          38.000  
R16  19071865.928   101878432.846        1109.617          44.000  
R15  20634920.240   110266729.434       -2986.540          45.000  
J 1  37993405.029   199656692.223         -62.701          40.000  
J 2  36208419.220   190276507.262        -523.985          46.000  
R 5  20657002.922   110423471.397       -2188.739          49.000  
R 9  22474288.744   120011412.441        3819.555          44.000  
R21  21538662.506                       -3476.235          14.000  
R 7  22394980.167                        2063.231          24.000  
R 6  19460499.877   103844715.728         605.778          33.000  
R22  22066382.668   117791804.218        -157.161          28.000  
> 2019 10  9  7 18 59.9970000  0 15                     
G 5  21776033.411   114433815.176       -3182.603          49.000  
G13  21054037.580   110639711.113       -2694.612          47.000  
G15  19689489.691   103468966.967        -895.528          50.000  
G24  20103711.932   105645727.239        1696.680          46.000  
G28  23831861.572   125237287.221        -956.472          38.000  
R16  19071658.200   101877323.964        1107.977          44.000  
R15  20635479.031   110269716.772       -2988.144          46.000  
J 1  37993416.982   199656755.406         -63.501          40.000  
J 2  36208519.035   190277031.514        -524.632          46.000  
R 5  20657412.409   110425660.735       -2189.821          49.000  
R 9  22473573.460   120007593.052        3818.761          44.000  
R21  21539314.568                       -3485.366          16.000  
R 7  22394597.710                        2061.077          23.000  
R 6  19460386.259   103844109.644         605.638          33.000  
R22  22066407.884   117791962.514        -158.850          28.000  
> 2019 10  9  7 19  0.9970000  0 15                     
G 5  21776639.126   114436998.037       -3183.331          49.000  
G13  21054550.075   110642405.927       -2695.157          47.000  
G15  19689660.058   103469862.922        -896.414          50.000  
G24  20103389.085   105644030.846        1695.837          46.000  
G28  23832043.455   125238243.831        -956.899          38.000  
R16  19071450.787   101876216.483        1106.867          44.000  
R15  20636038.468   110272705.400       -2989.413          46.000  
J 1  37993428.971   199656819.072         -64.148          40.000  
J 2  36208618.868   190277556.410        -525.229          46.000  
R 5  20657821.948   110427850.890       -2190.583          49.000  
R 9  22472858.646   120003774.282        3818.470          44.000  
R21  21539967.084                       -3484.469          18.000  
R 7  22394216.685                        2053.910          24.000  
R 6  19460272.658   103843504.362         604.633          32.000  
R22  22066435.176   117792122.229        -160.546          29.000  
> 2019 10  9  7 19  1.9970000  0 15                     
G 5  21777245.049   114440181.335       -3183.742          49.000  
G13  21055062.763   110645101.011       -2695.482          47.000  
G15  19689830.354   103470759.273        -896.805          50.000  
G24  20103066.169   105642335.119        1695.138          46.000  
G28  23832225.635   125239201.105        -957.654          38.000  
R16  19071243.949   101875109.979        1105.804          44.000  
R15  20636598.219   110275694.858       -2990.139          46.000  
J 1  37993440.941   199656882.793         -63.843          40.000  
J 2  36208718.840   190278081.528        -525.439          46.000  
R 5  20658231.662   110430041.434       -2191.001          49.000  
R 9  22472143.484   119999955.713        3818.157          44.000  
R21  21540618.762                       -3484.909          18.000  
R 7  22393835.328                        2058.592          23.000  
R 6  19460158.882   103842899.378         604.277          32.000  
R22  22066460.339   117792282.884        -161.558          29.000  
> 2019 10  9  7 19  2.9970000  0 15                     
G 5  21777851.008   114443365.040       -3183.903          49.000  
G13  21055575.450   110647796.309       -2695.320          46.000  
G15  19690001.367   103471656.007        -896.958          50.000  
G24  20102743.532   105640640.012        1694.757          46.000  
G28  23832407.903   125240158.992        -957.978          38.000  
R16  19071036.920   101874004.418        1105.134          45.000  
R15  20637158.091   110278685.133       -2990.681          46.000  
J 1  37993452.912   199656946.560         -64.001          40.000  
J 2  36208818.481   190278606.841        -525.507          46.000  
R 5  20658641.602   110432232.309       -2191.081          49.000  
R 9  22471428.514   119996137.294        3818.418          44.000  
R21  21541271.052                       -3484.692          20.000  
R 7  22393454.162                        2057.246          24.000  
R 6  19460045.596   103842294.619         605.325          32.000  
R22  22066486.724   117792444.520        -163.042          30.000  
> 2019 10  9  7 19  3.9970000  0 15                     
G 5  21778456.618   114446548.889       -3183.966          49.000  
G13  21056088.225   110650491.589       -2695.220          46.000  
G15  19690171.838   103472552.870        -896.967          50.000  
G24  20102420.790   105638945.250        1694.536          46.000  
G28  23832590.345   125241117.254        -958.580          38.000  
R16  19070830.065   101872899.536        1104.685          45.000  
R15  20637717.894   110281675.995       -2991.241          46.000  
J 1  37993465.110   199657010.096         -63.525          40.000  
J 2  36208918.732   190279132.068        -525.200          46.000  
R 5  20659051.525   110434423.255       -2191.083          49.000  
R 9  22470713.212   119992318.809        3818.551          44.000  
R21  21541922.172                       -3486.560          21.000  
R 7  22393071.985                        2060.263          24.000  
R 6  19459931.907   103841690.012         604.465          31.000  
R22  22066512.044   117792606.750        -163.566          30.000  
> 2019 10  9  7 19  4.9970000  0 15                     
G 5  21779062.455   114449733.032       -3184.609          49.000  
G13  21056601.052   110653186.989       -2695.908          46.000  
G15  19690342.606   103473450.005        -897.597          50.000  
G24  20102098.310   105637251.000        1693.644          46.000  
G28  23832773.084   125242075.980        -959.178          38.000  
R16  19070623.402   101871795.502        1103.167          45.000  
R15  20638277.837   110284667.574       -2992.254          46.000  
J 1  37993477.325   199657073.570         -63.708          40.000  
J 2  36209018.565   190279657.383        -525.640          46.000  
R 5  20659461.710   110436614.413       -2191.537          49.000  
R 9  22469997.701   119988500.378        3817.963          44.000  
R21  21542571.110                       -3490.497          21.000  
R 7  22392688.098                        2065.664          24.000  
R 6  19459818.272   103841085.511         603.916          31.000  
R22  22066543.140   117792769.825        -163.319          31.000  
> 2019 10  9  7 19  5.9970000  0 15                     
G 5  21779668.710   114452917.485       -3184.674          49.000  
G13  21057113.826   110655882.516       -2695.532          46.000  
G15  19690513.182   103474347.430        -897.603          50.000  
G24  20101775.638   105635557.282        1693.343          46.000  
G28  23832955.561   125243035.235        -959.718          38.000  
R16  19070417.472   101870692.298        1102.684          45.000  
R15  20638838.286   110287659.916       -2992.837          46.000  
J 1  37993489.313   199657136.990         -63.342          40.000  
J 2  36209118.607   190280182.806        -525.649          46.000  
R 5  20659872.052   110438805.812       -2191.643          49.000  
R 9  22469282.573   119984681.987        3818.333          44.000  
R21  21543222.335                       -3490.938          22.000  
R 7  22392304.664                        2050.404          24.000  
R 6  19459704.479   103840481.274         602.489          31.000  
R22  22066574.097   117792933.777        -164.277          31.000  
> 2019 10  9  7 19  6.9970000  0 15                     
G 5  21780275.053   114456102.299       -3185.001          49.000  
G13  21057626.636   110658578.251       -2695.942          46.000  
G15  19690683.880   103475245.208        -897.945          50.000  
G24  20101453.297   105633864.133        1692.748          46.000  
G28  23833138.334   125243995.049        -960.292          38.000  
R16  19070211.280   101869590.017        1101.805          45.000  
R15  20639398.961   110290653.036       -2993.643          46.000  
J 1  37993501.284   199657200.414         -63.452          40.000  
J 2  36209218.457   190280708.376        -525.615          46.000  
R 5  20660282.376   110440997.523       -2191.846          48.000  
R 9  22468567.167   119980863.772        3818.123          44.000  
R21  21543875.671                       -3489.809          23.000  
R 7  22391922.400                        2057.279          24.000  
R 6  19459590.895   103839877.221         604.036          31.000  
R22  22066610.184   117793098.613        -165.740          31.000  
> 2019 10  9  7 19  7.9970000  0 15                     
G 5  21780881.116   114459287.141       -3184.592          49.000  
G13  21058139.515   110661273.826       -2695.249          46.000  
G15  19690854.612   103476142.971        -897.468          50.000  
G24  20101131.044   105632171.238        1693.120          46.000  
G28  23833320.951   125244955.097        -960.021          38.000  
R16  19070005.211   101868488.306        1101.749          45.000  
R15  20639959.462   110293646.570       -2993.486          46.000  
J 1  37993513.290   199657263.494         -62.506          40.000  
J 2  36209318.255   190281233.759        -524.939          46.000  
R 5  20660692.334   110443189.200       -2191.436          48.000  
R 9  22467851.952   119977045.327        3818.995          44.000  
R21  21544528.536                       -3488.823          24.000  
R 7  22391540.415                        2059.502          25.000  
R 6  19459477.800   103839273.093         604.635          31.000  
R22  22066641.716   117793263.953        -165.247          31.000  
> 2019 10  9  7 19  8.9970000  0 15                     
G 5  21781487.180   114462471.693       -3185.131          49.000  
G13  21058652.272   110663968.932       -2695.620          46.000  
G15  19691025.433   103477040.423        -898.003          50.000  
G24  20100808.739   105630478.265        1692.305          46.000  
G28  23833503.794   125245915.055        -960.605          38.000  
R16  19069799.019   101867386.856        1100.639          45.000  
R15  20640519.876   110296640.206       -2994.335          46.000  
J 1  37993525.331   199657325.918         -62.769          40.000  
J 2  36209418.227   190281758.641        -525.389          46.000  
R 5  20661102.432   110445380.497       -2191.779          48.000  
R 9  22467136.476   119973226.334        3818.633          44.000  
R21  21545182.029                       -3485.687          25.000  
R 7  22391158.866                        2058.851          26.000  
R 6  19459364.618   103838668.591         603.770          31.000  
R22  22066669.113   117793429.546        -166.481          30.000  
> 2019 10  9  7 19  9.9970000  0 15                     
G 5  21782093.278   114465657.245       -3186.097          49.000  
G13  21059165.134   110666664.864       -2696.433          46.000  
G15  19691196.288   103477938.855        -898.966          50.000  
G24  20100486.521   105628786.504        1691.133          46.000  
G28  23833686.568   125246876.227        -961.813          38.000  
R16  19069593.194   101866286.973        1099.055          45.000  
R15  20641080.987   110299635.325       -2995.825          46.000  
J 1  37993537.528   199657388.982         -63.501          40.000  
J 2  36209518.444   190282284.310        -526.139          46.000  
R 5  20661513.227   110447572.737       -2192.823          49.000  
R 9  22466421.034   119969408.136        3817.824          44.000  
R21  21545837.145                       -3487.551          26.000  
R 7  22390778.643                        2058.718          26.000  
R 6  19459251.471   103838065.011         603.053          32.000  
R22  22066699.616   117793596.617        -167.229          30.000  
> 2019 10  9  7 19 10.9970000  0 15                     
G 5  21782699.569   114468843.584       -3186.646          49.000  
G13  21059678.136   110669361.408       -2696.738          46.000  
G15  19691367.579   103478838.044        -899.488          50.000  
G24  20100164.599   105627095.746        1690.170          46.000  
G28  23833869.708   125247838.382        -962.592          38.000  
R16  19069387.560   101865188.412        1097.811          45.000  
R15  20641642.117   110302631.675       -2996.983          47.000  
J 1  37993549.464   199657452.463         -63.525          40.000  
J 2  36209618.678   190282810.545        -526.500          46.000  
R 5  20661923.482   110449765.690       -2193.236          49.000  
R 9  22465705.785   119965590.505        3817.519          44.000  
R21  21546492.070   115299587.4293      -3488.034          27.000  
R 7  22390398.909   119857504.896        2058.497          26.000  
R 6  19459138.498   103837462.056         602.946          32.000  
R22  22066732.702   117793765.026        -168.819          30.000  
> 2019 10  9  7 19 11.9970000  0 15                     
G 5  21783305.929   114472030.366       -3187.120          49.000  
G13  21060191.382   110672058.231       -2697.037          46.000  
G15  19691538.678   103479737.664        -899.884          50.000  
G24  20099842.956   105625405.653        1689.656          46.000  
G28  23834052.865   125248801.209        -963.324          38.000  
R16  19069181.944   101864090.821        1097.068          45.000  
R15  20642203.560   110305628.861       -2997.637          47.000  
J 1  37993561.400   199657516.029         -63.922          40.000  
J 2  36209718.877   190283337.019        -526.748          46.000  
R 5  20662333.580   110451959.035       -2193.675          48.000  
R 9  22464990.971   119961773.063        3817.204          44.000  
R21  21547145.702   115303075.6602      -3488.345          27.000  
R 7  22390020.693   119855446.391        2058.311          27.000  
R 6  19459025.438   103836859.506         602.163          32.000  
R22  22066756.713   117793934.390        -169.425          30.000  
> 2019 10  9  7 19 12.9970000  0 15                     
G 5  21783912.446   114475217.515       -3187.284          49.000  
G13  21060704.627   110674755.243       -2697.059          46.000  
G15  19691710.127   103480637.636        -900.154          50.000  
G24  20099521.506   105623716.160        1689.251          46.000  
G28  23834236.197   125249764.600        -963.621          38.000  
R16  19068976.363   101862994.137        1096.519          45.000  
R15  20642764.829   110308626.829       -2998.445          47.000  
J 1  37993573.389   199657579.613         -63.953          40.000  
J 2  36209819.356   190283863.653        -526.698          46.000  
R 5  20662744.096   110454152.700       -2193.789          48.000  
R 9  22464276.141   119957955.767        3817.298          45.000  
R21  21547800.173   115306563.9571      -3488.808          28.000  
R 7  22389640.871   119853387.935        2058.520          27.000  
R 6  19458912.291   103836257.161         602.240          32.000  
R22  22066788.874   117794104.726        -170.277          30.000  
> 2019 10  9  7 19 13.9970000  0 15                     
G 5  21784519.260   114478404.957       -3187.554          49.000  
G13  21061217.716   110677452.369       -2697.051          46.000  
G15  19691881.348   103481537.862        -900.366          50.000  
G24  20099200.265   105622027.164        1688.833          46.000  
G28  23834419.564   125250728.488        -964.239          38.000  
R16  19068771.393   101861898.332        1095.433          45.000  
R15  20643326.551   110311625.509       -2998.996          47.000  
J 1  37993585.551   199657643.086         -63.477          40.000  
J 2  36209919.572   190284390.361        -526.594          46.000  
R 5  20663154.577   110456346.599       -2193.954          48.000  
R 9  22463561.153   119954138.505        3817.036          45.000  
R21  21548455.428   115310053.192       -3489.638          29.000  
R 7  22389260.038   119851329.409        2058.414          27.000  
R 6  19458799.196   103835655.035         601.755          32.000  
R22  22066818.225   117794275.828        -170.979          30.000  
> 2019 10  9  7 19 14.9970000  0 15                     
G 5  21785126.021   114481592.667       -3187.867          49.000  
G13  21061730.945   110680149.604       -2697.344          46.000  
G15  19692052.710   103482438.340        -900.569          50.000  
G24  20098879.146   105620338.657        1688.282          46.000  
G28  23834602.791   125251692.872        -964.889          38.000  
R16  19068566.528   101860803.351        1094.502          45.000  
R15  20643888.187   110314624.933       -2999.822          47.000  
J 1  37993597.697   199657706.486         -63.361          40.000  
J 2  36210019.527   190284917.136        -526.893          46.000  
R 5  20663565.216   110458540.715       -2194.262          48.000  
R 9  22462846.305   119950321.289        3817.191          45.000  
R21  21549109.445   115313542.857       -3489.995          29.000  
R 7  22388879.536   119849270.828        2058.298          27.000  
R 6  19458686.520   103835053.038         601.702          32.000  
R22  22066849.287   117794447.734        -171.950          29.000  
> 2019 10  9  7 19 15.9970000  0 15                     
G 5  21785732.626   114484780.556       -3187.971          49.000  
G13  21062244.033   110682846.832       -2697.154          46.000  
G15  19692224.175   103483338.988        -900.635          50.000  
G24  20098558.027   105618650.544        1687.968          46.000  
G28  23834786.577   125252657.620        -964.855          38.000  
R16  19068361.662   101859709.087        1093.871          45.000  
R15  20644450.241   110317624.959       -3000.148          47.000  
J 1  37993609.545   199657769.708         -63.110          40.000  
J 2  36210119.621   190285443.868        -526.496          46.000  
R 5  20663975.785   110460734.961       -2194.321          48.000  
R 9  22462131.649   119946504.035        3817.351          45.000  
R21  21549762.816   115317032.858       -3490.156          29.000  
R 7  22388499.732   119847212.010        2058.969          27.000  
R 6  19458573.792   103834451.119         602.149          32.000  
R22  22066880.854   117794620.361        -172.957          29.000  
> 2019 10  9  7 19 16.9970000  0 15                     
G 5  21786339.492   114487968.808       -3188.449          50.000  
G13  21062757.401   110685544.260       -2697.504          46.000  
G15  19692395.763   103484239.986        -901.265          50.000  
G24  20098237.222   105616963.018        1687.164          46.000  
G28  23834970.171   125253622.965        -965.669          38.000  
R16  19068156.901   101858615.713        1092.791          45.000  
R15  20645012.504   110320625.766       -3001.218          47.000  
J 1  37993621.656   199657832.930         -63.361          40.000  
J 2  36210219.786   190285970.777        -526.918          46.000  
R 5  20664386.301   110462929.494       -2194.622          48.000  
R 9  22461416.853   119942686.905        3816.852          45.000  
R21  21550414.390   115320523.444       -3491.213          29.000  
R 7  22388119.596   119845153.197        2059.249          27.000  
R 6  19458461.046   103833849.435         601.950          32.000  
R22  22066920.902   117794793.826        -174.064          29.000  
> 2019 10  9  7 19 17.9970000  0 15                     
G 5  21786946.341   114491157.266       -3188.372          50.000  
G13  21063270.909   110688241.708       -2697.228          46.000  
G15  19692567.090   103485141.153        -901.014          50.000  
G24  20097916.609   105615275.905        1687.101          46.000  
G28  23835153.625   125254588.694        -965.532          38.000  
R16  19067952.402   101857523.065        1092.430          45.000  
R15  20645574.296   110323627.162       -3001.451          47.000  
J 1  37993633.627   199657895.983         -62.720          40.000  
J 2  36210320.194   190286497.663        -526.761          46.000  
R 5  20664796.713   110465124.155       -2194.482          48.000  
R 9  22460702.005   119938869.744        3817.394          45.000  
R21  21551067.011   115324014.363       -3490.757          28.000  
R 7  22387740.211   119843094.311        2059.375          27.000  
R 6  19458347.864   103833247.883         601.707          32.000  
R22  22066961.352   117794968.018        -174.339          28.000  
> 2019 10  9  7 19 18.9970000  0 15                     
G 5  21787553.085   114494345.467       -3188.703          50.000  
G13  21063784.155   110690938.732       -2697.493          46.000  
G15  19692738.503   103486042.061        -901.332          50.000  
G24  20097595.560   105613588.776        1686.489          46.000  
G28  23835337.463   125255554.401        -966.471          38.000  
R16  19067747.816   101856430.706        1091.646          45.000  
R15  20646136.298   110326628.756       -3002.391          47.000  
J 1  37993645.440   199657958.433         -62.781          40.000  
J 2  36210420.428   190287024.090        -526.874          46.000  
R 5  20665207.456   110467318.502       -2194.950          48.000  
R 9  22459986.790   119935052.109        3817.194          45.000  
R21  21551716.874   115327505.189       -3491.158          28.000  
R 7  22387358.644   119841034.804        2059.152          27.000  
R 6  19458235.101   103832645.931         601.201          32.000  
R22  22067001.435   117795142.521        -175.220          28.000  
> 2019 10  9  7 19 19.9970000  0 15                     
G 5  21788159.759   114497534.685       -3189.908          49.000  
G13  21064297.540   110693636.592       -2698.400          46.000  
G15  19692910.143   103486943.949        -902.498          50.000  
G24  20097274.721   105611902.861        1685.269          46.000  
G28  23835521.388   125256521.333        -967.925          38.000  
R16  19067543.456   101855339.928        1089.811          45.000  
R15  20646698.317   110329631.782       -3003.860          47.000  
J 1  37993657.533   199658021.511         -63.397          40.000  
J 2  36210520.348   190287551.317        -527.783          45.000  
R 5  20665617.745   110469513.783       -2195.894          48.000  
R 9  22459272.343   119931235.230        3816.473          45.000  
R21  21552368.919                       -3492.277          27.000  
R 7  22386980.062   119838975.884        2058.660          28.000  
R 6  19458122.285   103832044.871         600.836          32.000  
R22  22067039.389   117795318.564        -176.889          28.000  
> 2019 10  9  7 19 20.9970000  0 15                     
G 5  21788766.643   114500724.639       -3190.169          49.000  
G13  21064810.908   110696335.025       -2698.615          46.000  
G15  19693081.906   103487846.568        -902.870          50.000  
G24  20096954.492   105610217.929        1684.508          46.000  
G28  23835705.750   125257489.191        -968.098          38.000  
R16  19067339.550   101854250.474        1088.937          45.000  
R15  20647260.406   110332635.967       -3004.474          47.000  
J 1  37993669.417   199658084.991         -63.525          40.000  
J 2  36210620.565   190288079.073        -527.903          45.000  
R 5  20666028.541   110471709.773       -2196.099          47.000  
R 9  22458557.443   119927418.870        3816.222          45.000  
R21  21553022.761                       -3492.799          27.000  
R 7  22386599.281   119836917.434        2058.072          28.000  
R 6  19458009.679   103831444.497         599.499          31.000  
R22  22067074.028   117795495.857        -177.819          28.000  
> 2019 10  9  7 19 21.9970000  0 15                     
G 5  21789373.457   114503915.051       -3190.474          49.000  
G13  21065324.381   110699033.741       -2698.703          46.000  
G15  19693253.686   103488749.614        -903.089          50.000  
G24  20096634.367   105608533.666        1684.085          46.000  
G28  23835890.199   125258457.736        -968.696          38.000  
R16  19067135.854   101853162.013        1088.246          45.000  
R15  20647822.809   110335641.045       -3005.338          47.000  
J 1  37993681.615   199658148.555         -63.660          40.000  
J 2  36210721.043   190288607.069        -528.006          45.000  
R 5  20666439.441   110473906.176       -2196.442          47.000  
R 9  22457842.978   119923602.740        3816.082          45.000  
R21  21553677.266                       -3494.235          27.000  
R 7  22386219.407   119834858.982        2058.910          28.000  
R 6  19457897.072   103830844.432         599.982          31.000  
R22  22067108.632   117795674.192        -178.786          28.000  
> 2019 10  9  7 19 22.9970000  0 15                     
G 5  21789980.620   114507105.763       -3190.920          49.000  
G13  21065837.836   110701732.577       -2698.987          46.000  
G15  19693425.536   103489652.939        -903.449          50.000  
G24  20096314.226   105606849.905        1683.579          46.000  
G28  23836074.525   125259426.779        -969.755          38.000  
R16  19066932.332   101852074.410        1087.102          45.000  
R15  20648385.439   110338646.850       -3006.158          47.000  
J 1  37993693.900   199658212.034         -63.342          40.000  
J 2  36210821.365   190289135.152        -528.191          46.000  
R 5  20666850.638   110476102.810       -2196.802          47.000  
R 9  22457128.340   119919786.677        3815.843          45.000  
R21  21554331.685                       -3494.231          26.000  
R 7  22385838.556   119832800.523        2058.272          27.000  
R 6  19457784.309   103830244.607         599.192          31.000  
R22  22067142.381   117795853.259        -179.320          28.000  
> 2019 10  9  7 19 23.9970000  0 15                     
G 5  21790587.626   114510296.656       -3191.082          49.000  
G13  21066351.378   110704431.425       -2698.964          46.000  
G15  19693597.560   103490556.424        -903.683          50.000  
G24  20095994.014   105605166.551        1683.069          46.000  
G28  23836259.079   125260396.198        -969.828          39.000  
R16  19066728.985   101850987.514        1086.426          45.000  
R15  20648948.087   110341653.266       -3006.782          47.000  
J 1  37993706.063   199658275.356         -63.397          40.000  
J 2  36210921.948   190289663.205        -528.081          46.000  
R 5  20667261.713   110478299.554       -2196.964          47.000  
R 9  22456413.997   119915970.565        3815.963          45.000  
R21  21554987.062                       -3495.490          26.000  
R 7  22385455.506   119830741.906        2058.767          27.000  
R 6  19457671.563   103829644.837         599.414          31.000  
R22  22067170.790   117796033.064        -179.413          27.000  
> 2019 10  9  7 19 24.9970000  0 15                     
G 5  21791194.579   114513487.987       -3191.304          49.000  
G13  21066865.113   110707130.534       -2698.907          46.000  
G15  19693769.793   103491460.335        -903.759          50.000  
G24  20095673.838   105603483.839        1682.551          46.000  
G28  23836443.772   125261366.263        -969.960          39.000  
R16  19066525.568   101849901.607        1085.710          45.000  
R15  20649510.821   110344660.539       -3007.534          47.000  
J 1  37993717.894   199658338.747         -63.147          40.000  
J 2  36211022.356   190290191.491        -528.075          46.000  
R 5  20667673.032   110480496.658       -2197.161          47.000  
R 9  22455699.341   119912154.664        3816.139          45.000  
R21  21555642.196                       -3496.886          26.000  
R 7  22385072.404   119828683.342        2059.090          26.000  
R 6  19457558.817   103829045.439         599.957          31.000  
R22  22067204.591   117796213.983        -181.549          28.000  
> 2019 10  9  7 19 25.9970000  0 15                     
G 5  21791801.759   114516679.723       -3191.887          49.000  
G13  21067378.795   110709829.882       -2699.405          46.000  
G15  19693941.713   103492364.627        -904.476          50.000  
G24  20095353.801   105601801.773        1681.809          46.000  
G28  23836628.500   125262336.960        -970.818          39.000  
R16  19066322.918   101848816.663        1084.537          45.000  
R15  20650074.184   110347668.657       -3008.509          47.000  
J 1  37993729.795   199658402.186         -63.312          40.000  
J 2  36211122.747   190290719.983        -528.526          46.000  
R 5  20668084.369   110482694.111       -2197.617          47.000  
R 9  22454984.720   119908338.912        3815.918          45.000  
R21  21556297.050                       -3495.938          25.000  
R 7  22384687.993   119826624.905        2058.376          26.000  
R 6  19457446.508   103828446.354         599.183          32.000  
R22  22067239.439   117796395.689        -182.318          27.000  
> 2019 10  9  7 19 26.9970000  0 15                     
G 5  21792409.219   114519871.590       -3191.948          49.000  
G13  21067892.582   110712529.195       -2699.256          46.000  
G15  19694113.772   103493269.032        -904.513          50.000  
G24  20095034.060   105600120.080        1681.464          47.000  
G28  23836813.333   125263308.005        -971.217          38.000  
R16  19066119.920   101847732.400        1083.818          45.000  
R15  20650637.390   110350677.351       -3009.006          47.000  
J 1  37993741.696   199658465.410         -63.251          40.000  
J 2  36211223.191   190291248.386        -528.422          45.000  
R 5  20668495.566   110484891.645       -2197.668          47.000  
R 9  22454270.081   119904523.072        3815.947          45.000  
R21  21556950.351                       -3496.095          25.000  
R 7  22384302.588                        2059.136          25.000  
R 6  19457334.477   103827847.290         598.958          33.000  
R22  22067274.671   117796578.099        -182.400          28.000  
> 2019 10  9  7 19 27.9970000  0 15                     
G 5  21793016.591   114523063.623       -3191.913          49.000  
G13  21068406.019   110715228.489       -2699.037          46.000  
G15  19694285.762   103494173.580        -904.431          50.000  
G24  20094714.163   105598438.763        1681.213          47.000  
G28  23836998.113   125264279.399        -971.224          38.000  
R16  19065916.904   101846648.831        1083.619          45.000  
R15  20651200.578   110353686.615       -3009.424          47.000  
J 1  37993754.103   199658528.401         -62.762          40.000  
J 2  36211323.756   190291776.742        -528.058          45.000  
R 5  20668907.251   110487089.287       -2197.484          47.000  
R 9  22453555.809   119900707.178        3816.169          45.000  
R21  21557604.857                       -3497.235          24.000  
R 7  22383919.678                        2059.108          25.000  
R 6  19457222.621   103827248.276         599.008          33.000  
R22  22067311.316   117796761.233        -183.169          28.000  
> 2019 10  9  7 19 28.9970000  0 15                     
G 5  21793623.894   114526255.333       -3192.117          49.000  
G13  21068919.632   110717927.281       -2698.969          46.000  
G15  19694457.925   103495077.781        -904.685          50.000  
G24  20094394.248   105596757.307        1681.045          47.000  
G28  23837182.824   125265250.692        -971.773          38.000  
R16  19065714.324   101845565.511        1082.741          45.000  
R15  20651763.732   110356695.938       -3009.978          47.000  
J 1  37993765.969   199658590.707         -62.268          40.000  
J 2  36211424.339   190292304.567        -528.147          45.000  
R 5  20669318.465   110489286.532       -2197.606          47.000  
R 9  22452841.397   119896890.712        3816.240          45.000  
R21  21558258.734                       -3495.396          24.000  
R 7  22383534.883                        2059.743          25.000  
R 6  19457110.556   103826648.767         599.115          33.000  
R22  22067345.554   117796944.483        -183.764          28.000  
> 2019 10  9  7 19 29.9970000  0 15                     
G 5  21794231.440   114529448.003       -3193.184          49.000  
G13  21069433.366   110720626.868       -2699.969          46.000  
G15  19694630.107   103495982.920        -905.634          50.000  
G24  20094074.508   105595077.067        1679.619          47.000  
G28  23837367.831   125266223.148        -972.983          38.000  
R16  19065511.937   101844483.700        1081.020          45.000  
R15  20652326.798   110359706.633       -3011.461          47.000  
J 1  37993777.957   199658653.638         -63.208          40.000  
J 2  36211524.765   190292833.143        -529.013          45.000  
R 5  20669729.697   110491484.688       -2198.714          46.000  
R 9  22452127.055   119893074.993        3815.303          45.000  
R21  21558912.349                       -3498.157          23.000  
R 7  22383148.640                        2057.611          24.000  
R 6  19456998.526   103826050.131         598.520          33.000  
R22  22067383.054   117797129.254        -185.225          28.000  
> 2019 10  9  7 19 30.9970000  0 15                     
G 5  21794839.179   114532641.539       -3193.953          49.000  
G13  21069947.135   110723327.137       -2700.523          46.000  
G15  19694802.305   103496888.913        -906.337          50.000  
G24  20093754.925   105593397.928        1678.500          47.000  
G28  23837552.838   125267196.675        -973.638          38.000  
R16  19065309.706   101843403.305        1079.977          45.000  
R15  20652890.492   110362718.653       -3012.694          47.000  
J 1  37993790.050   199658717.054         -63.623          40.000  
J 2  36211625.348   190293362.372        -529.442          45.000  
R 5  20670141.191   110493683.649       -2199.467          46.000  
R 9  22451412.835   119889259.917        3814.797          45.000  
R21  21559566.314                       -3495.994          22.000  
R 7  22382763.967                        2067.248          23.000  
R 6  19456886.548   103825452.254         597.334          33.000  
R22  22067416.925   117797315.429        -186.612          28.000  
> 2019 10  9  7 19 31.9970000  0 15                     
G 5  21795447.162   114535835.451       -3193.899          49.000  
G13  21070461.166   110726027.617       -2700.177          46.000  
G15  19694974.940   103497795.256        -906.292          50.000  
G24  20093435.620   105591719.375        1678.407          47.000  
G28  23837738.124   125268170.786        -973.962          38.000  
R16  19065107.842   101842323.845        1079.138          45.000  
R15  20653454.396   110365731.483       -3013.019          47.000  
J 1  37993802.074   199658780.490         -63.116          40.000  
J 2  36211726.036   190293891.773        -529.223          45.000  
R 5  20670552.684   110495882.930       -2199.202          46.000  
R 9  22450698.580   119885444.978        3814.911          45.000  
R21  21560220.452                       -3500.940          20.000  
R 7  22382375.525                        2063.824          21.000  
R 6  19456774.884   103824854.644         597.849          33.000  
R22  22067454.356   117797502.526        -187.411          28.000  
> 2019 10  9  7 19 32.9970000  0 15                     
G 5  21796055.093   114539029.693       -3194.286          49.000  
G13  21070975.058   110728728.259       -2700.664          46.000  
G15  19695147.715   103498701.928        -906.820          50.000  
G24  20093116.020   105590041.377        1677.938          47.000  
G28  23837923.795   125269145.444        -974.802          38.000  
R16  19064905.838   101841245.243        1078.318          45.000  
R15  20654018.055   110368745.051       -3013.883          47.000  
J 1  37993814.132   199658843.897         -63.269          40.000  
J 2  36211826.724   190294421.294        -529.520          45.000  
R 5  20670963.916   110498082.489       -2199.635          46.000  
R 9  22449984.290   119881630.158        3814.744          45.000  
R21  21560877.558                       -3511.107          18.000  
R 7  22381987.398                        2053.705          21.000  
R 6  19456663.045   103824257.234         597.232          33.000  
R22  22067487.197   117797690.439        -187.962          27.000  
> 2019 10  9  7 19 33.9970000  0 15                     
G 5  21796662.919   114542224.191       -3194.843          49.000  
G13  21071489.019   110731428.975       -2700.900          46.000  
G15  19695320.158   103499608.822        -907.296          50.000  
G24  20092796.995   105588363.851        1677.073          47.000  
G28  23838109.168   125270120.583        -975.826          38.000  
R16  19064704.253   101840167.452        1077.096          45.000  
R15  20654582.273   110371759.285       -3014.824          47.000  
J 1  37993826.364   199658907.186         -63.489          40.000  
J 2  36211927.359   190294950.847        -529.769          45.000  
R 5  20671374.886   110500282.214       -2200.200          45.000  
R 9  22449269.913   119877815.336        3814.486          45.000  
R21  21561531.871                       -3493.524          15.000  
R 7  22381602.882                        2058.792          20.000  
R 6  19456551.381   103823659.992         596.770          34.000  
R22  22067520.387   117797879.165        -189.091          27.000  
> 2019 10  9  7 19 34.9970000  0 15                     
G 5  21797271.076   114545419.077       -3195.065          49.000  
G13  21072003.137   110734129.904       -2701.121          46.000  
G15  19695493.055   103500516.083        -907.453          50.000  
G24  20092477.848   105586686.918        1676.648          47.000  
G28  23838294.926   125271096.273        -975.994          39.000  
R16  19064502.546   101839090.603        1076.261          45.000  
R15  20655146.666   110374774.337       -3015.482          47.000  
J 1  37993838.283   199658970.506         -63.287          40.000  
J 2  36212028.204   190295480.588        -529.988          45.000  
R 5  20671785.944   110502482.270       -2200.270          45.000  
R 9  22448555.711   119874000.689        3814.527          45.000  
R21  21562184.684                       -3493.524          12.000  
R 7  22381217.145                        2058.536          21.000  
R 6  19456439.630   103823062.989         597.264          34.000  
R22  22067553.333   117798068.801        -190.029          27.000  
> 2019 10  9  7 19 35.9970000  0 14                     
G 5  21797879.199   114548614.259       -3195.355          49.000  
G13  21072517.081   110736830.952       -2701.136          46.000  
G15  19695665.655   103501423.626        -907.827          50.000  
G24  20092159.137   105585010.512        1676.112          47.000  
G28  23838480.701   125272072.499        -976.558          39.000  
R16  19064300.961   101838014.572        1075.625          45.000  
R15  20655711.372   110377790.107       -3016.141          47.000  
J 1  37993850.603   199659033.759         -63.281          40.000  
J 2  36212128.874   190296010.413        -529.984          45.000  
R 5  20672196.809   110504682.583       -2200.558          45.000  
R 9  22447841.386   119870186.116        3814.325          45.000  
R 7  22380834.671                        2061.589          20.000  
R 6  19456327.809   103822466.194         597.116          33.000  
R22  22067588.321   117798259.249        -190.483          27.000  
> 2019 10  9  7 19 36.9970000  0 14                     
G 5  21798487.252   114551809.790       -3195.477          49.000  
G13  21073031.165   110739532.177       -2701.095          46.000  
G15  19695838.464   103502331.486        -907.688          50.000  
G24  20091840.112   105583334.659        1675.818          47.000  
G28  23838666.807   125273049.260        -976.692          39.000  
R16  19064099.691   101836939.469        1074.812          45.000  
R15  20656275.765   110380806.678       -3016.748          47.000  
J 1  37993862.748   199659096.983         -62.769          40.000  
J 2  36212229.423   190296540.371        -529.819          45.000  
R 5  20672607.552   110506883.190       -2200.513          45.000  
R 9  22447127.079   119866371.648        3814.527          45.000  
R 7  22380449.719                        2059.332          20.000  
R 6  19456216.093   103821869.660         596.981          33.000  
R22  22067622.157   117798450.562        -191.207          28.000  
> 2019 10  9  7 19 37.9970000  0 14                     
G 5  21799095.584   114555005.588       -3195.892          49.000  
G13  21073545.457   110742233.482       -2701.129          46.000  
G15  19696011.361   103503239.591        -907.995          50.000  
G24  20091521.471   105581659.294        1675.258          47.000  
G28  23838852.635   125274026.507        -977.455          38.000  
R16  19063898.577   101835865.177        1073.927          45.000  
R15  20656840.227   110383823.919       -3017.522          47.000  
J 1  37993874.736   199659160.113         -62.531          40.000  
J 2  36212330.075   190297070.385        -529.913          45.000  
R 5  20673018.749   110509083.987       -2200.630          45.000  
R 9  22446413.103   119862557.232        3814.396          45.000  
R 7  22380064.855                        2071.017          18.000  
R 6  19456104.464   103821273.264         596.540          33.000  
R22  22067654.492   117798642.666        -192.553          28.000  
> 2019 10  9  7 19 38.9970000  0 14                     
G 5  21799703.794   114558201.043       -3195.308          49.000  
G13  21074059.750   110744934.287       -2700.533          46.000  
G15  19696184.415   103504147.350        -907.672          50.000  
G24  20091202.621   105579983.825        1675.491          47.000  
G28  23839038.410   125275003.619        -977.117          39.000  
R16  19063697.515   101834791.096        1073.900          45.000  
R15  20657404.549   110386841.226       -3017.489          47.000  
J 1  37993886.568   199659222.570         -62.280          40.000  
J 2  36212430.833   190297599.857        -529.351          45.000  
R 5  20673429.772   110511284.364       -2200.300          45.000  
R 9  22445698.621   119858742.218        3815.073          45.000  
R 7  22379680.252                        2062.125          17.000  
R 6  19455992.940   103820676.434         597.211          33.000  
R22  22067687.403   117798834.951        -192.885          28.000  
> 2019 10  9  7 19 39.9970000  0 14                     
G 5  21800312.248   114561397.217       -3196.880          49.000  
G13  21074574.008   110747635.635       -2701.830          46.000  
G15  19696357.207   103505055.791        -909.077          50.000  
G24  20090884.067   105578309.283        1673.869          47.000  
G28  23839224.726   125275981.647        -978.761          39.000  
R16  19063496.681   101833718.272        1071.876          45.000  
R15  20657969.343   110389859.677       -3019.264          46.000  
J 1  37993898.643   199659285.346         -63.214          40.000  
J 2  36212531.573   190298129.818        -530.497          45.000  
R 5  20673841.213   110513485.404       -2201.698          45.000  
R 9  22444984.314   119854927.674        3813.993          45.000  
R 7  22379296.801                        2051.396          14.000  
R 6  19455881.101   103820080.227         595.264          33.000  
R22  22067721.414   117799028.432        -194.663          28.000  
> 2019 10  9  7 19 40.9970000  0 14                     
G 5  21800920.371   114564594.381       -3197.557          49.000  
G13  21075088.423   110750337.806       -2702.479          46.000  
G15  19696530.226   103505965.215        -909.767          50.000  
G24  20090565.880   105576635.973        1672.806          47.000  
G28  23839411.077   125276960.897        -979.917          39.000  
R16  19063295.637   101832646.981        1070.800          45.000  
R15  20658534.486   110392879.559       -3020.414          46.000  
J 1  37993910.614   199659348.768         -63.757          40.000  
J 2  36212632.767   190298660.568        -530.896          45.000  
R 5  20674252.689   110515687.421       -2202.408          45.000  
R 9  22444270.216   119851113.926        3813.479          45.000  
R21  21566064.338                       -3509.961          16.000  
R 6  19455769.455   103819484.949         594.625          33.000  
R22  22067756.105   117799223.468        -195.472          28.000  
> 2019 10  9  7 19 41.9970000  0 14                     
G 5  21801528.807   114567791.998       -3197.910          49.000  
G13  21075602.681   110753040.243       -2702.424          46.000  
G15  19696703.524   103506875.070        -910.116          50.000  
G24  20090247.675   105574963.338        1672.166          47.000  
G28  23839597.271   125277940.813        -980.543          39.000  
R16  19063095.082   101831576.685        1069.906          45.000  
R15  20659099.803   110395900.324       -3021.091          46.000  
J 1  37993922.742   199659412.268         -63.605          40.000  
J 2  36212733.716   190299191.567        -531.113          45.000  
R 5  20674664.252   110517889.819       -2202.664          45.000  
R 9  22443555.927   119847300.409        3813.442          45.000  
R21  21566718.128                       -3505.605          21.000  
R 6  19455657.703   103818889.979         594.970          33.000  
R22  22067791.476   117799419.554        -196.584          29.000  
> 2019 10  9  7 19 42.9970000  0 15                     
G 5  21802137.419   114570989.872       -3198.071          49.000  
G13  21076117.026   110755742.775       -2702.704          46.000  
G15  19696877.032   103507785.150        -910.241          50.000  
G24  20089929.592   105573291.169        1671.792          47.000  
G28  23839783.761   125278921.175        -980.972          39.000  
R16  19062894.980   101830507.213        1068.928          45.000  
R15  20659665.033   110398921.755       -3021.943          46.000  
J 1  37993934.852   199659475.679         -63.544          40.000  
J 2  36212834.526   190299722.606        -531.135          45.000  
R 5  20675076.130   110520092.429       -2203.028          45.000  
R 9  22442841.951   119843486.917        3813.304          45.000  
R21  21567373.367                       -3498.130          23.000  
R 7  22378142.260                        2048.152          18.000  
R 6  19455546.144   103818295.154         595.491          33.000  
R22  22067827.180   117799616.390        -197.915          29.000  
> 2019 10  9  7 19 43.9970000  0 15                     
G 5  21802746.065   114574188.077       -3198.685          49.000  
G13  21076631.528   110758445.462       -2703.201          46.000  
G15  19697050.400   103508695.542        -910.961          50.000  
G24  20089611.353   105571619.543        1671.078          47.000  
G28  23839970.478   125279902.095        -982.010          38.000  
R16  19062694.966   101829438.650        1067.802          45.000  
R15  20660230.699   110401943.926       -3022.856          46.000  
J 1  37993946.980   199659539.046         -63.794          40.000  
J 2  36212935.755   190300253.757        -531.508          45.000  
R 5  20675488.217   110522295.301       -2203.416          45.000  
R 9  22442127.644   119839673.539        3812.880          45.000  
R21  21568032.357                       -3507.540          24.000  
R 7  22377758.076                        2049.700          20.000  
R 6  19455434.637   103817700.613         593.825          33.000  
R22  22067865.587   117799814.062        -198.453          29.000  
> 2019 10  9  7 19 44.9970000  0 15                     
G 5  21803354.693   114577386.646       -3198.926          49.000  
G13  21077145.943   110761148.339       -2703.205          46.000  
G15  19697223.488   103509606.284        -911.105          50.000  
G24  20089293.358   105569948.515        1670.585          47.000  
G28  23840156.794   125280883.526        -981.761          38.000  
R16  19062495.318   101828371.010        1067.058          45.000  
R15  20660796.052   110404966.897       -3023.579          46.000  
J 1  37993958.986   199659602.414         -63.605          40.000  
J 2  36213036.949   190300785.070        -531.409          45.000  
R 5  20675900.077   110524498.478       -2203.363          45.000  
R 9  22441413.511   119835860.261        3813.156          45.000  
R21  21568688.415                       -3506.083          25.000  
R 7  22377372.653                        2057.566          22.000  
R 6  19455323.427   103817106.256         593.910          33.000  
R22  22067900.575   117800012.597        -198.874          30.000  
> 2019 10  9  7 19 45.9970000  0 15                     
G 5  21803963.479   114580585.579       -3199.105          49.000  
G13  21077660.480   110763851.402       -2703.222          46.000  
G15  19697396.943   103510517.364        -911.292          50.000  
G24  20088975.537   105568278.079        1670.036          47.000  
G28  23840343.424   125281865.592        -982.390          38.000  
R16  19062295.652   101827304.269        1066.249          45.000  
R15  20661361.491   110407990.639       -3024.146          46.000  
J 1  37993970.957   199659665.780         -63.507          40.000  
J 2  36213138.230   190301316.534        -531.554          45.000  
R 5  20676312.164   110526701.967       -2203.673          45.000  
R 9  22440699.239   119832047.119        3813.191          45.000  
R21  21569343.636                       -3506.682          26.000  
R 7  22376987.910                        2059.077          23.000  
R 6  19455211.746   103816512.150         594.290          33.000  
R22  22067936.732   117800212.050        -199.065          30.000  
> 2019 10  9  7 19 46.9970000  0 15                     
G 5  21804572.143   114583784.793       -3199.435          49.000  
G13  21078174.965   110766554.580       -2703.249          46.000  
G15  19697570.521   103511428.711        -911.517          50.000  
G24  20088657.698   105566608.145        1669.564          47.000  
G28  23840530.369   125282848.116        -982.915          38.000  
R16  19062096.144   101826238.345        1065.485          45.000  
R15  20661927.297   110411015.097       -3025.012          46.000  
J 1  37993983.242   199659729.077         -63.336          40.000  
J 2  36213239.092   190301848.071        -531.575          45.000  
R 5  20676724.373   110528905.653       -2203.978          45.000  
R 9  22439984.932   119828234.049        3812.865          45.000  
R21  21569998.630   115425392.3863      -3506.302          26.000  
R 7  22376601.266                        2058.391          23.000  
R 6  19455100.570   103815918.223         593.852          33.000  
R22  22067977.094   117800412.309        -200.240          30.000  
> 2019 10  9  7 19 47.9970000  0 15                     
G 5  21805180.789   114586984.296       -3199.637          48.000  
G13  21078689.310   110769257.864       -2703.312          46.000  
G15  19697744.098   103512340.319        -911.641          50.000  
G24  20088339.860   105564938.712        1669.219          47.000  
G28  23840716.877   125283831.152        -983.339          38.000  
R16  19061896.810   101825173.237        1064.757          45.000  
R15  20662493.190   110414040.256       -3025.438          46.000  
J 1  37993995.317   199659792.278         -62.994          40.000  
J 2  36213340.269   190302379.688        -531.677          45.000  
R 5  20677136.704   110531109.539       -2203.925          45.000  
R 9  22439270.589   119824421.032        3813.214          44.000  
R21  21570657.079   115428899.6452      -3507.093          27.000  
R 7  22376216.855                        2064.825          24.000  
R 6  19454989.430   103815324.510         593.457          32.000  
R22  22068018.120   117800613.424        -201.824          30.000  
> 2019 10  9  7 19 48.9970000  0 15                     
G 5  21805789.243   114590183.403       -3199.187          48.000  
G13  21079203.533   110771960.568       -2702.631          46.000  
G15  19697917.291   103513251.518        -911.299          50.000  
G24  20088022.004   105563269.121        1669.359          47.000  
G28  23840903.472   125284813.994        -983.059          38.000  
R16  19061697.389   101824108.275        1064.559          45.000  
R15  20663058.996   110417065.455       -3025.426          46.000  
J 1  37994007.009   199659854.763         -62.738          40.000  
J 2  36213441.323   190302910.703        -531.108          45.000  
R 5  20677548.983   110533312.977       -2203.645          45.000  
R 9  22438555.951   119820607.405        3813.677          44.000  
R21  21571316.243   115432443.6013      -3507.496          27.000  
R 7  22375829.286                        2059.090          24.000  
R 6  19454877.609   103814730.233         594.741          32.000  
R22  22068044.121   117800814.568        -201.326          30.000  
> 2019 10  9  7 19 49.9970000  0 15                     
G 5  21806398.116   114593383.296       -3200.350          48.000  
G13  21079717.669   110774663.906       -2703.635          46.000  
G15  19698090.816   103514163.485        -912.441          50.000  
G24  20087704.515   105561600.534        1668.103          47.000  
G28  23841090.521   125285797.829        -984.349          38.000  
R16  19061498.177   101823044.657        1062.858          45.000  
R15  20663625.203   110420091.852       -3027.094          46.000  
J 1  37994019.172   199659917.636         -62.994          40.000  
J 2  36213542.656   190303442.284        -531.840          45.000  
R 5  20677961.471   110535517.145       -2204.489          45.000  
R 9  22437841.696   119816794.332        3812.561          44.000  
R21  21571975.146   115435951.5002      -3508.354          28.000  
R 7  22375442.344                        2055.278          23.000  
R 6  19454766.050   103814136.725         592.450          32.000  
R22  22068078.375   117801017.130        -203.266          30.000  
> 2019 10  9  7 19 50.9970000  0 15                     
G 5  21807007.303   114596584.163       -3201.244          48.000  
G13  21080232.171   110777368.025       -2704.233          46.000  
G15  19698264.568   103515076.396        -913.229          50.000  
G24  20087387.340   105559933.141        1666.950          47.000  
G28  23841278.093   125286782.858        -985.614          38.000  
R16  19061299.192   101821982.582        1061.464          45.000  
R15  20664191.724   110423119.626       -3028.240          46.000  
J 1  37994031.509   199659981.130         -63.635          40.000  
J 2  36213643.850   190303974.635        -532.604          45.000  
R 5  20678374.378   110537722.272       -2205.432          45.000  
R 9  22437127.493   119812981.966        3812.241          44.000  
R21  21572641.413   115439460.0901      -3509.698          29.000  
R 7  22375056.049                        2057.231          23.000  
R 6  19454654.700   103813544.037         592.211          31.000  
R22  22068120.134   117801221.165        -204.845          29.000  
> 2019 10  9  7 19 51.9970000  0 15                     
G 5  21807616.298   114599785.483       -3201.294          48.000  
G13  21080746.988   110780072.447       -2704.390          46.000  
G15  19698438.477   103515989.750        -913.478          50.000  
G24  20087070.287   105558266.416        1666.626          47.000  
G28  23841465.665   125287768.536        -985.725          38.000  
R16  19061100.783   101820921.534        1060.668          45.000  
R15  20664758.211   110426148.292       -3028.950          46.000  
J 1  37994043.672   199660044.715         -63.397          40.000  
J 2  36213745.340   190304507.231        -532.532          45.000  
R 5  20678787.093   110539927.797       -2205.612          45.000  
R 9  22436413.675   119809169.894        3812.102          44.000  
R21  21573301.450   115442969.748       -3509.839          29.000  
R 7  22374667.939                        2056.995          22.000  
R 6  19454531.938   103812951.714         592.061          31.000  
R22  22068156.692   117801426.155        -204.644          30.000  
> 2019 10  9  7 19 52.9970000  0 15                     
G 5  21808225.468   114602987.126       -3201.740          48.000  
G13  21081261.787   110782777.004       -2704.647          46.000  
G15  19698612.613   103516903.389        -913.722          50.000  
G24  20086753.077   105556600.214        1666.100          47.000  
G28  23841653.465   125288754.777        -986.741          38.000  
R16  19060902.409   101819861.370        1059.820          45.000  
R15  20665325.168   110429177.719       -3029.764          46.000  
J 1  37994055.695   199660108.252         -63.434          40.000  
J 2  36213846.604   190305039.932        -532.692          45.000  
R 5  20679200.000   110542133.563       -2205.991          45.000  
R 9  22435699.821   119805357.884        3812.002          44.000  
R21  21573960.649   115446479.926       -3510.228          29.000  
R 7  22374283.475                        2056.848          22.000  
R 6  19454417.028   103812359.601         591.582          31.000  
R22  22068189.149   117801632.015        -205.975          30.000  
> 2019 10  9  7 19 53.9970000  0 15                     
G 5  21808834.620   114606189.006       -3202.250          48.000  
G13  21081776.359   110785481.608       -2704.859          46.000  
G15  19698786.312   103517817.239        -914.155          50.000  
G24  20086436.007   105554934.463        1665.340          47.000  
G28  23841841.421   125289741.402        -987.043          38.000  
R16  19060704.227   101818801.995        1058.690          45.000  
R15  20665892.108   110432207.788       -3030.663          46.000  
J 1  37994067.788   199660171.674         -63.623          40.000  
J 2  36213947.920   190305572.654        -532.800          45.000  
R 5  20679613.012   110544339.489       -2206.432          45.000  
R 9  22434985.950   119801545.884        3811.842          44.000  
R21  21574618.330   115449990.524       -3512.093          30.000  
R 7  22373898.646                        2055.188          22.000  
R 6  19454305.922   103811767.593         592.478          30.000  
R22  22068226.894   117801838.616        -207.195          29.000  
> 2019 10  9  7 19 54.9970000  0 15                     
G 5  21809443.895   114609391.197       -3202.289          48.000  
G13  21082290.983   110788186.361       -2704.760          46.000  
G15  19698960.099   103518731.387        -914.147          50.000  
G24  20086119.198   105553269.246        1665.099          47.000  
G28  23842029.552   125290728.583        -987.451          38.000  
R16  19060506.080   101817743.485        1058.122          45.000  
R15  20666459.380   110435238.591       -3031.060          47.000  
J 1  37994079.933   199660235.029         -63.379          40.000  
J 2  36214049.288   190306105.488        -532.800          45.000  
R 5  20680026.547   110546545.650       -2206.127          45.000  
R 9  22434272.132   119797733.967        3811.946          45.000  
R21  21575276.675   115453501.488       -3510.330          30.000  
R 7  22373511.617                        2056.330          21.000  
R 6  19454195.166   103811175.893         591.113          31.000  
R22  22068266.733   117802046.025        -207.656          29.000  
> 2019 10  9  7 19 55.9970000  0 15                     
G 5  21810053.204   114612593.660       -3202.647          48.000  
G13  21082805.607   110790891.209       -2704.961          46.000  
G15  19699134.060   103519645.779        -914.570          50.000  
G24  20085802.337   105551604.548        1664.435          47.000  
G28  23842217.578   125291716.230        -988.034          38.000  
R16  19060308.230   101816685.795        1057.271          45.000  
R15  20667026.966   110438270.074       -3031.770          47.000  
J 1  37994091.957   199660298.294         -63.251          40.000  
J 2  36214150.831   190306638.377        -532.891          45.000  
R 5  20680439.786   110548752.057       -2206.588          45.000  
R 9  22433558.575   119793922.095        3811.692          45.000  
R21  21575933.710   115457012.980       -3511.308          30.000  
R 7  22373127.573                        2054.952          21.000  
R 6  19454078.616   103810584.239         591.571          31.000  
R22  22068307.200   117802254.217        -207.767          29.000  
> 2019 10  9  7 19 56.9970000  0 15                     
G 5  21810662.653   114615796.525       -3203.018          48.000  
G13  21083320.354   110793596.282       -2705.292          46.000  
G15  19699308.161   103520560.551        -914.953          50.000  
G24  20085485.720   105549940.485        1663.763          47.000  
G28  23842405.726   125292704.499        -988.541          38.000  
R16  19060110.309   101815629.074        1056.240          45.000  
R15  20667594.883   110441302.375       -3032.666          47.000  
J 1  37994104.085   199660361.617         -63.489          40.000  
J 2  36214252.322   190307171.461        -533.355          45.000  
R 5  20680853.182   110550958.816       -2206.999          45.000  
R 9  22432844.843   119790110.396        3811.559          45.000  
R21  21576589.874   115460525.029       -3511.520          30.000  
R 7  22372744.017                        2066.426          21.000  
R 6  19453974.176   103809992.957         590.908          32.000  
R22  22068345.294   117802463.402        -209.229          29.000  
> 2019 10  9  7 19 57.9970000  0 15                     
G 5  21811272.363   114618999.732       -3203.205          48.000  
G13  21083835.380   110796301.519       -2705.201          46.000  
G15  19699482.035   103521475.644        -915.065          50.000  
G24  20085169.156   105548276.987        1663.342          47.000  
G28  23842594.258   125293693.314        -989.096          38.000  
R16  19059912.773   101814573.206        1055.565          45.000  
R15  20668162.905   110444335.447       -3033.370          47.000  
J 1  37994116.038   199660424.888         -63.147          40.000  
J 2  36214353.847   190307704.667        -533.182          45.000  
R 5  20681266.804   110553165.854       -2207.080          46.000  
R 9  22432131.147   119786298.833        3811.692          45.000  
R21  21577243.594   115464037.640       -3513.524          31.000  
R 7  22372360.950                        2057.522          21.000  
R 6  19453871.900   103809401.861         591.256          32.000  
R22  22068385.517   117802673.467        -210.208          29.000  
> 2019 10  9  7 19 58.9980000  0 15                     
G 5  21811882.458   114622205.966       -3202.940          48.000  
G13  21084350.632   110799009.111       -2704.653          46.000  
G15  19699656.258   103522391.449        -914.800          50.000  
G24  20084852.190   105546611.852        1663.526          47.000  
G28  23842782.755   125294683.148        -988.907          38.000  
R16  19059714.765   101813516.622        1055.439          45.000  
R15  20668731.486   110447371.808       -3033.404          47.000  
J 1  37994128.166   199660487.688         -62.333          40.000  
J 2  36214455.669   190308238.019        -532.595          45.000  
R 5  20681680.357   110555374.821       -2206.529          46.000  
R 9  22431416.456   119782483.036        3812.300          45.000  
R21  21577906.998   115467553.607       -3512.660          31.000  
R 7  22371977.569                        2055.721          21.000  
R 6  19453764.494   103808809.882         592.731          32.000  
R22  22068423.593   117802884.057        -210.968          29.000  
> 2019 10  9  7 19 59.9980000  0 15                     
G 5  21812492.291   114625409.244       -3203.807          48.000  
G13  21084865.396   110801714.072       -2705.486          45.000  
G15  19699830.219   103523306.566        -915.689          50.000  
G24  20084536.027   105544948.865        1662.278          47.000  
G28  23842971.026   125295672.455        -990.217          38.000  
R16  19059517.141   101812461.900        1053.847          45.000  
R15  20669299.473   110450405.797       -3034.735          47.000  
J 1  37994140.207   199660550.323         -63.187          41.000  
J 2  36214557.037   190308770.874        -533.294          45.000  
R 5  20682093.648   110557581.771       -2207.567          46.000  
R 9  22430702.916   119778671.048        3811.443          45.000  
R21  21578557.508   115471066.596       -3514.132          31.000  
R 7  22371592.181                        2058.385          22.000  
R 6  19453656.757   103808218.746         590.375          33.000  
R22  22068469.906   117803095.159        -212.407          29.000  
> 2019 10  9  7 20  0.9980000  0 15                     
G 5  21813101.949   114628613.513       -3204.256          48.000  
G13  21085379.951   110804419.838       -2705.651          46.000  
G15  19700004.250   103524222.662        -916.132          50.000  
G24  20084219.742   105543287.093        1661.603          47.000  
G28  23843159.610   125296662.933        -990.382          38.000  
R16  19059319.413   101811408.731        1052.850          45.000  
R15  20669867.966   110453441.181       -3035.695          47.000  
J 1  37994152.404   199660613.584         -63.259          41.000  
J 2  36214658.824   190309304.523        -533.619          45.000  
R 5  20682507.200   110559789.630       -2207.797          46.000  
R 9  22429989.342   119774859.832        3811.249          45.000  
R21  21579211.891   115474580.684       -3513.703          31.000  
R 7  22371209.515                        2059.778          22.000  
R 6  19453546.820   103807628.375         590.113          33.000  
R22  22068502.782   117803307.842        -213.892          29.000  
> 2019 10  9  7 20  1.9980000  0 15                     
G 5  21813712.096   114631818.321       -3205.171          48.000  
G13  21085894.819   110807125.979       -2706.385          46.000  
G15  19700178.613   103525139.261        -916.927          50.000  
G24  20083903.509   105541626.073        1660.637          47.000  
G28  23843348.247   125297654.175        -991.464          38.000  
R16  19059122.313   101810356.641        1051.524          45.000  
R15  20670436.494   110456477.512       -3036.859          47.000  
J 1  37994164.235   199660677.002         -63.452          40.000  
J 2  36214760.297   190309838.493        -534.336          45.000  
R 5  20682920.561   110561997.992       -2208.722          46.000  
R 9  22429275.803   119771048.977        3810.488          45.000  
R21  21579867.321   115478095.532       -3514.724          31.000  
R 7  22370825.209                        2051.980          22.000  
R 6  19453436.081   103807038.525         588.995          33.000  
R22  22068540.911   117803521.513        -214.760          29.000  
> 2019 10  9  7 20  2.9980000  0 15                     
G 5  21814321.946   114635023.368       -3205.093          48.000  
G13  21086409.566   110809832.197       -2706.286          46.000  
G15  19700353.185   103526056.100        -916.971          50.000  
G24  20083587.799   105539965.528        1660.338          47.000  
G28  23843536.640   125298645.887        -991.896          38.000  
R16  19058925.631   101809305.390        1050.803          45.000  
R15  20671005.022   110459514.533       -3037.389          47.000  
J 1  37994176.241   199660740.348         -63.486          41.000  
J 2  36214862.189   190310372.496        -534.015          45.000  
R 5  20683333.922   110564206.568       -2208.686          46.000  
R 9  22428562.612   119767238.142        3810.616          45.000  
R21  21580525.159   115481610.789       -3515.477          31.000  
R 7  22370443.101                        2054.359          21.000  
R 6  19453325.604   103806448.735         589.669          33.000  
R22  22068586.822   117803736.033        -214.906          29.000  
> 2019 10  9  7 20  3.9980000  0 15                     
G 5  21814931.936   114638228.488       -3204.900          48.000  
G13  21086924.487   110812538.327       -2705.909          46.000  
G15  19700527.478   103526972.980        -916.671          50.000  
G24  20083271.689   105538305.246        1660.436          47.000  
G28  23843725.277   125299637.873        -992.068          38.000  
R16  19058729.020   101808254.746        1050.580          46.000  
R15  20671573.672   110462552.053       -3037.653          47.000  
J 1  37994188.195   199660803.352         -62.629          41.000  
J 2  36214963.767   190310906.354        -533.624          45.000  
R 5  20683746.777   110566415.155       -2208.255          46.000  
R 9  22427849.474   119763427.133        3811.304          45.000  
R21  21581181.637   115485126.217       -3514.670          31.000  
R 7  22370056.143                        2056.424          19.000  
R 6  19453215.092   103805858.860         591.601          33.000  
R22  22068629.977   117803951.136        -215.069          29.000  
> 2019 10  9  7 20  4.9980000  0 15                     
G 5  21815541.873   114641433.458       -3205.264          48.000  
G13  21087439.513   110815244.115       -2706.090          46.000  
G15  19700702.102   103527889.686        -916.999          50.000  
G24  20082955.578   105536645.031        1659.770          47.000  
G28  23843914.175   125300629.903        -992.640          38.000  
R16  19058532.495   101807204.517        1049.456          45.000  
R15  20672142.061   110465589.811       -3038.344          47.000  
J 1  37994200.340   199660865.865         -62.568          41.000  
J 2  36215065.502   190311439.850        -533.684          45.000  
R 5  20684159.701   110568623.501       -2208.585          45.000  
R 9  22427136.057   119759615.737        3811.277          45.000  
R21  21581836.997   115488641.696       -3515.501          31.000  
R 7  22369666.793                        2062.863          19.000  
R 6  19453104.737   103805268.826         590.088          33.000  
R22  22068668.681   117804166.598        -216.172          29.000  
> 2019 10  9  7 20  5.9980000  0 15                     
G 5  21816152.160   114644639.486       -3206.719          48.000  
G13  21087954.434   110817950.788       -2707.102          46.000  
G15  19700876.552   103528807.432        -918.340          50.000  
G24  20082639.764   105534986.085        1658.219          47.000  
G28  23844103.650   125301623.214        -994.254          39.000  
R16  19058336.163   101806155.881        1047.852          46.000  
R15  20672710.572   110468629.043       -3040.114          46.000  
J 1  37994212.398   199660929.069         -63.607          40.000  
J 2  36215166.975   190311974.205        -534.940          45.000  
R 5  20684572.434   110570832.838       -2209.888          45.000  
R 9  22426422.936   119755805.179        3810.210          45.000  
R21  21582494.696   115492158.440       -3517.923          32.000  
R 7  22369277.828                        2055.002          20.000  
R 6  19452994.381   103804679.708         588.746          33.000  
R22  22068705.885                        -218.895          29.000  
> 2019 10  9  7 20  6.9980000  0 16                     
G 5  21816762.429   114647846.219       -3206.848          48.000  
G13  21088469.686   110820657.998       -2707.320          46.000  
G15  19701051.560   103529725.868        -918.542          50.000  
G24  20082324.177   105533328.094        1657.690          47.000  
G28  23844293.159   125302617.428        -994.664          39.000  
R16  19058140.302   101805108.504        1047.054          46.000  
R15  20673279.693   110471669.402       -3040.698          46.000  
J 1  37994224.369   199660992.623         -63.439          40.000  
J 2  36215268.884   190312509.039        -534.696          45.000  
R 5  20684985.323   110573042.828       -2210.287          45.000  
R 9  22425709.746   119751995.100        3810.173          45.000  
R21  21583157.158   115495676.045       -3517.902          32.000  
R 7  22368890.643                        2052.556          22.000  
R 6  19452884.009   103804091.210         588.486          33.000  
R22  22068747.870   117804399.4753       -218.715          29.000  
G20  22228563.538                        2575.550          25.000  
> 2019 10  9  7 20  7.9980000  0 16                     
G 5  21817372.855   114651053.472       -3207.194          48.000  
G13  21088984.834   110823365.554       -2707.389          46.000  
G15  19701226.376   103530644.793        -918.867          50.000  
G24  20082008.555   105531670.824        1657.198          47.000  
G28  23844482.651   125303612.357        -994.794          39.000  
R16  19057944.510   101804062.193        1046.248          46.000  
R15  20673848.745   110474710.733       -3041.456          46.000  
J 1  37994236.392   199661056.339         -63.399          41.000  
J 2  36215370.706   190313044.205        -535.065          45.000  
R 5  20685398.352   110575253.280       -2210.341          45.000  
R 9  22424996.346   119748185.302        3809.989          45.000  
R21  21583816.567   115499194.315       -3518.103          32.000  
R 7  22368502.881                        2057.888          25.000  
R 6  19452773.828   103803503.088         589.052          33.000  
R22  22068783.539   117804618.7752       -219.229          29.000  
G20  22228079.085                        2574.182          26.000  
> 2019 10  9  7 20  8.9980000  0 16                     
G 5  21817983.159   114654261.038       -3207.690          48.000  
G13  21089499.912   110826073.254       -2707.824          46.000  
G15  19701401.297   103531564.020        -919.342          50.000  
G24  20081693.351   105530014.086        1656.451          47.000  
G28  23844672.160   125304607.847        -995.803          39.000  
R16  19057748.789   101803016.765        1044.999          46.000  
R15  20674417.552   110477752.800       -3042.417          46.000  
J 1  37994248.485   199661120.000         -63.641          41.000  
J 2  36215472.668   190313579.475        -535.467          45.000  
R 5  20685811.399   110577464.011       -2210.774          45.000  
R 9  22424283.226   119744375.609        3809.582          45.000  
R21  21584474.126   115502713.111       -3518.732          33.000  
R 7  22368118.052                        2057.987          26.000  
R 6  19452663.525   103802915.295         587.014          34.000  
R22  22068827.164   117804838.4681       -220.425          29.000  
G20  22227586.012                        2574.744          26.000  
> 2019 10  9  7 20  9.9980000  0 16                     
G 5  21818593.602   114657468.806       -3207.755          48.000  
G13  21090015.060   110828780.964       -2707.643          46.000  
G15  19701576.480   103532483.420        -919.302          50.000  
G24  20081378.305   105528357.769        1656.264          47.000  
G28  23844862.472   125305603.725        -995.989          39.000  
R16  19057553.573   101801972.077        1044.485          46.000  
R15  20674986.638   110480795.462       -3042.787          46.000  
J 1  37994260.718   199661183.503         -63.206          41.000  
J 2  36215574.385   190314114.713        -535.080          45.000  
R 5  20686224.132   110579674.907       -2210.720          45.000  
R 9  22423569.808   119740565.868        3809.860          45.000  
R21  21585131.947   115506232.262       -3519.661          33.000  
R 7  22367733.187                        2058.142          27.000  
R 6  19452553.275   103802327.469         587.978          34.000  
R22  22068869.778   117805059.387        -221.180          29.000  
G20  22227097.807                        2574.938          26.000  
> 2019 10  9  7 20 10.9980000  0 16                     
G 5  21819204.081   114660676.809       -3208.218          48.000  
G13  21090530.348   110831488.742       -2707.769          46.000  
G15  19701751.541   103533403.047        -919.820          50.000  
G24  20081063.102   105526701.933        1655.633          47.000  
G28  23845052.662   125306600.052        -996.624          39.000  
R16  19057358.305   101800928.204        1043.523          46.000  
R15  20675555.585   110483838.793       -3043.765          46.000  
J 1  37994272.828   199661246.883         -63.484          40.000  
J 2  36215676.137   190314650.001        -535.386          45.000  
R 5  20686636.917   110581885.995       -2211.228          44.000  
R 9  22422856.653   119736756.165        3809.546          45.000  
R21  21585791.914   115509751.735       -3519.160          33.000  
R 7  22367350.382   119734141.8593       2058.370          28.000  
R 6  19452443.094   103801739.858         586.919          34.000  
R22  22068914.799   117805281.033        -222.278          29.000  
G20  22226614.279                        2572.674          26.000  
> 2019 10  9  7 20 11.9980000  0 16                     
G 5  21819814.437   114663885.246       -3208.588          48.000  
G13  21091045.705   110834196.785       -2708.188          46.000  
G15  19701926.653   103534323.081        -920.191          50.000  
G24  20080748.178   105525046.741        1654.894          47.000  
G28  23845242.835   125307597.035        -997.385          39.000  
R16  19057163.002   101799885.303        1042.496          46.000  
R15  20676124.358   110486882.982       -3044.499          46.000  
J 1  37994285.008   199661310.319         -63.169          41.000  
J 2  36215778.204   190315185.510        -535.670          45.000  
R 5  20687049.911   110584097.455       -2211.630          44.000  
R 9  22422143.340   119732946.654        3809.594          45.000  
R21  21586451.341   115513271.937       -3520.523          33.000  
R 7  22366966.477   119732083.7772       2058.004          28.000  
R 6  19452332.983   103801152.517         587.373          34.000  
R22  22068954.952   117805503.651        -222.645          29.000  
G20  22226124.277                        2573.654          26.000  
> 2019 10  9  7 20 12.9980000  0 16                     
G 5  21820424.985   114667093.943       -3208.942          48.000  
G13  21091561.115   110836904.901       -2708.380          46.000  
G15  19702101.958   103535243.355        -920.473          50.000  
G24  20080433.358   105523392.029        1654.313          47.000  
G28  23845432.763   125308594.473        -998.000          40.000  
R16  19056968.275   101798843.220        1041.624          46.000  
R15  20676693.287   110489927.857       -3045.239          46.000  
J 1  37994297.363   199661373.675         -63.620          41.000  
J 2  36215879.973   190315721.057        -535.689          46.000  
R 5  20687463.115   110586309.089       -2211.823          44.000  
R 9  22421429.975   119729137.204        3809.394          45.000  
R21  21587109.650   115516792.534       -3521.497          33.000  
R 7  22366581.368   119730025.565        2058.433          29.000  
R 6  19452223.309   103800565.365         586.661          34.000  
R22  22069004.267   117805727.148        -224.700          29.000  
G20  22225634.589                        2574.204          26.000  
> 2019 10  9  7 20 13.9980000  0 16                     
G 5  21821035.027   114670302.694       -3208.438          48.000  
G13  21092076.437   110839612.893       -2707.602          46.000  
G15  19702277.159   103536163.663        -919.981          50.000  
G24  20080118.749   105521737.585        1654.683          47.000  
G28  23845622.883   125309592.177        -997.568          39.000  
R16  19056773.304   101797801.737        1041.519          46.000  
R15  20677262.321   110492973.187       -3045.314          45.000  
J 1  37994309.439   199661436.711         -62.511          41.000  
J 2  36215982.022   190316256.458        -535.044          46.000  
R 5  20687876.231   110588520.707       -2211.181          44.000  
R 9  22420716.488   119725327.590        3810.087          45.000  
R21  21587768.029   115520313.275       -3520.106          32.000  
R 7  22366195.195                        2059.911          30.000  
R 6  19452113.512   103799978.123         587.625          34.000  
R22  22069057.036   117805951.116        -224.152          30.000  
G20  22225145.023                        2574.871          26.000  
> 2019 10  9  7 20 14.9980000  0 16                     
G 5  21821645.366   114673511.123       -3208.698          47.000  
G13  21092591.777   110842320.388       -2707.646          46.000  
G15  19702451.957   103537083.620        -920.187          50.000  
G24  20079803.702   105520083.038        1654.105          47.000  
G28  23845812.846   125310589.752        -997.953          39.000  
R16  19056578.245   101796760.459        1040.805          46.000  
R15  20677830.989   110496018.593       -3045.791          45.000  
J 1  37994321.043   199661499.057         -62.391          41.000  
J 2  36216083.774   190316791.322        -535.081          46.000  
R 5  20688289.121   110590731.929       -2211.359          44.000  
R 9  22420002.897   119721517.388        3810.061          45.000  
R21  21588426.094   115523833.858       -3520.942          32.000  
R 7  22365812.093   119725907.2733       2059.614          30.000  
R 6  19452003.837   103799390.442         587.675          35.000  
R22  22069104.797   117806175.359        -225.061          30.000  
G20  22224654.498                        2573.975          26.000  
> 2019 10  9  7 20 15.9980000  0 16                     
G 5  21822255.932   114676720.639       -3209.934          47.000  
G13  21093107.082   110845028.793       -2708.835          46.000  
G15  19702627.175   103538004.652        -921.584          50.000  
G24  20079488.988   105518429.809        1652.649          47.000  
G28  23846003.088   125311588.630        -999.385          39.000  
R16  19056384.042   101795720.828        1038.890          46.000  
R15  20678400.390   110499065.524       -3047.678          45.000  
J 1  37994333.415   199661562.134         -63.416          41.000  
J 2  36216185.945   190317327.056        -536.139          46.000  
R 5  20688702.813   110592944.206       -2212.847          44.000  
R 9  22419289.340   119717708.079        3808.861          45.000  
R21  21589084.456   115527355.747       -3522.628          32.000  
R 7  22365425.989   119723848.8312       2058.020          30.000  
R 6  19451894.459   103798803.759         586.497          35.000  
R22  22069153.850   117806401.122        -226.198          30.000  
G20  22224166.502                        2572.909          26.000  
> 2019 10  9  7 20 16.9980000  0 16                     
G 5  21822866.550   114679930.781       -3210.338          47.000  
G13  21093622.387   110847737.642       -2708.847          46.000  
G15  19702802.602   103538926.285        -921.803          50.000  
G24  20079174.517   105516777.442        1652.050          47.000  
G28  23846193.505   125312588.351       -1000.057          39.000  
R16  19056189.804   101794682.391        1037.967          46.000  
R15  20678969.808   110502113.465       -3048.187          45.000  
J 1  37994345.212   199661625.473         -63.479          41.000  
J 2  36216288.012   190317863.206        -536.286          46.000  
R 5  20689116.366   110595157.052       -2213.224          44.000  
R 9  22418575.783   119713899.150        3808.776          45.000  
R21  21589743.097   115530878.410       -3523.112          31.000  
R 7  22365043.637   119721790.1521       2058.255          30.000  
R 6  19451784.907   103798217.626         586.118          35.000  
R22  22069200.215   117806628.121        -227.344          29.000  
G20  22223677.408                        2573.758          26.000  
> 2019 10  9  7 20 17.9980000  0 16                     
G 5  21823477.290   114683141.338       -3210.663          47.000  
G13  21094138.163   110850446.741       -2709.090          46.000  
G15  19702977.924   103539848.315        -922.139          50.000  
G24  20078860.204   105515125.707        1651.395          46.000  
G28  23846383.782   125313588.684       -1000.645          39.000  
R16  19055996.106   101793644.940        1036.967          46.000  
R15  20679539.697   110505162.263       -3049.296          45.000  
J 1  37994357.392   199661688.857         -63.207          41.000  
J 2  36216390.305   190318399.562        -536.290          46.000  
R 5  20689530.041   110597370.239       -2213.197          44.000  
R 9  22417862.470   119710090.433        3808.682          46.000  
R21  21590401.424   115534401.677       -3523.111          30.000  
R 7  22364650.798   119719732.059        2058.182          29.000  
R 6  19451675.372   103797631.831         585.131          35.000  
R22  22069241.502   117806855.968        -227.638          29.000  
G20  22223188.261                        2572.955          26.000  
> 2019 10  9  7 20 18.9980000  0 16                     
G 5  21824087.890   114686352.168       -3210.931          47.000  
G13  21094653.974   110853155.922       -2709.087          46.000  
G15  19703153.072   103540770.584        -922.116          50.000  
G24  20078545.908   105513474.482        1651.104          46.000  
G28  23846574.286   125314589.494       -1001.014          39.000  
R16  19055802.287   101792608.328        1036.236          46.000  
R15  20680110.144   110508211.743       -3049.774          45.000  
J 1  37994369.310   199661752.158         -63.166          41.000  
J 2  36216492.389   190318935.989        -536.393          46.000  
R 5  20689944.379   110599583.640       -2213.378          44.000  
R 9  22417149.263   119706281.758        3808.756          45.000  
R21  21591059.769   115537925.396       -3523.639          29.000  
R 7  22364258.622   119717673.847        2058.076          28.000  
R 6  19451565.924   103797046.172         585.622          35.000  
R22  22069288.653   117807084.723        -228.814          28.000  
G20  22222699.358                        2573.753          26.000  
> 2019 10  9  7 20 19.9980000  0 16                     
G 5  21824698.805   114689563.292       -3211.451          47.000  
G13  21095169.488   110855865.245       -2709.539          46.000  
G15  19703328.796   103541693.141        -922.885          50.000  
G24  20078231.682   105511823.795        1650.205          46.000  
G28  23846765.000   125315590.820       -1001.819          39.000  
R16  19055608.327   101791572.567        1035.060          46.000  
R15  20680681.255   110511261.960       -3050.785          45.000  
J 1  37994381.229   199661815.398         -63.510          41.000  
J 2  36216594.490   190319472.498        -536.649          46.000  
R 5  20690358.751   110601797.288       -2213.961          44.000  
R 9  22416436.072   119702473.160        3808.328          45.000  
R21  21591719.840   115541449.605       -3524.576          29.000  
R 7  22363870.878   119715615.560        2058.113          27.000  
R 6  19451456.319   103796460.703         585.701          34.000  
R22  22069334.739   117807314.198        -229.764          27.000  
G20  22222210.071                        2572.626          26.000  
> 2019 10  9  7 20 20.9980000  0 16                     
G 5  21825309.790   114692774.680       -3211.126          47.000  
G13  21095685.229   110858574.652       -2709.187          46.000  
G15  19703504.380   103542615.941        -922.529          50.000  
G24  20077917.508   105510173.584        1650.411          46.000  
G28  23846955.748   125316592.605       -1001.415          39.000  
R16  19055414.560   101790537.607        1035.044          46.000  
R15  20681252.471   110514312.857       -3050.902          45.000  
J 1  37994393.130   199661878.542         -62.834          41.000  
J 2  36216696.661   190320009.067        -536.141          46.000  
R 5  20690773.054   110604011.131       -2213.461          45.000  
R 9  22415722.795   119698664.613        3808.895          45.000  
R21  21592382.216   115544974.193       -3524.544          28.000  
R 7  22363471.931   119713557.237        2057.998          25.000  
R 6  19451346.400   103795875.430         585.342          34.000  
R22  22069377.073   117807544.556        -230.265          27.000  
G20  22221720.924                        2573.328          26.000  
> 2019 10  9  7 20 21.9980000  0 16                     
G 5  21825920.792   114695986.284       -3211.858          47.000  
G13  21096200.935   110861284.087       -2709.385          46.000  
G15  19703679.999   103543538.934        -923.026          50.000  
G24  20077603.457   105508523.817        1649.696          46.000  
G28  23847146.549   125317594.842       -1002.524          39.000  
R16  19055221.142   101789503.407        1033.901          46.000  
R15  20681823.878   110517364.378       -3051.816          45.000  
J 1  37994405.188   199661941.517         -62.872          41.000  
J 2  36216798.692   190320545.631        -536.514          46.000  
R 5  20691187.462   110606225.147       -2214.023          45.000  
R 9  22415009.639   119694856.043        3808.703          45.000  
R21  21593042.584   115548499.204       -3525.461          28.000  
R 7  22363073.892                        2058.276          24.000  
R 6  19451236.691   103795290.244         584.995          34.000  
R22  22069416.266                        -231.192          25.000  
G20  22221231.969                        2572.223          26.000  
> 2019 10  9  7 20 22.9980000  0 16                     
G 5  21826531.950   114699198.241       -3212.221          47.000  
G13  21096716.834   110863993.728       -2709.791          46.000  
G15  19703855.705   103544462.278        -923.661          50.000  
G24  20077289.615   105506874.637        1648.839          46.000  
G28  23847337.262   125318597.655       -1003.418          39.000  
R16  19055027.532   101788470.129        1032.720          46.000  
R15  20682395.285   110520416.713       -3052.777          45.000  
J 1  37994417.490   199662004.527         -63.142          41.000  
J 2  36216900.741   190321082.376        -536.997          46.000  
R 5  20691602.254   110608439.479       -2214.500          45.000  
R 9  22414296.117   119691047.591        3808.277          45.000  
R21  21593701.435   115552024.664       -3525.779          28.000  
R 7  22362685.467                        2058.058          22.000  
R 6  19451127.051   103794705.344         583.791          34.000  
R22  22069457.484                        -232.053          24.000  
G20  22220740.815                        2572.485          26.000  
> 2019 10  9  7 20 23.9980000  0 16                     
G 5  21827143.232   114702410.447       -3212.161          47.000  
G13  21097232.557   110866703.430       -2709.479          46.000  
G15  19704031.446   103545385.839        -923.462          50.000  
G24  20076975.877   105505225.910        1648.613          46.000  
G28  23847528.691   125319600.905       -1003.700          40.000  
R16  19054834.026   101787437.643        1032.169          46.000  
R15  20682967.112   110523469.692       -3053.135          45.000  
J 1  37994429.304   199662067.409         -62.745          41.000  
J 2  36217002.947   190321619.137        -536.650          46.000  
R 5  20692016.452   110610653.971       -2214.519          45.000  
R 9  22413582.595   119687239.187        3808.576          45.000  
R21  21594366.847   115555550.571       -3525.859          28.000  
R 7  22362299.591                        2056.258          22.000  
R 6  19451017.254   103794120.549         584.759          34.000  
R22  22069501.074                        -232.617          23.000  
G20  22220250.673                        2573.685          26.000  
> 2019 10  9  7 20 24.9980000  0 16                     
G 5  21827754.251   114705622.383       -3212.176          46.000  
G13  21097748.054   110869412.697       -2709.724          46.000  
G15  19704207.153   103546309.113        -923.625          50.000  
G24  20076662.209   105503577.141        1648.284          46.000  
G28  23847719.963   125320604.082       -1003.474          40.000  
R16  19054640.765   101786405.452        1031.698          46.000  
R15  20683538.781   110526522.799       -3053.581          45.000  
J 1  37994441.275   199662129.658         -62.377          41.000  
J 2  36217105.031   190322155.433        -536.638          46.000  
R 5  20692430.982   110612868.089       -2214.210          45.000  
R 9  22412869.003   119683430.270        3808.812          45.000  
R21  21595031.944   115559076.405       -3526.456          28.000  
R 7  22361915.738                        2060.844          21.000  
R 6  19450907.562   103793535.394         585.328          33.000  
R22  22069542.780                        -231.978          22.000  
G20  22219760.619                        2572.528          26.000  
> 2019 10  9  7 20 25.9980000  0 16                     
G 5  21828365.689   114708835.342       -3213.293          46.000  
G13  21098263.900   110872122.802       -2710.508          46.000  
G15  19704382.824   103547233.387        -924.630          50.000  
G24  20076348.908   105501929.609        1647.075          46.000  
G28  23847911.601   125321608.507       -1004.764          40.000  
R16  19054447.434   101785374.871        1030.015          46.000  
R15  20684110.747   110529577.343       -3055.042          45.000  
J 1  37994453.054   199662192.568         -63.074          41.000  
J 2  36217207.342   190322692.525        -537.355          46.000  
R 5  20692845.739   110615083.200       -2215.437          45.000  
R 9  22412155.830   119679622.175        3807.937          45.000  
R21  21595693.971   115562603.383       -3527.383          28.000  
R 7  22361530.438                        2058.457          20.000  
R 6  19450798.254   103792951.160         583.820          34.000  
R22  22069584.015                        -238.912          21.000  
G20  22219271.297                        2570.387          26.000  
> 2019 10  9  7 20 26.9980000  0 16                     
G 5  21828977.407   114712049.069       -3213.827          46.000  
G13  21098779.764   110874833.490       -2710.676          46.000  
G15  19704559.106   103548158.400        -925.028          50.000  
G24  20076035.398   105500283.076        1646.314          47.000  
G28  23848103.344   125322613.901       -1005.507          40.000  
R16  19054254.749   101784345.613        1028.810          46.000  
R15  20684683.096   110532633.096       -3055.996          45.000  
J 1  37994464.815   199662255.878         -63.170          41.000  
J 2  36217309.705   190323230.179        -537.735          46.000  
R 5  20693260.827   110617299.024       -2215.836          46.000  
R 9  22411442.448   119675814.629        3807.333          45.000  
R21  21596353.153   115566131.294       -3528.309          28.000  
R 7  22361147.231                        2055.607          19.000  
R 6  19450688.859   103792367.593         583.822          34.000  
R22  22069623.802                        -231.348          21.000  
G20  22218779.341                        2571.097          25.000  
> 2019 10  9  7 20 27.9980000  0 16                     
G 5  21829588.897   114715263.145       -3214.426          46.000  
G13  21099295.784   110877544.358       -2711.172          46.000  
G15  19704735.196   103549083.738        -925.676          50.000  
G24  20075722.201   105498637.114        1645.512          46.000  
G28  23848295.000   125323619.856       -1006.143          40.000  
R16  19054062.099   101783317.234        1027.767          45.000  
R15  20685255.341   110535689.617       -3057.052          45.000  
J 1  37994476.839   199662319.174         -63.485          41.000  
J 2  36217412.085   190323767.954        -538.082          46.000  
R 5  20693675.636   110619515.156       -2216.354          46.000  
R 9  22410729.048   119672007.202        3807.216          45.000  
R21  21597010.502   115569659.717       -3529.060          28.000  
R 7  22360760.953                        2059.504          17.000  
R 6  19450579.795   103791784.261         583.222          34.000  
R22  22069664.618                        -229.599          20.000  
G20  22218284.278                        2571.206          25.000  
> 2019 10  9  7 20 28.9980000  0 16                     
G 5  21830200.754   114718477.530       -3214.596          46.000  
G13  21099811.612   110880255.356       -2711.061          46.000  
G15  19704911.304   103550009.372        -925.798          50.000  
G24  20075409.423   105496991.687        1645.115          47.000  
G28  23848486.778   125324626.328       -1006.547          40.000  
R16  19053869.413   101782289.712        1027.014          45.000  
R15  20685827.377   110538746.858       -3057.541          45.000  
J 1  37994489.141   199662382.410         -63.006          41.000  
J 2  36217514.483   190324305.831        -537.777          46.000  
R 5  20694090.655   110621731.560       -2216.523          46.000  
R 9  22410015.823   119668199.871        3807.206          45.000  
R21  21597668.428   115573188.657       -3529.591          28.000  
R 7  22360377.886                        2055.537          15.000  
R 6  19450470.696   103791201.096         583.744          34.000  
R22  22069705.800                        -236.599          18.000  
G20  22217790.646                        2571.559          25.000  
> 2019 10  9  7 20 29.9980000  0 16                     
G 5  21830812.314   114721692.216       -3214.936          46.000  
G13  21100327.476   110882966.491       -2711.297          46.000  
G15  19705087.394   103550935.284        -926.181          50.000  
G24  20075096.523   105495346.791        1644.665          47.000  
G28  23848678.207   125325633.311       -1007.129          40.000  
R16  19053677.374   101781263.034        1026.056          45.000  
R15  20686399.569   110541804.797       -3058.267          45.000  
J 1  37994501.286   199662445.608         -63.368          41.000  
J 2  36217616.759   190324843.817        -538.077          46.000  
R 5  20694505.918   110623948.191       -2216.902          46.000  
R 9  22409302.510   119664392.625        3807.147          45.000  
R21  21598326.877   115576717.950       -3529.641          28.000  
R 7  22359994.661                        2055.006          13.000  
R 6  19450361.266   103790618.181         583.074          34.000  
R22  22069747.192                        -236.599          14.000  
G20  22217295.968                        2570.439          25.000  
> 2019 10  9  7 20 30.9980000  0 15                     
G 5  21831423.945   114724907.147       -3214.980          46.000  
G13  21100843.514   110885677.684       -2711.190          46.000  
G15  19705263.484   103551861.424        -926.234          50.000  
G24  20074783.624   105493702.375        1644.182          47.000  
G28  23848870.177   125326640.767       -1007.443          40.000  
R16  19053485.159   101780237.160        1025.651          45.000  
R15  20686971.588   110544863.405       -3058.839          45.000  
J 1  37994513.310   199662508.664         -62.964          41.000  
J 2  36217719.296   190325381.834        -538.086          46.000  
R 5  20694920.797   110626165.005       -2216.807          46.000  
R 9  22408589.477   119660585.401        3807.089          45.000  
R21  21598983.790   115580247.743       -3530.153          28.000  
R 6  19450251.853   103790035.404         582.874          34.000  
R22  22069791.114                        -227.162          14.000  
G20  22216802.964                        2570.806          24.000  
> 2019 10  9  7 20 31.9980000  0 15                     
G 5  21832036.081   114728122.440       -3215.456          46.000  
G13  21101359.534   110888389.070       -2711.533          46.000  
G15  19705439.644   103552787.889        -926.614          50.000  
G24  20074470.898   105492058.541        1643.565          47.000  
G28  23849061.937   125327648.781       -1008.483          40.000  
R16  19053293.155   101779212.210        1024.411          45.000  
R15  20687544.164   110547922.812       -3059.901          45.000  
J 1  37994525.350   199662571.732         -63.181          41.000  
J 2  36217821.833   190325919.993        -538.282          46.000  
R 5  20695335.885   110628382.119       -2217.335          46.000  
R 9  22407876.269   119656778.311        3806.948          45.000  
R21  21599642.990   115583778.035       -3530.563          28.000  
R 6  19450142.737   103789452.861         582.513          34.000  
R22  22069833.902                        -250.005          12.000  
G20  22216309.280                        2569.318          23.000  
> 2019 10  9  7 20 32.9980000  0 15                     
G 5  21832647.850   114731337.921       -3215.762          46.000  
G13  21101875.502   110891100.461       -2711.513          46.000  
G15  19705615.961   103553714.528        -926.827          50.000  
G24  20074158.522   105490415.100        1643.021          47.000  
G28  23849253.907   125328657.181       -1008.541          40.000  
R16  19053101.359   101778187.985        1023.422          45.000  
R15  20688116.758   110550982.820       -3060.479          45.000  
J 1  37994537.304   199662634.611         -62.911          41.000  
J 2  36217924.039   190326458.137        -538.270          46.000  
R 5  20695751.113   110630599.342       -2217.421          46.000  
R 9  22407163.061   119652971.193        3806.904          46.000  
R21  21600299.816   115587308.643       -3530.698          27.000  
R 6  19450033.376   103788870.425         582.282          33.000  
R22  22069880.442                        -250.005          10.000  
G20  22215818.650                        2570.507          23.000  
> 2019 10  9  7 20 33.9980000  0 15                     
G 5  21833259.987   114734553.628       -3215.541          46.000  
G13  21102391.522   110893811.915       -2711.357          46.000  
G15  19705792.400   103554641.386        -926.751          50.000  
G24  20073845.727   105488772.146        1642.914          47.000  
G28  23849446.173   125329666.040       -1008.633          40.000  
R16  19052909.913   101777164.554        1023.331          45.000  
R15  20688689.178   110554043.440       -3060.688          44.000  
J 1  37994549.362   199662697.378         -62.599          41.000  
J 2  36218026.559   190326996.296        -537.956          46.000  
R 5  20696166.289   110632816.750       -2217.295          46.000  
R 9  22406449.749   119649164.081        3807.188          45.000  
R21  21600955.438   115590839.684       -3531.254          27.000  
R 6  19449924.050   103788288.126         582.140          33.000  
R22  22069927.366                        -250.005           8.000  
G20  22215326.257                        2570.881          22.000  
> 2019 10  9  7 20 34.9980000  0 14                     
G 5  21833872.158   114737769.064       -3215.666          46.000  
G13  21102907.525   110896522.921       -2711.263          46.000  
G15  19705968.892   103555567.948        -926.859          50.000  
G24  20073533.106   105487129.141        1642.600          47.000  
G28  23849638.126   125330674.843       -1009.396          40.000  
R16  19052718.362   101776141.421        1022.560          45.000  
R15  20689261.632   110557104.159       -3061.327          44.000  
J 1  37994561.071   199662759.505         -62.413          41.000  
J 2  36218128.940   190327533.987        -537.943          46.000  
R 5  20696581.080   110635033.839       -2217.467          46.000  
R 9  22405736.646   119645356.467        3807.330          45.000  
R21  21601612.334   115594371.1522      -3531.607          27.000  
R 6  19449814.481   103787705.455         582.041          33.000  
G20  22214833.201                        2571.941          22.000  
> 2019 10  9  7 20 35.9980000  0 14                     
G 5  21834484.434   114740985.279       -3216.772          46.000  
G13  21103423.581   110899234.522       -2712.025          47.000  
G15  19706145.156   103556495.257        -927.794          50.000  
G24  20073220.555   105485487.126        1641.428          47.000  
G28  23849830.008   125331684.597       -1010.236          40.000  
R16  19052526.968   101775119.606        1021.207          45.000  
R15  20689834.366   110560166.092       -3062.616          44.000  
J 1  37994573.321   199662822.044         -62.806          41.000  
J 2  36218231.442   190328072.231        -538.638          46.000  
R 5  20696995.872   110637251.647       -2218.329          46.000  
R 9  22405023.403   119641549.401        3806.729          46.000  
R21  21602270.329   115597902.9902      -3532.683          27.000  
R 6  19449705.469   103787123.395         582.165          33.000  
G20  22214343.705                        2565.968          21.000  
> 2019 10  9  7 20 36.9980000  0 14                     
G 5  21835097.146   114744202.402       -3217.368          46.000  
G13  21103940.072   110901946.865       -2712.536          47.000  
G15  19706321.857   103557423.469        -928.445          50.000  
G24  20072908.249   105483846.234        1640.532          47.000  
G28  23850022.380   125332695.508       -1011.361          40.000  
R16  19052335.626   101774099.300        1019.823          45.000  
R15  20690407.553   110563229.402       -3063.755          44.000  
J 1  37994585.344   199662885.127         -63.069          41.000  
J 2  36218333.893   190328611.188        -539.135          46.000  
R 5  20697410.629   110639470.322       -2218.998          46.000  
R 9  22404310.422   119637743.078        3806.214          46.000  
R21  21602925.585   115601435.386       -3533.067          26.000  
R 6  19449596.266   103786542.239         581.046          33.000  
G20  22213854.401                        2583.187          22.000  
> 2019 10  9  7 20 37.9980000  0 14                     
G 5  21835709.788   114747419.978       -3217.821          47.000  
G13  21104456.546   110904659.474       -2712.697          47.000  
G15  19706498.209   103558352.102        -928.936          50.000  
G24  20072595.820   105482206.013        1639.805          47.000  
G28  23850214.768   125333707.066       -1011.715          40.000  
R16  19052144.948   101773079.971        1018.745          45.000  
R15  20690981.124   110566293.607       -3064.775          45.000  
J 1  37994597.402   199662948.309         -63.068          41.000  
J 2  36218436.535   190329150.376        -539.290          46.000  
R 5  20697825.874   110641689.361       -2219.265          46.000  
R 9  22403597.476   119633936.958        3806.134          46.000  
R21  21603580.352   115604968.954       -3534.002          26.000  
R 6  19449487.341   103785961.368         581.165          33.000  
G20  22213363.736                        2577.076          22.000  
> 2019 10  9  7 20 38.9980000  0 14                     
G 5  21836322.133   114750637.734       -3217.696          47.000  
G13  21104972.828   110907372.101       -2712.488          47.000  
G15  19706674.858   103559280.902        -928.729          50.000  
G24  20072283.583   105480566.191        1639.752          47.000  
G28  23850407.331   125334719.031       -1012.142          40.000  
R16  19051954.269   101772061.396        1018.344          45.000  
R15  20691554.800   110569358.407       -3065.133          45.000  
J 1  37994609.513   199663011.318         -62.726          41.000  
J 2  36218539.404   190329689.556        -539.112          46.000  
R 5  20698240.823   110643908.547       -2219.276          46.000  
R 9  22402885.053   119630130.817        3806.294          46.000  
R21  21604235.259   115608502.802       -3533.629          26.000  
R 6  19449378.609   103785380.604         580.932          33.000  
G20  22212874.344                        2577.681          21.000  
> 2019 10  9  7 20 39.9980000  0 15                     
G 5  21836934.671   114753855.742       -3218.155          47.000  
G13  21105489.076   110910084.815       -2712.849          47.000  
G15  19706851.454   103560209.942        -929.112          50.000  
G24  20071971.608   105478926.844        1639.104          47.000  
G28  23850600.087   125335731.458       -1012.742          40.000  
R16  19051763.818   101771043.618        1017.435          45.000  
R15  20692128.441   110572423.852       -3065.731          45.000  
J 1  37994621.379   199663074.224         -62.952          41.000  
J 2  36218641.872   190330228.770        -539.367          46.000  
R 5  20698655.667   110646127.924       -2219.446          46.000  
R 9  22402172.439   119626324.709        3805.913          46.000  
R21  21604887.164   115612037.179       -3534.803          26.000  
R 7  22356089.756                        2058.000          13.000  
R 6  19449269.737   103784799.976         580.558          33.000  
G20  22212391.252                        2565.406          21.000  
> 2019 10  9  7 20 40.9980000  0 15                     
G 5  21837547.366   114757074.098       -3218.636          47.000  
G13  21106005.148   110912797.686       -2713.120          47.000  
G15  19707028.486   103561139.295        -929.598          50.000  
G24  20071659.529   105477288.077        1638.420          47.000  
G28  23850793.051   125336744.430       -1013.370          40.000  
R16  19051573.732   101770026.724        1016.180          45.000  
R15  20692702.588   110575490.066       -3066.815          45.000  
J 1  37994633.385   199663137.102         -63.083          41.000  
J 2  36218744.636   190330768.119        -539.555          46.000  
R 5  20699070.947   110648347.599       -2219.834          46.000  
R 9  22401460.034   119622518.705        3805.863          46.000  
R21  21605541.879                       -3536.227          25.000  
R 7  22355709.778                        2060.872          18.000  
R 6  19449161.022   103784219.625         580.056          33.000  
G20  22211903.955                        2570.449          21.000  
> 2019 10  9  7 20 41.9980000  0 15                     
G 5  21838159.711   114760292.876       -3218.874          47.000  
G13  21106521.710   110915510.814       -2713.085          47.000  
G15  19707205.397   103562069.053        -929.830          50.000  
G24  20071347.780   105475649.945        1638.080          47.000  
G28  23850986.050   125337758.046       -1013.993          40.000  
R16  19051383.700   101769010.818        1015.523          45.000  
R15  20693276.578   110578557.131       -3067.346          45.000  
J 1  37994645.338   199663200.046         -62.737          41.000  
J 2  36218847.278   190331307.686        -539.506          46.000  
R 5  20699486.227   110650567.665       -2220.146          46.000  
R 9  22400747.419   119618712.896        3805.886          46.000  
R21  21606197.536                       -3536.264          25.000  
R 7  22355328.700                        2059.104          21.000  
R 6  19449052.656   103783639.565         580.158          33.000  
G20  22211418.682                        2566.615          22.000  
> 2019 10  9  7 20 42.9980000  0 15                     
G 5  21838772.371   114763511.899       -3219.384          46.000  
G13  21107038.044   110918224.021       -2713.540          46.000  
G15  19707382.673   103562999.052        -930.362          50.000  
G24  20071036.364   105474012.301        1637.144          47.000  
G28  23851179.399   125338772.118       -1014.546          40.000  
R16  19051193.527   101767995.736        1014.634          45.000  
R15  20693850.865   110581624.859       -3068.260          45.000  
J 1  37994657.222   199663262.894         -63.101          41.000  
J 2  36218949.850   190331847.305        -539.837          46.000  
R 5  20699901.490   110652787.914       -2220.662          46.000  
R 9  22400034.525   119614907.153        3805.440          46.000  
R21  21606848.481                       -3536.184          25.000  
R 7  22354950.781                        2058.699          23.000  
R 6  19448944.203   103783059.675         579.690          33.000  
G20  22210932.641                        2569.068          21.000  
> 2019 10  9  7 20 43.9980000  0 15                     
G 5  21839384.786   114766731.256       -3219.637          46.000  
G13  21107554.047   110920937.378       -2713.493          46.000  
G15  19707559.828   103563929.342        -930.402          50.000  
G24  20070724.511   105472375.197        1636.760          47.000  
G28  23851372.520   125339786.736       -1015.061          40.000  
R16  19051003.651   101766981.563        1013.818          45.000  
R15  20694425.762   110584693.336       -3068.890          45.000  
J 1  37994669.280   199663325.699         -62.780          41.000  
J 2  36219052.597   190332387.039        -539.780          46.000  
R 5  20700316.928   110655008.424       -2220.658          46.000  
R 9  22399321.806   119611101.483        3805.551          46.000  
R21  21607503.842                       -3536.017          25.000  
R 7  22354572.390                        2054.955          25.000  
R 6  19448835.296   103782479.994         579.868          33.000  
G20  22210445.675                        2563.480          21.000  
> 2019 10  9  7 20 44.9980000  0 15                     
G 5  21839997.237   114769950.246       -3218.830          46.000  
G13  21108070.347   110923650.200       -2712.707          47.000  
G15  19707736.756   103564859.269        -929.890          50.000  
G24  20070413.077   105470737.979        1637.158          47.000  
G28  23851566.183   125340801.203       -1014.651          40.000  
R16  19050813.444   101765967.565        1013.810          45.000  
R15  20695001.043   110587761.839       -3068.706          45.000  
J 1  37994681.251   199663387.784         -61.710          41.000  
J 2  36219155.309   190332926.210        -539.233          46.000  
R 5  20700732.313   110657228.495       -2219.982          46.000  
R 9  22398609.017   119607295.251        3806.402          46.000  
R21  21608159.795                       -3535.995          25.000  
R 7  22354192.656                        2059.147          25.000  
R 6  19448726.704   103781899.822         580.019          33.000  
G20  22209959.599                        2567.893          21.000  
> 2019 10  9  7 20 45.9980000  0 15                     
G 5  21840609.914   114773169.709       -3220.000          46.000  
G13  21108586.385   110926363.314       -2713.487          46.000  
G15  19707913.998   103565789.632        -930.845          50.000  
G24  20070101.748   105469101.463        1635.917          47.000  
G28  23851759.217   125341816.352       -1015.857          39.000  
R16  19050623.830   101764954.569        1012.170          45.000  
R15  20695576.203   110590831.232       -3070.194          45.000  
J 1  37994693.082   199663449.990         -62.457          41.000  
J 2  36219258.091   190333465.628        -539.889          46.000  
R 5  20701147.732   110659448.956       -2221.007          47.000  
R 9  22397896.141   119603489.251        3805.628          46.000  
R21  21608819.693                       -3538.496          25.000  
R 7  22353813.358                        2057.414          25.000  
R 6  19448618.216   103781319.998         579.536          33.000  
G20  22209473.942                        2577.371          21.000  
> 2019 10  9  7 20 46.9980000  0 15                     
G 5  21841222.800   114776390.145       -3220.667          46.000  
G13  21109102.876   110929077.235       -2714.077          46.000  
G15  19708091.292   103566720.957        -931.687          50.000  
G24  20069790.645   105467466.187        1634.850          47.000  
G28  23851952.740   125342832.672       -1016.511          39.000  
R16  19050434.320   101763943.111        1010.871          45.000  
R15  20696151.781   110593902.037       -3071.237          46.000  
J 1  37994705.192   199663512.803         -62.915          41.000  
J 2  36219360.698   190334005.828        -540.512          46.000  
R 5  20701563.449   110661670.352       -2221.604          47.000  
R 9  22397183.160   119599684.028        3805.129          46.000  
R21  21609482.609                       -3538.102          26.000  
R 7  22353433.571                        2059.655          25.000  
R 6  19448510.059   103780741.088         578.672          33.000  
G20  22208989.175                        2573.259          21.000  
> 2019 10  9  7 20 47.9980000  0 15                     
G 5  21841835.530   114779611.103       -3221.121          46.000  
G13  21109619.246   110931791.490       -2714.313          46.000  
G15  19708268.778   103567652.769        -931.960          50.000  
G24  20069479.839   105465831.631        1634.232          47.000  
G28  23852146.211   125343849.738       -1017.350          39.000  
R16  19050245.003   101762932.710        1009.972          45.000  
R15  20696727.516   110596973.765       -3072.168          46.000  
J 1  37994716.954   199663575.752         -63.033          41.000  
J 2  36219463.428   190334546.310        -540.586          46.000  
R 5  20701979.305   110663892.238       -2222.020          47.000  
R 9  22396470.510   119595879.094        3804.914          46.000  
R21  21610146.869                       -3539.207          26.000  
R 7  22353053.820                        2059.061          25.000  
R 6  19448401.432   103780162.581         578.404          33.000  
G20  22208504.600                        2569.575          22.000  
> 2019 10  9  7 20 48.9980000  0 15                     
G 5  21842448.259   114782832.300       -3221.480          46.000  
G13  21110135.789   110934505.813       -2714.549          46.000  
G15  19708446.177   103568584.813        -932.136          50.000  
G24  20069168.911   105464197.558        1633.732          47.000  
G28  23852339.611   125344867.242       -1017.524          39.000  
R16  19050056.052   101761923.148        1008.948          45.000  
R15  20697303.216   110600046.149       -3072.705          46.000  
J 1  37994728.855   199663638.605         -63.046          41.000  
J 2  36219566.157   190335086.851        -540.711          46.000  
R 5  20702395.196   110666114.318       -2222.239          47.000  
R 9  22395757.896   119592074.207        3804.662          46.000  
R21  21610806.924                       -3538.883          26.000  
R 7  22352673.667                        2059.726          25.000  
R 6  19448292.979   103779584.194         579.048          32.000  
G20  22208022.137                        2562.882          21.000  
> 2019 10  9  7 20 49.9980000  0 15                     
G 5  21843061.216   114786053.720       -3221.501          46.000  
G13  21110652.368   110937220.196       -2714.276          46.000  
G15  19708623.663   103569517.075        -932.447          50.000  
G24  20068858.210   105462563.935        1633.349          47.000  
G28  23852532.820   125345885.207       -1018.173          39.000  
R16  19049866.927   101760914.377        1008.289          45.000  
R15  20697879.282   110603119.173       -3073.464          46.000  
J 1  37994740.599   199663701.328         -62.664          41.000  
J 2  36219669.131   190335627.418        -540.714          46.000  
R 5  20702810.878   110668336.557       -2222.223          47.000  
R 9  22395045.211   119588269.322        3805.006          46.000  
R21  21611470.451   115647305.4873      -3539.464          27.000  
R 7  22352292.048                        2057.790          25.000  
R 6  19448184.613   103779005.993         578.396          32.000  
R22  22070628.899                        -258.024          19.000  
> 2019 10  9  7 20 50.9980000  0 15                     
G 5  21843674.259   114789275.477       -3221.951          46.000  
G13  21111168.720   110939934.731       -2714.625          46.000  
G15  19708801.010   103570449.632        -932.722          50.000  
G24  20068547.300   105460930.876        1632.701          47.000  
G28  23852726.343   125346903.701       -1018.701          38.000  
R16  19049678.011   101759906.504        1007.291          45.000  
R15  20698455.000   110606192.935       -3074.105          46.000  
J 1  37994752.308   199663764.012         -62.615          41.000  
J 2  36219771.738   190336168.088        -540.774          46.000  
R 5  20703226.298   110670559.079       -2222.730          47.000  
R 9  22394332.614   119584464.559        3804.567          46.000  
R21  21612134.763   115650844.8441      -3540.087          27.000  
R 7  22351908.894                        2058.263          24.000  
R 6  19448075.933   103778428.044         577.980          32.000  
R22  22070688.021                        -260.983          22.000  
> 2019 10  9  7 20 51.9980000  0 15                     
G 5  21844287.285   114792497.526       -3222.456          46.000  
G13  21111685.177   110942649.378       -2715.009          46.000  
G15  19708978.635   103571382.469        -933.273          50.000  
G24  20068236.860   105459298.308        1631.968          47.000  
G28  23852920.058   125347922.716       -1019.854          38.000  
R16  19049489.531   101758899.475        1006.293          45.000  
R15  20699031.171   110609267.433       -3075.166          46.000  
J 1  37994764.244   199663826.617         -62.572          41.000  
J 2  36219874.729   190336708.850        -541.148          46.000  
R 5  20703642.503   110672781.824       -2223.183          47.000  
R 9  22393620.000   119580659.861        3804.450          46.000  
R21  21612800.192   115654385.168       -3540.952          27.000  
R 7  22351527.170                        2059.964          24.000  
R 6  19447967.392   103777850.287         577.306          32.000  
R22  22070747.456                        -254.564          24.000  
> 2019 10  9  7 20 52.9980000  0 15                     
G 5  21844900.294   114795720.109       -3222.955          45.000  
G13  21112201.948   110945364.389       -2715.142          46.000  
G15  19709156.157   103572315.817        -933.605          50.000  
G24  20067926.264   105457666.475        1631.445          47.000  
G28  23853113.860   125348942.434       -1020.260          38.000  
R16  19049301.278   101757893.515        1005.574          45.000  
R15  20699607.238   110612342.878       -3075.891          46.000  
J 1  37994776.180   199663889.423         -62.891          41.000  
J 2  36219977.913   190337249.946        -541.408          46.000  
R 5  20704058.464   110675005.037       -2223.444          47.000  
R 9  22392907.420   119576855.503        3804.088          46.000  
R21  21613464.958   115657926.165       -3541.585          28.000  
R 7  22351144.539                        2065.246          22.000  
R 6  19447858.608   103777272.899         577.760          31.000  
R22  22070805.967                        -258.418          24.000  
> 2019 10  9  7 20 53.9980000  0 15                     
G 5  21845513.390   114798943.038       -3222.843          45.000  
G13  21112718.544   110948079.566       -2715.016          46.000  
G15  19709334.044   103573249.493        -933.601          50.000  
G24  20067615.912   105456035.206        1631.206          47.000  
G28  23853307.802   125349962.696       -1020.148          38.000  
R16  19049113.112   101756888.457        1005.015          45.000  
R15  20700183.479   110615419.087       -3076.307          46.000  
J 1  37994788.325   199663952.193         -62.445          41.000  
J 2  36220081.096   190337791.156        -541.038          46.000  
R 5  20704474.267   110677228.550       -2223.349          47.000  
R 9  22392194.596   119573051.267        3804.401          46.000  
R21  21614129.829   115661467.683       -3541.438          28.000  
R 7  22350758.523                        2058.183          21.000  
R 6  19447749.928   103776695.799         577.554          31.000  
R22  22070864.023                        -262.686          24.000  
> 2019 10  9  7 20 54.9980000  0 15                     
G 5  21846126.451   114802165.740       -3222.618          45.000  
G13  21113235.018   110950794.339       -2714.571          46.000  
G15  19709511.809   103574182.920        -933.228          50.000  
G24  20067305.403   105454403.940        1631.206          47.000  
G28  23853501.901   125350982.980       -1020.277          38.000  
R16  19048924.999   101755883.718        1004.650          45.000  
R15  20700759.493   110618495.472       -3076.581          46.000  
J 1  37994800.121   199664014.392         -62.156          41.000  
J 2  36220184.000   190338331.945        -540.591          46.000  
R 5  20704890.246   110679451.785       -2223.007          47.000  
R 9  22391481.894   119569246.557        3804.937          46.000  
R21  21614798.521   115665009.124       -3541.775          28.000  
R 7  22350375.909                        2062.065          21.000  
R 6  19447641.161   103776118.401         577.261          31.000  
R22  22070919.445                        -258.833          24.000  
> 2019 10  9  7 20 55.9980000  0 15                     
G 5  21846739.460   114805388.693       -3223.625          45.000  
G13  21113751.614   110953509.197       -2715.501          46.000  
G15  19709689.627   103575116.579        -934.393          50.000  
G24  20066995.068   105452773.154        1629.978          47.000  
G28  23853696.104   125352003.713       -1021.322          38.000  
R16  19048736.798   101754879.800        1002.936          45.000  
R15  20701335.507   110621572.509       -3077.958          46.000  
J 1  37994812.057   199664076.462         -62.507          41.000  
J 2  36220286.781   190338872.777        -541.386          46.000  
R 5  20705306.573   110681675.198       -2223.962          47.000  
R 9  22390769.227   119565441.907        3804.160          46.000  
R21  21615465.643   115668550.923       -3542.976          29.000  
R 7  22349993.505                        2054.903          20.000  
R 6  19447532.760   103775541.070         576.564          31.000  
R22  22070974.571                        -266.054          23.000  
> 2019 10  9  7 20 56.9980000  0 15                     
G 5  21847352.713   114808612.625       -3224.200          44.000  
G13  21114268.350   110956224.846       -2715.749          46.000  
G15  19709867.515   103576051.191        -934.769          50.000  
G24  20066684.925   105451143.574        1629.304          47.000  
G28  23853890.517   125353025.640       -1022.104          38.000  
R16  19048549.156   101753877.438        1001.881          45.000  
R15  20701911.731   110624650.955       -3078.983          46.000  
J 1  37994824.011   199664139.164         -62.823          41.000  
J 2  36220389.842   190339414.376        -541.777          46.000  
R 5  20705722.778   110683899.530       -2224.510          47.000  
R 9  22390056.857   119561638.032        3803.636          46.000  
R21  21616131.910   115672093.855       -3543.706          29.000  
R 7  22349610.839                        2054.645          20.000  
R 6  19447424.185   103774964.649         576.248          31.000  
R22  22071026.817                        -259.581          22.000  
> 2019 10  9  7 20 57.9980000  0 15                     
G 5  21847965.931   114811837.142       -3224.896          44.000  
G13  21114785.191   110958940.910       -2716.414          46.000  
G15  19710045.402   103576986.370        -935.521          50.000  
G24  20066374.905   105449514.832        1628.244          47.000  
G28  23854085.052   125354048.364       -1023.285          38.000  
R16  19048361.374   101752876.222        1000.491          45.000  
R15  20702488.059   110627730.401       -3080.087          46.000  
J 1  37994835.842   199664202.072         -63.076          41.000  
J 2  36220492.799   190339956.345        -542.173          46.000  
R 5  20706139.193   110686124.408       -2225.268          48.000  
R 9  22389344.417   119557834.519        3803.429          46.000  
R21  21616795.402   115675637.577       -3544.318          29.000  
R 7  22349227.964                        2062.056          21.000  
R 6  19447315.749   103774388.761         575.277          31.000  
R22  22071079.429                        -267.139          20.000  
> 2019 10  9  7 20 58.9980000  0 15                     
G 5  21848579.323   114815061.906       -3224.860          44.000  
G13  21115301.926   110961657.054       -2716.096          46.000  
G15  19710223.359   103577921.778        -935.432          50.000  
G24  20066064.902   105447886.558        1628.161          47.000  
G28  23854279.849   125355071.547       -1023.520          38.000  
R16  19048174.151   101751875.806        1000.131          44.000  
R15  20703063.742   110630810.514       -3080.337          46.000  
J 1  37994847.918   199664264.887         -62.678          41.000  
J 2  36220595.755   190340498.367        -542.018          46.000  
R 5  20706555.852   110688349.481       -2225.065          48.000  
R 9  22388631.820   119554031.052        3803.419          46.000  
R21  21617460.953   115679181.682       -3543.474          30.000  
R 7  22348846.223                        2056.585          21.000  
R 6  19447207.784   103773812.992         575.764          32.000  
R22  22071131.361                        -282.460          18.000  
> 2019 10  9  7 20 59.9980000  0 15                     
G 5  21849192.681   114818286.705       -3224.958          44.000  
G13  21115818.732   110964373.061       -2716.131          46.000  
G15  19710401.352   103578857.208        -935.642          50.000  
G24  20065755.282   105446258.546        1627.751          47.000  
G28  23854475.169   125356094.980       -1023.677          38.000  
R16  19047986.980   101750875.993         999.267          44.000  
R15  20703639.809   110633891.079       -3081.062          46.000  
J 1  37994859.644   199664327.391         -62.803          41.000  
J 2  36220699.025   190341040.214        -541.952          46.000  
R 5  20706972.144   110690574.553       -2225.307          48.000  
R 9  22387919.258   119550227.395        3803.535          46.000  
R21  21618125.126   115682726.088       -3545.003          29.000  
R 7  22348462.964                        2058.444          21.000  
R 6  19447099.715   103773237.140         575.832          32.000  
R22  22071180.780                        -275.268          16.000  
> 2019 10  9  7 21  0.9980000  0 15                     
G 5  21849806.091   114821511.928       -3225.671          43.000  
G13  21116335.416   110967089.299       -2716.573          46.000  
G15  19710579.606   103579793.033        -936.284          50.000  
G24  20065445.576   105444631.150        1626.890          47.000  
G28  23854670.472   125357119.048       -1024.773          38.000  
R16  19047799.948   101749877.176         998.021          44.000  
R15  20704215.858   110636972.461       -3081.993          45.000  
J 1  37994871.615   199664389.926         -62.974          41.000  
J 2  36220802.104   190341582.262        -542.224          46.000  
R 5  20707388.489   110692799.961       -2225.708          48.000  
R 9  22387207.202   119546423.933        3803.089          46.000  
R21  21618785.477   115686270.954       -3545.297          29.000  
R 7  22348081.049                        2052.924          21.000  
R 6  19446991.803   103772661.629         574.978          32.000  
R22  22071233.462                        -261.755          16.000  
> 2019 10  9  7 21  1.9980000  0 15                     
G 5  21850419.571   114824737.652       -3226.287          43.000  
G13  21116852.343   110969805.878       -2717.119          46.000  
G15  19710757.929   103580729.329        -936.768          50.000  
G24  20065135.957   105443004.465        1626.089          47.000  
G28  23854865.373   125358143.836       -1025.916          38.000  
R16  19047612.812   101748879.428         997.019          44.000  
R15  20704792.099   110640054.759       -3083.075          45.000  
J 1  37994883.533   199664452.612         -62.947          41.000  
J 2  36220905.322   190342124.623        -542.887          46.000  
R 5  20707805.200   110695025.825       -2226.393          48.000  
R 9  22386495.233   119542620.776        3802.662          46.000  
R21  21619454.414   115689816.452       -3545.733          29.000  
R 7  22347699.796                        2054.349          22.000  
R 6  19446884.257   103772086.483         573.957          33.000  
R22  22071284.923                        -261.593          17.000  
> 2019 10  9  7 21  2.9980000  0 15                     
G 5  21851033.313   114827963.725       -3226.140          43.000  
G13  21117369.323   110972522.639       -2716.953          46.000  
G15  19710936.463   103581665.976        -936.799          50.000  
G24  20064826.564   105441378.371        1625.836          47.000  
G28  23855060.764   125359169.159       -1025.713          38.000  
R16  19047426.165   101747882.589         996.351          44.000  
R15  20705368.200   110643137.829       -3083.436          45.000  
J 1  37994895.487   199664515.305         -62.776          41.000  
J 2  36221008.488   190342667.112        -542.490          46.000  
R 5  20708221.894   110697252.003       -2226.327          48.000  
R 9  22385783.002   119538817.749        3802.819          46.000  
R21  21620112.305   115693362.567       -3546.417          28.000  
R 7  22347316.904                        2058.259          22.000  
R 6  19446776.590   103771511.605         574.351          33.000  
R22  22071338.181                        -269.254          16.000  
> 2019 10  9  7 21  3.9980000  0 15                     
G 5  21851646.845   114831190.098       -3226.592          43.000  
G13  21117886.461   110975239.503       -2717.098          46.000  
G15  19711114.560   103582602.896        -937.286          50.000  
G24  20064517.207   105439752.795        1625.150          47.000  
G28  23855256.119   125360195.020       -1026.111          38.000  
R16  19047239.308   101746886.581         995.317          44.000  
R15  20705944.599   110646221.635       -3084.406          45.000  
J 1  37994907.580   199664577.920         -62.980          41.000  
J 2  36221111.880   190343209.697        -542.841          46.000  
R 5  20708638.814   110699478.403       -2226.681          48.000  
R 9  22385071.103   119535014.788        3802.601          46.000  
R21  21620776.582   115696909.125       -3547.039          28.000  
R 7  22346932.196                        2063.300          22.000  
R 6  19446668.381   103770936.921         573.924          33.000  
R22  22071391.352                        -262.454          17.000  
> 2019 10  9  7 21  4.9980000  0 15                     
G 5  21852260.377   114834416.359       -3225.908          43.000  
G13  21118403.476   110977956.084       -2716.141          46.000  
G15  19711292.569   103583539.668        -936.431          50.000  
G24  20064207.884   105438127.344        1625.598          47.000  
G28  23855451.404   125361220.978       -1025.884          38.000  
R16  19047052.957   101745890.985         995.729          44.000  
R15  20706521.189   110649305.738       -3083.920          45.000  
J 1  37994919.027   199664640.056         -61.638          41.000  
J 2  36221215.028   190343751.947        -541.786          47.000  
R 5  20709055.403   110701704.619       -2226.009          48.000  
R 9  22384359.030   119531211.483        3803.825          46.000  
R21  21621436.811   115700455.675       -3545.627          27.000  
R 7  22346546.843                        2059.990          22.000  
R 6  19446560.626   103770361.987         574.918          33.000  
R22  22071441.940                        -276.018          17.000  
> 2019 10  9  7 21  5.9980000  0 15                     
G 5  21852873.892   114837642.581       -3226.829          42.000  
G13  21118920.386   110980672.440       -2716.802          46.000  
G15  19711470.928   103584476.374        -937.254          50.000  
G24  20063898.422   105436502.093        1624.540          47.000  
G28  23855646.724   125362247.088       -1026.949          38.000  
R16  19046866.693   101744895.903         994.347          44.000  
R15  20707097.761   110652390.199       -3085.187          45.000  
J 1  37994930.911   199664701.781         -62.142          41.000  
J 2  36221318.246   190344293.947        -542.503          47.000  
R 5  20709471.696   110703930.704       -2226.566          48.000  
R 9  22383646.799   119527407.933        3803.135          46.000  
R21  21622098.401   115704002.430       -3547.188          27.000  
R 7  22346158.471                        2064.207          21.000  
R 6  19446452.801   103769786.880         574.314          33.000  
R22  22071496.716                        -265.607          17.000  
> 2019 10  9  7 21  6.9980000  0 15                     
G 5  21853487.878   114840869.789       -3227.487          42.000  
G13  21119437.471   110983389.615       -2717.412          46.000  
G15  19711649.426   103585414.071        -938.091          50.000  
G24  20063589.204   105434878.080        1623.447          47.000  
G28  23855842.429   125363274.410       -1027.856          38.000  
R16  19046680.709   101743902.434         992.839          44.000  
R15  20707674.386   110655476.051       -3086.551          45.000  
J 1  37994942.777   199664764.160         -62.574          41.000  
J 2  36221421.621   190344836.748        -543.066          47.000  
R 5  20709888.232   110706157.758       -2227.383          48.000  
R 9  22382934.743   119523605.194        3802.381          46.000  
R21  21622760.218   115707550.287       -3548.396          26.000  
R 7  22345771.128                        2065.195          19.000  
R 6  19446345.377   103769212.744         573.749          33.000  
R22  22071557.931                        -271.853          18.000  
> 2019 10  9  7 21  7.9980000  0 14                     
G 5  21854102.056   114844097.552       -3227.956          42.000  
G13  21119954.573   110986107.174       -2717.581          46.000  
G15  19711827.820   103586352.276        -938.318          50.000  
G24  20063280.370   105433254.841        1622.935          47.000  
G28  23856037.958   125364302.490       -1028.529          38.000  
R16  19046494.707   101742910.066         992.169          44.000  
R15  20708251.413   110658562.843       -3087.295          45.000  
J 1  37994954.573   199664826.719         -62.538          41.000  
J 2  36221524.822   190345379.879        -543.089          47.000  
R 5  20710304.280   110708385.309       -2227.686          48.000  
R 9  22382222.617   119519802.759        3802.332          46.000  
R21  21623422.785   115711098.868       -3548.784          26.000  
R 7  22345387.084                        2065.094          17.000  
R 6  19446237.954   103768639.005         574.344          33.000  
> 2019 10  9  7 21  8.9980000  0 15                     
G 5  21854716.268   114847325.638       -3228.236          42.000  
G13  21120471.763   110988824.885       -2717.882          46.000  
G15  19712006.615   103587290.793        -938.707          50.000  
G24  20062971.641   105431632.165        1622.238          47.000  
G28  23856233.523   125365331.074       -1028.719          38.000  
R16  19046309.141   101741918.621         990.764          44.000  
R15  20708828.858   110661650.410       -3087.997          44.000  
J 1  37994966.631   199664889.246         -62.569          41.000  
J 2  36221628.337   190345923.131        -543.402          47.000  
R 5  20710720.730   110710613.142       -2228.112          48.000  
R 9  22381510.910   119516000.434        3802.083          46.000  
R21  21624085.806   115714647.835       -3548.899          27.000  
R 7  22345002.219                        2065.094          14.000  
R 6  19446130.932   103768065.594         573.417          32.000  
R22  22071670.485                        -275.190          20.000  
> 2019 10  9  7 21  9.9980000  0 16                     
G 5  21855330.062   114850554.153       -3228.967          42.000  
G13  21120988.725   110991542.827       -2718.008          46.000  
G15  19712185.253   103588229.726        -939.367          50.000  
G24  20062662.842   105430010.133        1621.641          46.000  
G28  23856429.314   125366360.321       -1029.259          37.000  
R16  19046123.698   101740928.128         989.937          44.000  
R15  20709406.163   110664738.853       -3089.013          44.000  
J 1  37994978.794   199664951.833         -62.771          41.000  
J 2  36221731.869   190346466.600        -543.723          47.000  
R 5  20711137.249   110712841.359       -2228.621          48.000  
R 9  22380798.854   119512198.312        3801.831          46.000  
R21  21624747.885   115718197.495       -3550.084          27.000  
R 7  22344619.292                        2057.433          15.000  
R 6  19446023.735   103767492.429         572.964          33.000  
R22  22071725.698                        -268.487          21.000  
G20  22197812.660                        2557.000          26.000  
> 2019 10  9  7 21 10.9980000  0 16                     
G 5  21855944.432   114853783.040       -3229.026          42.000  
G13  21121505.950   110994261.001       -2718.354          46.000  
G15  19712364.135   103589169.013        -939.653          50.000  
G24  20062354.235   105428388.722        1621.062          46.000  
G28  23856625.490   125367390.193       -1030.685          37.000  
R16  19045938.586   101739938.553         989.084          44.000  
R15  20709983.643   110667828.077       -3089.795          44.000  
J 1  37994990.538   199665014.460         -62.881          41.000  
J 2  36221835.087   190347010.248        -543.855          47.000  
R 5  20711553.716   110715069.909       -2228.858          48.000  
R 9  22380086.832   119508396.347        3801.745          46.000  
R21  21625412.669   115721747.704       -3550.753          27.000  
R 7  22344238.162                        2061.605          17.000  
R 6  19445916.538   103766919.546         572.357          33.000  
R22  22071785.500                        -271.405          22.000  
G20  22197329.952                        2557.000          26.000  
> 2019 10  9  7 21 11.9980000  0 16                     
G 5  21856558.959   114857012.290       -3229.427          42.000  
G13  21122023.157   110996979.340       -2718.501          46.000  
G15  19712542.947   103590108.642        -939.914          50.000  
G24  20062046.047   105426767.903        1620.476          46.000  
G28  23856821.752   125368420.593       -1030.839          37.000  
R16  19045753.753   101738949.868         988.365          44.000  
R15  20710561.787   110670918.025       -3090.425          44.000  
J 1  37995002.300   199665077.061         -62.616          41.000  
J 2  36221938.479   190347554.036        -543.836          47.000  
R 5  20711970.602   110717298.746       -2229.055          48.000  
R 9  22379375.212   119504594.553        3801.698          46.000  
R21  21626073.805   115725298.355       -3551.082          27.000  
R 7  22343856.874                        2051.947          20.000  
R 6  19445809.621   103766346.915         571.766          34.000  
R22  22071844.115                        -269.764          23.000  
G20  22196838.484                        2563.080          26.000  
> 2019 10  9  7 21 12.9980000  0 16                     
G 5  21857173.940   114860241.742       -3229.539          42.000  
G13  21122540.312   110999697.705       -2718.354          46.000  
G15  19712721.760   103591048.446        -939.955          50.000  
G24  20061737.858   105425147.504        1620.197          47.000  
G28  23857018.189   125369451.404       -1031.299          38.000  
R16  19045569.060   101737961.969         987.369          44.000  
R15  20711139.738   110674008.580       -3090.875          44.000  
J 1  37995014.148   199665139.517         -62.494          41.000  
J 2  36222042.029   190348097.830        -543.910          47.000  
R 5  20712387.487   110719527.715       -2229.113          48.000  
R 9  22378663.261   119500792.732        3801.779          46.000  
R21  21626738.082   115728849.358       -3550.962          27.000  
R 7  22343480.665                        2058.880          21.000  
R 6  19445702.756   103765774.343         573.158          34.000  
R22  22071901.736                        -270.633          23.000  
G20  22196350.349                        2563.396          26.000  
> 2019 10  9  7 21 13.9980000  0 16                     
G 5  21857788.833   114863471.581       -3230.125          42.000  
G13  21123057.554   111002416.284       -2718.595          46.000  
G15  19712900.520   103591988.617        -940.306          50.000  
G24  20061429.705   105423527.717        1619.705          47.000  
G28  23857214.784   125370482.819       -1031.666          38.000  
R16  19045384.158   101736975.002         986.623          44.000  
R15  20711718.195   110677099.953       -3091.590          45.000  
J 1  37995026.102   199665201.991         -62.450          41.000  
J 2  36222145.701   190348641.787        -543.898          47.000  
R 5  20712804.565   110721757.010       -2229.496          48.000  
R 9  22377951.118   119496991.082        3801.773          46.000  
R21  21627401.016   115732400.993       -3552.704          27.000  
R 7  22343104.473                        2053.692          21.000  
R 6  19445595.419   103765202.143         571.792          33.000  
R22  22071957.664                        -273.950          24.000  
G20  22195865.809                        2563.584          26.000  
> 2019 10  9  7 21 14.9980000  0 16                     
G 5  21858403.674   114866701.532       -3229.758          42.000  
G13  21123574.970   111005134.811       -2718.348          46.000  
G15  19713079.454   103592928.883        -939.939          50.000  
G24  20061121.517   105421908.283        1619.617          47.000  
G28  23857411.203   125371514.573       -1031.948          38.000  
R16  19045199.953   101735988.729         986.337          44.000  
R15  20712296.879   110680191.865       -3091.795          45.000  
J 1  37995037.654   199665264.221         -61.772          41.000  
J 2  36222249.181   190349185.650        -543.470          47.000  
R 5  20713221.573   110723986.353       -2228.994          48.000  
R 9  22377239.096   119493189.321        3802.257          46.000  
R21  21628063.915   115735952.803       -3551.629          27.000  
R 7  22342727.636                        2063.579          22.000  
R 6  19445488.100   103764629.940         572.738          33.000  
R22  22072014.935                        -284.376          24.000  
G20  22195373.538                        2563.814          26.000  
> 2019 10  9  7 21 15.9980000  0 16                     
G 5  21859018.236   114869931.255       -3230.075          42.000  
G13  21124092.090   111007852.925       -2718.417          46.000  
G15  19713258.441   103593868.906        -940.356          50.000  
G24  20060813.241   105420288.863        1618.864          47.000  
G28  23857607.518   125372546.298       -1032.322          38.000  
R16  19045015.853   101735002.809         985.215          44.000  
R15  20712875.720   110683283.952       -3092.767          45.000  
J 1  37995049.590   199665325.878         -61.859          41.000  
J 2  36222352.381   190349729.094        -543.754          47.000  
R 5  20713638.686   110726215.431       -2229.467          48.000  
R 9  22376527.180   119489387.135        3801.915          46.000  
R21  21628725.296   115739504.567       -3552.113          26.000  
R 7  22342350.362                        2066.552          23.000  
R 6  19445380.851   103764057.413         572.020          33.000  
R22  22072071.823                        -279.050          25.000  
G20  22194885.630                        2563.216          26.000  
> 2019 10  9  7 21 16.9980000  0 16                     
G 5  21859633.234   114873162.053       -3231.169          42.000  
G13  21124609.419   111010571.934       -2719.274          46.000  
G15  19713437.620   103594809.973        -941.417          50.000  
G24  20060505.384   105418670.721        1617.713          46.000  
G28  23857804.391   125373579.319       -1033.607          38.000  
R16  19044832.015   101734018.521         983.610          44.000  
R15  20713454.893   110686377.510       -3094.039          45.000  
J 1  37995061.595   199665388.222         -62.388          41.000  
J 2  36222456.001   190350273.395        -544.629          47.000  
R 5  20714055.589   110728445.530       -2230.460          48.000  
R 9  22375815.438   119485585.823        3800.939          46.000  
R21  21629392.348   115743057.569       -3552.997          26.000  
R 7  22341973.054                        2060.236          24.000  
R 6  19445273.794   103763485.885         571.375          33.000  
R22  22072127.995                        -279.785          26.000  
G20  22194395.017                        2562.432          26.000  
> 2019 10  9  7 21 17.9980000  0 16                     
G 5  21860248.528   114876393.564       -3231.954          42.000  
G13  21125126.922   111013291.482       -2719.690          46.000  
G15  19713616.799   103595751.725        -941.925          50.000  
G24  20060197.754   105417053.517        1616.893          47.000  
G28  23858001.352   125374613.248       -1034.312          38.000  
R16  19044648.020   101733035.489         982.488          44.000  
R15  20714034.607   110689472.194       -3095.097          45.000  
J 1  37995073.619   199665450.931         -62.732          41.000  
J 2  36222559.812   190350818.190        -544.985          47.000  
R 5  20714472.509   110730676.278       -2230.989          48.000  
R 9  22375103.835   119481784.991        3800.596          46.000  
R21  21630056.538   115746611.493       -3554.899          26.000  
R 7  22341594.733                        2058.301          26.000  
R 6  19445167.139   103762914.999         570.312          33.000  
R22  22072183.626                        -280.540          26.000  
G20  22193907.301                        2562.375          26.000  
> 2019 10  9  7 21 18.9980000  0 16                     
G 5  21860863.648   114879625.321       -3231.895          42.000  
G13  21125644.566   111016011.132       -2719.688          46.000  
G15  19713795.925   103596693.742        -942.092          50.000  
G24  20059889.915   105415436.817        1616.478          47.000  
G28  23858198.435   125375647.682       -1034.850          38.000  
R16  19044464.392   101732053.300         981.722          45.000  
R15  20714614.635   110692567.595       -3095.661          45.000  
J 1  37995085.607   199665513.559         -62.494          41.000  
J 2  36222663.414   190351363.053        -544.788          47.000  
R 5  20714889.761   110732907.247       -2231.066          48.000  
R 9  22374392.128   119477984.223        3800.857          46.000  
R21  21630719.594   115750165.757       -3554.524          25.000  
R 7  22341213.393                        2058.812          26.000  
R 6  19445060.483   103762344.242         571.378          33.000  
R22  22072239.345                        -282.246          26.000  
G20  22193419.096                        2561.960          27.000  
> 2019 10  9  7 21 19.9980000  0 16                     
G 5  21861478.734   114882857.354       -3232.267          42.000  
G13  21126162.104   111018730.846       -2719.768          46.000  
G15  19713975.278   103597635.990        -942.507          50.000  
G24  20059582.285   105413820.594        1615.929          46.000  
G28  23858395.151   125376682.571       -1035.681          38.000  
R16  19044280.588   101731071.890         980.967          44.000  
R15  20715194.697   110695663.665       -3096.531          45.000  
J 1  37995097.386   199665576.075         -62.493          41.000  
J 2  36222767.033   190351907.969        -545.015          47.000  
R 5  20715306.822   110735138.402       -2231.344          48.000  
R 9  22373680.665   119474183.494        3800.710          46.000  
R21  21631381.097   115753720.468       -3554.835          25.000  
R 7  22340831.984                        2058.147          26.000  
R 6  19444953.792   103761773.680         570.452          34.000  
R22  22072292.446                        -282.811          26.000  
G20  22192930.473   116624641.6122       2561.493          27.000  
> 2019 10  9  7 21 20.9980000  0 16                     
G 5  21862094.063   114886089.672       -3232.369          42.000  
G13  21126679.695   111021450.708       -2719.978          46.000  
G15  19714154.841   103598578.544        -942.726          50.000  
G24  20059274.743   105412204.915        1615.430          46.000  
G28  23858592.164   125377717.954       -1035.751          38.000  
R16  19044097.030   101730091.389         979.985          44.000  
R15  20715774.987   110698760.421       -3097.101          46.000  
J 1  37995109.304   199665638.535         -62.284          41.000  
J 2  36222870.496   190352452.977        -545.096          47.000  
R 5  20715723.638   110737369.821       -2231.657          48.000  
R 9  22372969.185   119470382.909        3800.448          46.000  
R21  21632044.711   115757413.1723      -3555.479          26.000  
R 7  22340453.384                        2058.524          25.000  
R 6  19444846.805   103761203.308         570.141          34.000  
R22  22072349.857                        -282.689          25.000  
G20  22192442.076   116622079.4542       2561.645          27.000  
> 2019 10  9  7 21 21.9980000  0 16                     
G 5  21862709.253   114889322.249       -3232.770          42.000  
G13  21127197.373   111024170.622       -2720.170          46.000  
G15  19714334.160   103599521.314        -943.163          50.000  
G24  20058967.183   105410589.703        1614.732          46.000  
G28  23858789.648   125378753.827       -1036.608          38.000  
R16  19043913.924   101729111.698         978.993          44.000  
R15  20716355.416   110701857.834       -3097.915          46.000  
J 1  37995121.205   199665700.875         -62.447          41.000  
J 2  36222974.377   190352998.018        -545.149          47.000  
R 5  20716140.139   110739601.460       -2231.995          48.000  
R 9  22372257.461   119466582.311        3800.477          46.000  
R21  21632708.343   115760968.7562      -3556.609          26.000  
R 7  22340072.446                        2058.176          24.000  
R 6  19444740.376   103760633.079         569.070          34.000  
R22  22072404.180                        -283.533          24.000  
G20  22191955.582   116619517.3722       2562.306          26.000  
> 2019 10  9  7 21 22.9980000  0 16                     
G 5  21863324.339   114892555.258       -3233.218          42.000  
G13  21127714.825   111026890.790       -2720.213          46.000  
G15  19714513.653   103600464.484        -943.200          50.000  
G24  20058659.762   105408975.172        1614.300          46.000  
G28  23858986.399   125379790.317       -1036.847          38.000  
R16  19043730.732   101728133.001         978.420          44.000  
R15  20716935.601   110704956.097       -3098.572          46.000  
J 1  37995132.967   199665763.294         -62.254          41.000  
J 2  36223078.188   190353543.289        -545.198          47.000  
R 5  20716557.077   110741833.483       -2232.065          48.000  
R 9  22371546.068   119462781.945        3800.301          46.000  
R21  21633371.975   115764524.8692      -3556.607          26.000  
R 7  22339691.298                        2058.057          23.000  
R 6  19444633.860   103760063.144         569.878          34.000  
R22  22072461.556                        -284.341          22.000  
G20  22191468.023   116616955.6122       2561.717          26.000  
> 2019 10  9  7 21 23.9980000  0 16                     
G 5  21863939.895   114895788.497       -3233.474          42.000  
G13  21128232.468   111029611.020       -2720.418          46.000  
G15  19714693.076   103601407.878        -943.669          50.000  
G24  20058352.586   105407361.092        1613.675          46.000  
G28  23859183.744   125380827.244       -1037.306          38.000  
R16  19043547.679   101727155.101         977.293          44.000  
R15  20717515.908   110708055.029       -3099.461          46.000  
J 1  37995144.868   199665825.583         -62.355          41.000  
J 2  36223181.807   190354088.585        -545.521          46.000  
R 5  20716974.015   110744065.670       -2232.416          48.000  
R 9  22370834.378   119458981.590        3800.195          46.000  
R21  21634033.984   115768081.3802      -3556.679          26.000  
R 7  22339310.238                        2059.459          22.000  
R 6  19444527.344   103759493.354         569.557          34.000  
R22  22072516.751                        -283.007          22.000  
G20  22190978.282   116614393.8512       2561.880          27.000  
> 2019 10  9  7 21 24.9980000  0 16                     
G 5  21864555.329   114899021.881       -3233.317          42.000  
G13  21128750.164   111032331.215       -2719.937          46.000  
G15  19714872.621   103602351.383        -943.049          50.000  
G24  20058045.479   105405747.353        1613.997          47.000  
G28  23859381.054   125381864.546       -1037.229          38.000  
R16  19043364.574   101726177.890         977.227          44.000  
R15  20718096.162   110711154.500       -3099.312          46.000  
J 1  37995156.612   199665887.646         -61.497          41.000  
J 2  36223285.287   190354633.809        -544.848          47.000  
R 5  20717391.320   110746297.922       -2231.951          48.000  
R 9  22370122.845   119455181.140        3800.769          46.000  
R21  21634695.347   115771637.7241      -3556.347          26.000  
R 7  22338926.804                        2059.969          23.000  
R 6  19444420.897   103758923.534         570.665          34.000  
R22  22072570.951                        -284.204          22.000  
G20  22190486.989   116611832.125        2562.152          26.000  
> 2019 10  9  7 21 25.9980000  0 16                     
G 5  21865170.641   114902254.949       -3233.643          42.000  
G13  21129267.842   111035050.937       -2720.223          46.000  
G15  19715052.114   103603294.588        -943.725          50.000  
G24  20057738.408   105404133.565        1613.175          47.000  
G28  23859578.433   125382901.738       -1037.483          38.000  
R16  19043181.574   101725200.906         976.237          44.000  
R15  20718676.452   110714254.043       -3100.012          46.000  
J 1  37995168.094   199665949.074         -61.776          41.000  
J 2  36223389.081   190355178.529        -544.978          47.000  
R 5  20717808.520   110748529.792       -2232.221          48.000  
R 9  22369411.086   119451380.186        3800.610          47.000  
R21  21635355.925   115775194.438       -3557.494          27.000  
R 7  22338544.487                        2058.806          23.000  
R 6  19444314.503   103758353.353         569.986          34.000  
R22  22072624.873                        -289.892          22.000  
G20  22189999.866   116609269.915        2561.750          27.000  
> 2019 10  9  7 21 26.9980000  0 16                     
G 5  21865786.320   114905488.984       -3234.396          42.000  
G13  21129785.799   111037771.431       -2720.652          46.000  
G15  19715231.624   103604238.708        -944.403          50.000  
G24  20057431.581   105402520.967        1612.212          47.000  
G28  23859775.777   125383940.130       -1038.892          38.000  
R16  19042998.835   101724225.461         974.606          44.000  
R15  20719256.933   110717354.971       -3101.526          46.000  
J 1  37995179.995   199666011.082         -62.393          41.000  
J 2  36223493.189   190355723.997        -545.589          46.000  
R 5  20718226.522   110750762.590       -2233.052          48.000  
R 9  22368699.815   119447579.988        3799.994          47.000  
R21  21636020.429   115778752.232       -3558.126          28.000  
R 7  22338160.774                        2060.293          23.000  
R 6  19444207.865   103757784.001         570.023          34.000  
R22  22072674.745                        -280.871          22.000  
G20  22189511.696   116606708.452        2560.991          26.000  
> 2019 10  9  7 21 27.9980000  0 16                     
G 5  21866401.946   114908723.753       -3235.257          42.000  
G13  21130303.512   111040492.495       -2721.438          46.000  
G15  19715411.222   103605183.549        -945.336          50.000  
G24  20057124.963   105400909.345        1610.995          47.000  
G28  23859973.663   125384979.454       -1040.393          38.000  
R16  19042816.585   101723251.301         973.434          44.000  
R15  20719837.223   110720457.037       -3102.777          46.000  
J 1  37995192.123   199666073.460         -62.796          41.000  
J 2  36223597.140   190356269.997        -546.292          47.000  
R 5  20718644.560   110752996.080       -2233.927          48.000  
R 9  22367988.300   119443780.329        3799.239          46.000  
R21  21636683.659   115782310.842       -3558.260          27.000  
R 7  22337779.766                        2054.118          22.000  
R 6  19444101.663   103757215.343         568.484          34.000  
R22  22072725.787                        -289.572          22.000  
G20  22189028.185   116604147.564        2560.641          27.000  
> 2019 10  9  7 21 28.9980000  0 16                     
G 5  21867017.625   114911958.968       -3235.327          42.000  
G13  21130821.295   111043213.840       -2721.355          46.000  
G15  19715591.012   103606128.818        -945.332          50.000  
G24  20056818.223   105399298.415        1610.839          47.000  
G28  23860171.531   125386019.431       -1040.267          38.000  
R16  19042634.248   101722278.204         972.778          44.000  
R15  20720417.600   110723560.018       -3103.259          45.000  
J 1  37995203.937   199666135.933         -62.323          41.000  
J 2  36223701.091   190356816.240        -546.185          47.000  
R 5  20719062.562   110755229.994       -2234.135          48.000  
R 9  22367276.610   119439980.922        3799.369          46.000  
R21  21637348.897   115785870.178       -3559.297          27.000  
R 7  22337395.931                        2053.565          22.000  
R 6  19443995.199   103756647.041         568.268          34.000  
R22  22072773.025                        -289.732          21.000  
G20  22188537.660   116601587.051        2560.241          27.000  
> 2019 10  9  7 21 29.9980000  0 16                     
G 5  21867633.146   114915194.517       -3235.827          42.000  
G13  21131339.113   111045935.351       -2721.751          46.000  
G15  19715770.871   103607074.398        -945.698          50.000  
G24  20056511.396   105397688.037        1610.101          47.000  
G28  23860369.713   125387059.967       -1040.968          38.000  
R16  19042452.364   101721306.005         971.760          44.000  
R15  20720998.797   110726663.749       -3103.997          45.000  
J 1  37995216.047   199666198.386         -62.520          41.000  
J 2  36223805.129   190357362.611        -546.473          47.000  
R 5  20719480.757   110757464.161       -2234.228          48.000  
R 9  22366564.903   119436181.648        3799.129          46.000  
R21  21638012.528   115789429.953       -3559.794          27.000  
R 7  22337017.663                        2057.286          22.000  
R 6  19443888.805   103756079.009         567.378          34.000  
R22  22072821.118                        -292.139          21.000  
G20  22188052.579   116599026.692        2559.265          27.000  
> 2019 10  9  7 21 30.9980000  0 16                     
G 5  21868248.807   114918430.411       -3236.320          42.000  
G13  21131857.157   111048656.997       -2721.841          46.000  
G15  19715950.643   103608020.306        -946.198          50.000  
G24  20056205.022   105396078.215        1609.448          47.000  
G28  23860567.843   125388101.044       -1041.544          38.000  
R16  19042270.411   101720334.699         970.751          44.000  
R15  20721579.540   110729768.218       -3105.084          45.000  
J 1  37995228.036   199666260.835         -62.659          41.000  
J 2  36223909.185   190357909.114        -546.780          47.000  
R 5  20719899.108   110759698.609       -2234.679          48.000  
R 9  22365853.039   119432382.489        3799.063          47.000  
R21  21638681.901   115792990.293       -3560.966          28.000  
R 7  22336637.109                        2062.366          21.000  
R 6  19443782.272   103755511.156         567.814          34.000  
R22  22072868.303                        -288.259          22.000  
G20  22187563.327   116596466.379        2559.960          27.000  
> 2019 10  9  7 21 31.9980000  0 16                     
G 5  21868864.608   114921666.558       -3236.514          43.000  
G13  21132375.097   111051378.746       -2721.846          46.000  
G15  19716130.921   103608966.437        -946.329          50.000  
G24  20055898.562   105394468.908        1608.957          46.000  
G28  23860766.095   125389142.574       -1041.965          38.000  
R16  19042088.719   101719364.220         969.871          44.000  
R15  20722160.353   110732873.322       -3105.312          45.000  
J 1  37995239.780   199666323.168         -62.719          41.000  
J 2  36224013.241   190358455.660        -546.552          47.000  
R 5  20720317.285   110761933.241       -2234.805          48.000  
R 9  22365141.646   119428583.357        3799.108          47.000  
R21  21639353.630   115796550.941       -3560.521          28.000  
R 7  22336255.943                        2063.543          19.000  
R 6  19443676.105   103754943.519         568.108          34.000  
R22  22072912.854                        -286.665          22.000  
G20  22187072.522   116593906.229        2559.926          27.000  
> 2019 10  9  7 21 32.9980000  0 16                     
G 5  21869480.304   114924903.000       -3236.682          42.000  
G13  21132893.090   111054100.605       -2721.917          46.000  
G15  19716310.885   103609912.856        -946.664          50.000  
G24  20055592.328   105392860.096        1608.477          46.000  
G28  23860964.469   125390184.658       -1042.587          38.000  
R16  19041907.411   101718394.575         969.205          44.000  
R15  20722741.183   110735979.165       -3106.513          45.000  
J 1  37995251.628   199666385.433         -62.305          41.000  
J 2  36224117.331   190359002.297        -546.741          47.000  
R 5  20720735.480   110764168.120       -2235.098          49.000  
R 9  22364430.235   119424784.307        3798.899          47.000  
R21  21640025.865   115800112.069       -3561.042          29.000  
R 7  22335877.413                        2050.907          19.000  
R 6  19443570.339   103754376.088         567.413          34.000  
R22  22072956.811                        -291.620          23.000  
G20  22186585.574   116591346.214        2559.675          27.000  
> 2019 10  9  7 21 33.9980000  0 16                     
G 5  21870096.210   114928139.848       -3237.255          42.000  
G13  21133411.134   111056822.700       -2722.242          46.000  
G15  19716490.902   103610859.655        -947.075          50.000  
G24  20055286.024   105391251.900        1607.903          46.000  
G28  23861162.791   125391227.344       -1043.215          38.000  
R16  19041725.702   101717425.888         968.192          44.000  
R15  20723322.188   110739085.791       -3107.071          45.000  
J 1  37995263.512   199666447.744         -62.441          41.000  
J 2  36224221.422   190359549.137        -547.109          47.000  
R 5  20721153.325   110766403.345       -2235.515          49.000  
R 9  22363718.807   119420985.463        3798.638          47.000  
R21  21640695.936   115803673.786       -3561.792          29.000  
R 7  22335495.289                        2066.306          18.000  
R 6  19443464.294   103753808.922         567.231          34.000  
R22  22073004.781                        -295.562          24.000  
G20  22186097.561   116588786.420        2559.680          26.000  
> 2019 10  9  7 21 34.9980000  0 16                     
G 5  21870712.133   114931376.975       -3236.897          42.000  
G13  21133929.022   111059544.911       -2721.919          46.000  
G15  19716671.023   103611806.718        -946.794          50.000  
G24  20054980.157   105389644.210        1607.898          47.000  
G28  23861361.531   125392270.502       -1042.804          38.000  
R16  19041544.447   101716458.051         967.850          44.000  
R15  20723903.560   110742193.107       -3107.156          45.000  
J 1  37995275.308   199666509.988         -61.897          41.000  
J 2  36224325.599   190360096.053        -546.550          47.000  
R 5  20721571.589   110768638.821       -2235.211          49.000  
R 9  22363007.310   119417186.689        3799.131          47.000  
R21  21641367.280   115807235.989       -3562.172          29.000  
R 7  22335112.989                        2068.586          18.000  
R 6  19443358.005   103753241.988         567.429          34.000  
R22  22073051.530                        -291.315          24.000  
G20  22185612.672   116586226.760        2560.207          26.000  
> 2019 10  9  7 21 35.9980000  0 15                     
G 5  21871327.916   114934613.672       -3236.914          42.000  
G13  21134447.066   111062266.499       -2721.810          46.000  
G15  19716851.162   103612753.313        -946.833          50.000  
G24  20054674.377   105388036.309        1607.592          47.000  
G28  23861560.045   125393313.453       -1043.278          38.000  
R16  19041362.860   101715490.320         967.385          44.000  
R15  20724484.652   110745300.385       -3107.650          45.000  
J 1  37995286.791   199666571.420         -61.462          41.000  
J 2  36224429.673   190360642.315        -546.344          47.000  
R 5  20721990.081   110770873.788       -2235.220          49.000  
R 9  22362295.864   119413387.266        3799.270          47.000  
R21  21642035.153   115810797.827       -3562.123          28.000  
R 6  19443251.803   103752674.490         567.021          33.000  
R22  22073099.327                        -298.619          25.000  
G20  22185127.032   116583666.494        2560.347          26.000  
> 2019 10  9  7 21 36.9980000  0 15                     
G 5  21871943.786   114937851.049       -3237.905          42.000  
G13  21134964.902   111064988.583       -2722.654          46.000  
G15  19717031.300   103613700.575        -947.881          50.000  
G24  20054368.614   105386429.317        1606.346          47.000  
G28  23861758.838   125394357.276       -1044.368          38.000  
R16  19041181.849   101714523.854         965.588          43.000  
R15  20725065.849   110748408.803       -3109.186          45.000  
J 1  37995298.657   199666633.180         -62.270          41.000  
J 2  36224533.781   190361189.049        -547.133          47.000  
R 5  20722408.746   110773109.371       -2236.224          49.000  
R 9  22361584.576   119409588.303        3798.507          47.000  
R21  21642704.264   115814360.480       -3563.344          28.000  
R 6  19443145.356   103752107.538         566.495          33.000  
R22  22073149.531                        -298.600          25.000  
G20  22184637.397   116581106.749        2559.005          26.000  
> 2019 10  9  7 21 37.9980000  0 16                     
G 5  21872559.814   114941089.256       -3238.482          42.000  
G13  21135483.016   111067711.330       -2723.063          46.000  
G15  19717211.735   103614648.635        -948.304          50.000  
G24  20054063.078   105384823.410        1605.596          46.000  
G28  23861957.491   125395402.165       -1045.334          38.000  
R16  19041001.134   101713558.805         964.509          44.000  
R15  20725647.657   110751518.481       -3110.083          45.000  
J 1  37995310.436   199666695.407         -62.243          41.000  
J 2  36224637.714   190361736.419        -547.707          47.000  
R 5  20722827.098   110775345.732       -2236.676          49.000  
R 9  22360873.305   119405789.935        3798.264          47.000  
R21  21643371.438   115817924.230       -3564.083          28.000  
R 7  22333958.046                        2058.670          17.000  
R 6  19443039.172   103751541.362         565.555          33.000  
R22  22073198.932                        -299.161          25.000  
G20  22184150.117   116578547.642        2559.163          26.000  
> 2019 10  9  7 21 38.9980000  0 16                     
G 5  21873176.138   114944327.861       -3238.940          42.000  
G13  21136001.113   111070434.298       -2723.196          46.000  
G15  19717392.049   103615597.085        -948.741          50.000  
G24  20053757.699   105383218.144        1605.023          46.000  
G28  23862156.563   125396447.679       -1046.057          38.000  
R16  19040820.594   101712594.693         963.637          44.000  
R15  20726229.779   110754628.958       -3110.933          45.000  
J 1  37995322.284   199666757.692         -62.564          41.000  
J 2  36224741.648   190362283.973        -547.685          47.000  
R 5  20723245.554   110777582.436       -2236.897          49.000  
R 9  22360161.842   119401991.818        3797.751          47.000  
R21  21644038.787   115821488.391       -3564.114          28.000  
R 7  22333570.547                        2066.099          17.000  
R 6  19442933.074   103750975.429         566.738          33.000  
R22  22073250.777                        -298.965          24.000  
G20  22183658.544   116575988.801        2558.761          25.000  
> 2019 10  9  7 21 39.9980000  0 16                     
G 5  21873792.497   114947566.832       -3239.170          42.000  
G13  21136519.419   111073157.452       -2723.030          46.000  
G15  19717572.641   103616545.852        -948.904          50.000  
G24  20053452.355   105381613.461        1604.367          47.000  
G28  23862355.722   125397493.713       -1046.171          38.000  
R16  19040640.473   101711631.481         962.837          44.000  
R15  20726811.604   110757740.162       -3111.655          45.000  
J 1  37995334.220   199666819.958         -62.380          41.000  
J 2  36224845.965   190362831.673        -547.699          47.000  
R 5  20723664.359   110779819.462       -2237.189          49.000  
R 9  22359450.868   119398193.846        3797.830          46.000  
R21  21644705.350   115825053.171       -3564.987          28.000  
R 7  22333180.866                        2059.797          21.000  
R 6  19442826.872   103750409.847         565.374          33.000  
R22  22073303.895                        -297.434          23.000  
G20  22183168.978                        2558.451          25.000  
> 2019 10  9  7 21 40.9980000  0 16                     
G 5  21874408.909   114950806.087       -3239.131          42.000  
G13  21137037.726   111075880.722       -2723.100          46.000  
G15  19717753.320   103617494.906        -948.959          50.000  
G24  20053147.308   105380009.300        1604.078          47.000  
G28  23862554.864   125398540.273       -1046.520          38.000  
R16  19040460.526   101710669.151         962.050          44.000  
R15  20727393.830   110760852.102       -3112.046          45.000  
J 1  37995345.999   199666882.158         -62.085          41.000  
J 2  36224950.038   190363379.474        -547.690          47.000  
R 5  20724083.339   110782056.746       -2237.257          49.000  
R 9  22358739.772   119394395.933        3797.882          46.000  
R21  21645370.762   115828618.403       -3565.678          28.000  
R 7  22332791.848                        2057.381          23.000  
R 6  19442721.386   103749844.361         565.629          34.000  
R22  22073359.980                        -302.154          23.000  
G20  22182680.983                        2556.582          23.000  
> 2019 10  9  7 21 41.9980000  0 16                     
G 5  21875025.146   114954045.772       -3239.786          42.000  
G13  21137556.172   111078604.258       -2723.747          46.000  
G15  19717934.157   103618444.379        -949.778          50.000  
G24  20052842.278   105378405.807        1603.049          47.000  
G28  23862753.954   125399587.476       -1047.593          38.000  
R16  19040280.859   101709707.828         960.930          44.000  
R15  20727976.755   110763964.906       -3113.311          45.000  
J 1  37995357.638   199666944.435         -62.225          41.000  
J 2  36225054.443   190363927.490        -548.138          47.000  
R 5  20724502.144   110784294.384       -2238.030          49.000  
R 9  22358028.501   119390598.258        3797.636          46.000  
R21  21646038.372   115832184.117       -3566.264          28.000  
R 7  22332401.923                        2059.927          24.000  
R 6  19442615.777   103749279.271         564.761          34.000  
R22  22073414.390                        -292.417          23.000  
G20  22182188.258                        2559.225          22.000  
> 2019 10  9  7 21 42.9980000  0 16                     
G 5  21875641.662   114957285.747       -3240.199          42.000  
G13  21138074.234   111081327.889       -2723.947          46.000  
G15  19718114.959   103619394.102        -949.974          50.000  
G24  20052537.685   105376802.784        1602.542          47.000  
G28  23862953.497   125400635.192       -1048.160          38.000  
R16  19040101.052   101708747.374         960.059          44.000  
R15  20728559.819   110767078.386       -3114.033          45.000  
J 1  37995369.522   199667006.648         -62.455          41.000  
J 2  36225158.760   190364475.576        -548.162          47.000  
R 5  20724921.438   110786532.246       -2238.176          49.000  
R 9  22357317.369   119386800.621        3797.502          47.000  
R21  21646701.777   115835750.372       -3566.476          27.000  
R 7  22332013.516                        2055.960          25.000  
R 6  19442510.099   103748714.303         564.995          34.000  
R22  22073469.934                        -306.575          24.000  
G20  22181700.333                        2551.266          21.000  
> 2019 10  9  7 21 43.9980000  0 16                     
G 5  21876258.213   114960526.107       -3240.351          42.000  
G13  21138592.313   111084051.733       -2723.849          46.000  
G15  19718295.760   103620344.194        -950.108          50.000  
G24  20052233.039   105375200.385        1602.345          47.000  
G28  23863153.005   125401683.500       -1048.607          38.000  
R16  19039921.541   101707787.848         959.210          44.000  
R15  20729142.883   110770192.632       -3114.481          45.000  
J 1  37995381.528   199667068.872         -61.960          41.000  
J 2  36225263.095   190365023.846        -548.108          47.000  
R 5  20725340.400   110788770.447       -2238.271          49.000  
R 9  22356606.046   119383003.174        3797.649          47.000  
R21  21647366.177                       -3564.770          26.000  
R 7  22331623.382                        2059.054          26.000  
R 6  19442404.123   103748149.664         564.880          33.000  
R22  22073526.333                        -304.196          25.000  
G20  22181210.837                        2552.030          20.000  
> 2019 10  9  7 21 44.9980000  0 16                     
G 5  21876874.747   114963766.755       -3240.827          42.000  
G13  21139110.654   111086775.691       -2724.191          46.000  
G15  19718476.719   103621294.547        -950.422          50.000  
G24  20051928.114   105373598.522        1601.610          47.000  
G28  23863352.357   125402732.295       -1049.319          38.000  
R16  19039742.223   101706829.126         958.444          44.000  
R15  20729726.052   110773307.586       -3115.387          45.000  
J 1  37995393.307   199667131.016         -61.982          41.000  
J 2  36225367.412   190365572.190        -548.331          47.000  
R 5  20725759.415   110791008.861       -2238.528          49.000  
R 9  22355895.089   119379205.823        3797.386          47.000  
R21  21648032.060                       -3567.151          26.000  
R 7  22331233.841                        2058.525          26.000  
R 6  19442298.410   103747585.205         564.327          34.000  
R22  22073579.853                        -304.535          24.000  
G20  22180723.225                        2562.042          21.000  
> 2019 10  9  7 21 45.9980000  0 16                     
G 5  21877491.315   114967007.160       -3239.927          43.000  
G13  21139629.275   111089499.235       -2723.229          46.000  
G15  19718657.521   103622244.655        -949.875          50.000  
G24  20051623.293   105371996.654        1601.781          47.000  
G28  23863551.778   125403781.091       -1048.828          37.000  
R16  19039562.957   101705870.732         958.372          43.000  
R15  20730309.221   110776422.698       -3115.030          45.000  
J 1  37995405.068   199667192.609         -61.321          41.000  
J 2  36225471.817   190366120.108        -547.708          47.000  
R 5  20726178.377   110793247.001       -2237.926          49.000  
R 9  22355183.679   119375408.013        3798.149          47.000  
R21  21648699.094                       -3565.479          26.000  
R 7  22330843.706                        2058.192          27.000  
R 6  19442192.697   103747020.389         565.013          34.000  
R22  22073633.286                        -303.738          26.000  
G20  22180234.375                        2557.056          22.000  
> 2019 10  9  7 21 46.9980000  0 16                     
G 5  21878108.233   114970248.220       -3241.876          43.000  
G13  21140147.529   111092223.250       -2724.695          46.000  
G15  19718838.637   103623195.380        -951.463          50.000  
G24  20051318.455   105370395.641        1600.187          47.000  
G28  23863751.530   125404830.724       -1050.669          38.000  
R16  19039383.743   101704913.548         956.281          43.000  
R15  20730893.140   110779538.883       -3117.197          46.000  
J 1  37995416.899   199667254.445         -62.379          41.000  
J 2  36225576.117   190366668.448        -548.970          47.000  
R 5  20726597.374   110795485.756       -2239.507          49.000  
R 9  22354472.565   119371610.642        3796.651          47.000  
R21  21649366.338                       -3569.665          25.000  
R 7  22330450.989   119536625.4103       2058.018          27.000  
R 6  19442087.315   103746456.134         563.401          34.000  
R22  22073688.777                        -306.582          26.000  
G20  22179746.956                        2556.570          22.000  
> 2019 10  9  7 21 47.9980000  0 15                     
G 5  21878725.098   114973490.070       -3242.018          43.000  
G13  21140665.888   111094947.894       -2724.633          46.000  
G15  19719019.944   103624146.890        -951.685          50.000  
G24  20051014.071   105368795.685        1599.522          47.000  
G28  23863951.440   125405881.350       -1050.773          38.000  
R16  19039204.844   101703957.772         955.486          43.000  
R15  20731476.850   110782656.291       -3117.877          46.000  
J 1  37995428.870   199667316.736         -62.200          41.000  
J 2  36225680.434   190367217.394        -549.117          47.000  
R 5  20727015.900   110797725.271       -2239.735          49.000  
R 9  22353761.329   119367813.868        3796.566          47.000  
R21  21650031.157                       -3569.021          25.000  
R 7  22330064.030   119534566.8832       2058.217          28.000  
R 6  19441981.758   103745892.571         563.810          34.000  
R22  22073743.554   117831080.9853       -307.345          26.000  
> 2019 10  9  7 21 48.9980000  0 15                     
G 5  21879341.684   114976732.406       -3242.185          42.000  
G13  21141184.630   111097672.843       -2724.827          46.000  
G15  19719201.252   103625098.855        -951.701          50.000  
G24  20050709.443   105367196.436        1599.246          47.000  
G28  23864151.646   125406932.707       -1051.267          38.000  
R16  19039025.717   101703003.069         954.658          43.000  
R15  20732060.909   110785774.566       -3118.386          46.000  
J 1  37995440.736   199667379.152         -62.063          41.000  
J 2  36225785.083   190367766.603        -549.050          47.000  
R 5  20727434.671   110799965.186       -2239.750          49.000  
R 9  22353050.634   119364017.397        3796.703          47.000  
R21  21650699.639                       -3570.569          24.000  
R 7  22329676.374   119532478.3933       2059.420          28.000  
R 6  19441876.219   103745329.475         562.723          34.000  
R22  22073801.960   117831388.762        -308.015          27.000  
> 2019 10  9  7 21 49.9980000  0 15                     
G 5  21879958.828   114979975.097       -3242.950          43.000  
G13  21141703.233   111100397.963       -2725.218          46.000  
G15  19719382.333   103626051.160        -952.494          50.000  
G24  20050405.390   105365597.790        1598.368          47.000  
G28  23864351.940   125407984.627       -1052.072          38.000  
R16  19038847.062   101702049.281         953.164          43.000  
R15  20732644.863   110788893.609       -3119.542          46.000  
J 1  37995452.463   199667441.566         -62.385          41.000  
J 2  36225889.645   190368315.965        -549.388          47.000  
R 5  20727853.476   110802205.381       -2240.367          49.000  
R 9  22352339.538   119360221.079        3796.271          47.000  
R21  21651365.418                       -3569.072          23.000  
R 7  22329290.096   119530419.9972       2058.567          29.000  
R 6  19441770.506   103744766.544         562.627          34.000  
R22  22073858.446                        -306.325          25.000  
> 2019 10  9  7 21 50.9980000  0 15                     
G 5  21880575.973   114983218.091       -3243.131          43.000  
G13  21142221.557   111103123.226       -2725.470          46.000  
G15  19719563.466   103627003.749        -952.771          50.000  
G24  20050101.495   105363999.694        1597.771          47.000  
G28  23864552.303   125409037.075       -1052.715          37.000  
R16  19038668.860   101701096.349         952.253          43.000  
R15  20733229.096   110792013.379       -3120.276          46.000  
J 1  37995464.015   199667503.933         -62.414          41.000  
J 2  36225994.242   190368865.430        -549.554          47.000  
R 5  20728272.176   110804445.826       -2240.580          49.000  
R 9  22351628.564   119356424.831        3796.167          47.000  
R21  21652029.486                       -3572.082          24.000  
R 7  22328903.224   119528361.0761       2058.117          29.000  
R 6  19441665.054   103744203.858         562.347          34.000  
R22  22073916.328                        -308.928          24.000  
> 2019 10  9  7 21 51.9980000  0 15                     
G 5  21881193.100   114986461.674       -3244.058          43.000  
G13  21142740.073   111105848.899       -2726.142          46.000  
G15  19719744.879   103627956.908        -953.636          50.000  
G24  20049797.303   105362402.421        1596.671          47.000  
G28  23864752.283   125410090.305       -1053.898          37.000  
R16  19038490.973   101700144.545         951.066          43.000  
R15  20733813.661   110795134.170       -3121.648          46.000  
J 1  37995476.178   199667566.514         -62.911          41.000  
J 2  36226098.908   190369415.278        -550.304          47.000  
R 5  20728691.400   110806686.839       -2241.578          49.000  
R 9  22350917.764   119352628.973        3795.458          47.000  
R21  21652691.093                       -3570.910          24.000  
R 7  22328508.902   119526302.881        2058.893          30.000  
R 6  19441559.725   103743641.723         561.991          34.000  
R22  22073976.183                        -313.094          24.000  
> 2019 10  9  7 21 52.9980000  0 15                     
G 5  21881810.087   114989705.531       -3243.931          43.000  
G13  21143258.938   111108574.655       -2725.659          46.000  
G15  19719926.291   103628910.310        -953.457          50.000  
G24  20049493.529   105360805.627        1596.728          47.000  
G28  23864953.117   125411144.000       -1053.627          37.000  
R16  19038312.858   101699193.554         950.708          43.000  
R15  20734398.086   110798255.625       -3121.643          46.000  
J 1  37995488.149   199667629.003         -62.428          41.000  
J 2  36226203.592   190369965.170        -549.861          47.000  
R 5  20729110.328   110808928.072       -2241.228          49.000  
R 9  22350206.964   119348833.178        3795.792          47.000  
R21  21653356.749                       -3575.167          23.000  
R 7  22328113.672   119524244.714        2057.367          31.000  
R 6  19441454.099   103743079.727         562.726          34.000  
R22  22074039.213                        -312.075          23.000  
> 2019 10  9  7 21 53.9980000  0 15                     
G 5  21882427.476   114992949.575       -3244.254          43.000  
G13  21143777.419   111111300.451       -2725.954          46.000  
G15  19720107.808   103629863.895        -953.804          50.000  
G24  20049189.721   105359209.285        1595.933          47.000  
G28  23865153.568   125412198.127       -1054.542          37.000  
R16  19038134.901   101698243.333         949.780          43.000  
R15  20734982.005   110801377.678       -3122.461          46.000  
J 1  37995499.997   199667691.345         -62.496          41.000  
J 2  36226308.398   190370515.072        -550.036          47.000  
R 5  20729529.430   110811169.464       -2241.605          49.000  
R 9  22349496.042   119345037.359        3795.692          47.000  
R21  21654022.964                       -3572.552          23.000  
R 7  22327729.261   119522186.255        2058.426          30.000  
R 6  19441348.717   103742517.902         561.875          34.000  
R22  22074101.091                        -307.103          22.000  
> 2019 10  9  7 21 54.9980000  0 15                     
G 5  21883044.795   114996193.897       -3244.705          43.000  
G13  21144296.022   111114026.345       -2726.166          46.000  
G15  19720289.169   103630817.741        -953.946          50.000  
G24  20048885.930   105357613.440        1595.653          47.000  
G28  23865354.281   125413252.738       -1054.844          37.000  
R16  19037957.258   101697293.931         949.175          43.000  
R15  20735566.430   110804500.400       -3123.142          45.000  
J 1  37995511.794   199667753.597         -62.271          41.000  
J 2  36226412.820   190371065.036        -550.006          47.000  
R 5  20729948.427   110813411.071       -2241.844          49.000  
R 9  22348785.330   119341241.624        3795.568          47.000  
R21  21654688.602                       -3573.461          23.000  
R 7  22327346.822   119520127.705        2058.558          30.000  
R 6  19441243.143   103741956.234         561.649          34.000  
R22  22074161.678                        -309.367          21.000  
> 2019 10  9  7 21 55.9980000  0 15                     
G 5  21883662.149   114999437.756       -3243.544          43.000  
G13  21144814.433   111116751.595       -2725.054          46.000  
G15  19720470.529   103631771.104        -953.231          50.000  
G24  20048582.157   105356017.373        1596.061          47.000  
G28  23865555.237   125414307.091       -1054.136          37.000  
R16  19037779.405   101696344.666         949.076          43.000  
R15  20736150.297   110807623.064       -3122.535          45.000  
J 1  37995523.573   199667815.033         -60.918          41.000  
J 2  36226517.556   190371614.342        -549.000          47.000  
R 5  20730367.302   110815652.125       -2240.888          49.000  
R 9  22348074.216   119337445.211        3796.641          47.000  
R21  21655358.237                       -3571.357          24.000  
R 7  22326964.488   119518068.391        2059.303          30.000  
R 6  19441137.552   103741394.000         562.405          34.000  
R22  22074222.719                        -317.921          22.000  
> 2019 10  9  7 21 56.9980000  0 15                     
G 5  21884279.537   115002682.067       -3244.416          43.000  
G13  21145333.088   111119477.118       -2725.581          46.000  
G15  19720651.889   103632724.882        -953.900          50.000  
G24  20048278.366   105354421.964        1595.117          47.000  
G28  23865755.967   125415362.126       -1055.391          36.000  
R16  19037602.041   101695396.428         947.949          43.000  
R15  20736734.182   110810746.615       -3123.782          45.000  
J 1  37995535.247   199667876.564         -61.678          41.000  
J 2  36226622.275   190372163.880        -549.594          47.000  
R 5  20730786.508   110817893.560       -2241.573          49.000  
R 9  22347363.294   119333649.043        3796.063          47.000  
R21  21656026.144                       -3572.750          25.000  
R 7  22326583.323   119516009.089        2059.562          30.000  
R 6  19441032.205   103740832.089         561.625          34.000  
R22  22074283.202                        -317.300          21.000  
> 2019 10  9  7 21 57.9980000  0 15                     
G 5  21884897.240   115005927.291       -3245.704          43.000  
G13  21145851.866   111122203.389       -2726.767          46.000  
G15  19720833.109   103633679.572        -955.311          50.000  
G24  20047974.802   105352827.704        1593.644          47.000  
G28  23865956.749   125416418.286       -1057.092          36.000  
R16  19037425.009   101694449.691         945.727          43.000  
R15  20737318.362   110813871.520       -3125.835          45.000  
J 1  37995547.095   199667938.639         -62.257          41.000  
J 2  36226726.872   190372714.143        -550.831          47.000  
R 5  20731205.767   110820135.901       -2242.866          49.000  
R 9  22346652.285   119329853.576        3794.991          47.000  
R21  21656695.866                       -3575.237          26.000  
R 7  22326197.516   119513950.446        2058.822          31.000  
R 6  19440926.805   103740270.995         559.882          34.000  
R22  22074343.928                        -311.714          21.000  
> 2019 10  9  7 21 58.9980000  0 15                     
G 5  21885514.786   115009173.088       -3246.120          43.000  
G13  21146370.887   111124930.047       -2727.054          46.000  
G15  19721014.836   103634634.794        -955.638          50.000  
G24  20047671.360   105351234.254        1592.960          47.000  
G28  23866157.671   125417475.199       -1057.166          36.000  
R16  19037248.046   101693504.078         944.871          43.000  
R15  20737902.613   110816997.349       -3126.262          45.000  
J 1  37995558.839   199668000.938         -62.563          41.000  
J 2  36226831.835   190373264.743        -550.852          47.000  
R 5  20731625.637   110822378.764       -2243.148          49.000  
R 9  22345941.660   119326058.481        3794.864          47.000  
R21  21657365.047                       -3575.386          26.000  
R 7  22325811.744   119511892.038        2058.192          31.000  
R 6  19440821.563   103739710.343         560.521          34.000  
R22  22074400.485                        -322.983          21.000  
> 2019 10  9  7 21 59.9980000  0 15                     
G 5  21886132.576   115012419.192       -3246.345          43.000  
G13  21146889.927   111127656.831       -2726.859          46.000  
G15  19721196.458   103635590.307        -955.654          50.000  
G24  20047368.110   105349641.348        1592.638          47.000  
G28  23866358.855   125418532.678       -1058.044          36.000  
R16  19037071.363   101692559.335         944.278          43.000  
R15  20738487.143   110820123.907       -3126.827          45.000  
J 1  37995570.740   199668063.182         -62.301          41.000  
J 2  36226936.606   190373815.460        -550.830          47.000  
R 5  20732045.419   110824621.874       -2243.158          49.000  
R 9  22345231.174   119322263.488        3794.950          47.000  
R21  21658032.797                       -3574.735          27.000  
R 7  22325423.215   119509833.594        2058.394          30.000  
R 6  19440716.513   103739149.875         561.202          34.000  
R22  22074459.955                        -314.885          22.000  
> 2019 10  9  7 22  0.9980000  0 15                     
G 5  21886750.383   115015665.623       -3246.516          43.000  
G13  21147408.879   111130383.772       -2726.832          46.000  
G15  19721378.446   103636546.131        -955.760          50.000  
G24  20047065.366   105348049.002        1592.169          47.000  
G28  23866560.300   125419590.685       -1058.080          36.000  
R16  19036894.609   101691615.475         943.502          43.000  
R15  20739071.848   110823251.188       -3127.345          44.000  
J 1  37995582.432   199668125.400         -62.042          41.000  
J 2  36227041.551   190374366.300        -550.819          47.000  
R 5  20732465.237   110826865.266       -2243.490          49.000  
R 9  22344520.479   119318468.635        3794.903          47.000  
R21  21658699.343                       -3575.485          26.000  
R 7  22325036.413   119507640.5773       2058.433          30.000  
R 6  19440611.410   103738589.676         560.304          34.000  
R22  22074516.441                        -307.435          22.000  
> 2019 10  9  7 22  1.9980000  0 15                     
G 5  21887368.139   115018912.308       -3246.735          43.000  
G13  21147928.075   111133110.816       -2727.051          46.000  
G15  19721560.434   103637502.195        -956.163          50.000  
G24  20046762.500   105346457.147        1591.642          47.000  
G28  23866761.955   125420649.162       -1058.873          36.000  
R16  19036717.908   101690672.431         942.675          43.000  
R15  20739656.587   110826379.173       -3128.241          44.000  
J 1  37995593.949   199668187.527         -62.020          41.000  
J 2  36227146.375   190374917.187        -550.813          47.000  
R 5  20732884.932   110829108.870       -2243.678          49.000  
R 9  22343809.802   119314673.829        3794.983          47.000  
R21  21659365.871   115903632.1803      -3576.016          26.000  
R 7  22324648.024   119505581.9452       2059.252          30.000  
R 6  19440506.569   103738029.658         560.271          34.000  
R22  22074577.482                        -321.214          23.000  
> 2019 10  9  7 22  2.9980000  0 15                     
G 5  21887986.121   115022159.280       -3247.084          43.000  
G13  21148447.167   111135837.957       -2727.190          46.000  
G15  19721742.510   103638458.521        -956.447          50.000  
G24  20046459.652   105344865.802        1591.039          47.000  
G28  23866963.313   125421708.141       -1059.670          36.000  
R16  19036541.225   101689730.245         941.622          42.000  
R15  20740241.431   110829507.829       -3129.107          44.000  
J 1  37995605.711   199668249.580         -62.054          41.000  
J 2  36227251.128   190375468.158        -550.996          47.000  
R 5  20733304.627   110831352.719       -2243.990          49.000  
R 9  22343099.316   119310879.096        3794.683          47.000  
R21  21660031.492   115907207.8891      -3576.241          24.000  
R 7  22324254.678   119503522.8061       2058.461          30.000  
R 6  19440401.432   103737469.790         560.120          34.000  
R22  22074637.581                        -317.586          23.000  
> 2019 10  9  7 22  3.9980000  0 15                     
G 5  21888604.434   115025406.535       -3247.384          43.000  
G13  21148966.084   111138565.216       -2727.375          46.000  
G15  19721924.498   103639415.118        -956.826          50.000  
G24  20046157.065   105343274.944        1590.527          47.000  
G28  23867164.793   125422767.586       -1059.841          36.000  
R16  19036364.873   101688788.905         940.865          42.000  
R15  20740826.502   110832637.188       -3129.969          44.000  
J 1  37995617.420   199668311.547         -61.894          41.000  
J 2  36227355.900   190376019.212        -551.198          47.000  
R 5  20733724.200   110833596.788       -2244.181          50.000  
R 9  22342388.394   119307084.433        3794.758          46.000  
R21  21660696.625                       -3577.537          24.000  
R 7  22323865.172   119501464.037        2058.545          29.000  
R 6  19440296.416   103736910.145         560.073          34.000  
R22  22074698.482                        -323.250          23.000  
> 2019 10  9  7 22  4.9980000  0 15                     
G 5  21889222.486   115028654.057       -3247.435          43.000  
G13  21149485.315   111141292.564       -2727.329          46.000  
G15  19722106.661   103640371.959        -956.931          50.000  
G24  20045854.478   105341684.591        1590.134          47.000  
G28  23867366.465   125423827.541       -1059.799          36.000  
R16  19036188.783   101687848.410         940.251          42.000  
R15  20741411.887   110835767.230       -3130.282          44.000  
J 1  37995629.164   199668373.429         -61.837          41.000  
J 2  36227460.618   190376570.320        -551.090          47.000  
R 5  20734144.175   110835841.056       -2244.313          50.000  
R 9  22341677.751   119303289.822        3794.664          46.000  
R21  21661365.265                       -3576.240          23.000  
R 7  22323477.289   119499405.242        2058.943          29.000  
R 6  19440191.471   103736350.701         559.529          34.000  
R22  22074761.338                        -324.142          23.000  
> 2019 10  9  7 22  5.9980000  0 15                     
G 5  21889840.782   115031901.161       -3247.028          43.000  
G13  21150004.424   111144019.307       -2726.583          46.000  
G15  19722288.492   103641328.347        -956.277          50.000  
G24  20045551.752   105340094.045        1590.588          47.000  
G28  23867567.841   125424887.274       -1059.620          35.000  
R16  19036012.571   101686908.051         940.201          42.000  
R15  20741997.097   110838897.237       -3130.083          44.000  
J 1  37995640.751   199668434.521         -60.692          41.000  
J 2  36227565.389   190377120.797        -550.264          47.000  
R 5  20734563.957   110838084.817       -2243.648          50.000  
R 9  22340966.969   119299494.578        3795.613          46.000  
R21  21662032.579                       -3573.730          23.000  
R 7  22323087.032   119497345.645        2059.883          29.000  
R 6  19440086.787   103735790.715         559.994          34.000  
R22  22074823.426                        -324.502          24.000  
> 2019 10  9  7 22  6.9980000  0 15                     
G 5  21890458.869   115035148.685       -3248.276          43.000  
G13  21150522.957   111146746.286       -2727.576          46.000  
G15  19722470.551   103642285.134        -957.375          50.000  
G24  20045249.148   105338504.131        1589.226          47.000  
G28  23867769.460   125425947.659       -1061.378          35.000  
R16  19035836.219   101685968.674         938.420          42.000  
R15  20742582.587   110842028.055       -3131.630          44.000  
J 1  37995652.320   199668495.681         -61.510          41.000  
J 2  36227670.405   190377671.485        -551.275          47.000  
R 5  20734984.333   110840328.940       -2244.717          50.000  
R 9  22340255.925   119295699.552        3794.589          46.000  
R21  21662699.962                       -3578.801          23.000  
R 7  22322700.248   119495286.125        2058.743          28.000  
R 6  19439981.667   103735231.021         559.006          34.000  
R22  22074884.781                        -322.305          25.000  
> 2019 10  9  7 22  7.9980000  0 15                     
G 5  21891076.729   115038397.174       -3248.765          43.000  
G13  21151041.822   111149474.061       -2727.961          46.000  
G15  19722652.661   103643242.877        -958.066          50.000  
G24  20044946.823   105336915.450        1588.274          47.000  
G28  23867971.272   125427009.195       -1061.731          35.000  
R16  19035660.233   101685030.816         937.406          42.000  
R15  20743168.740   110845160.279       -3132.827          44.000  
J 1  37995664.274   199668557.459         -62.020          41.000  
J 2  36227775.403   190378222.940        -551.603          47.000  
R 5  20735404.220   110842574.011       -2245.429          50.000  
R 9  22339545.248   119291905.318        3793.989          46.000  
R21  21663368.323                       -3578.230          23.000  
R 7  22322311.893   119493227.238        2058.901          28.000  
R 6  19439876.861   103734672.232         557.741          34.000  
R22  22074947.287                        -322.924          25.000  
> 2019 10  9  7 22  8.9980000  0 15                     
G 5  21891694.955   115041646.060       -3249.029          43.000  
G13  21151560.757   111152202.079       -2728.396          46.000  
G15  19722834.789   103644201.013        -958.469          50.000  
G24  20044644.724   105335327.416        1587.522          47.000  
G28  23868173.293   125428071.387       -1062.769          35.000  
R16  19035484.719   101684093.942         936.072          42.000  
R15  20743755.277   110848293.312       -3133.414          44.000  
J 1  37995675.895   199668619.272         -62.008          41.000  
J 2  36227880.122   190378774.598        -551.884          47.000  
R 5  20735824.491   110844819.441       -2245.751          50.000  
R 9  22338834.640   119288111.302        3793.712          46.000  
R21  21664036.300                       -3578.683          22.000  
R 7  22321925.231   119491168.421        2058.621          28.000  
R 6  19439771.933   103734113.717         557.810          34.000  
R22  22075011.138                        -321.477          24.000  
> 2019 10  9  7 22  9.9980000  0 15                     
G 5  21892313.094   115044895.257       -3249.222          43.000  
G13  21152079.604   111154930.206       -2728.196          46.000  
G15  19723017.196   103645159.429        -958.484          50.000  
G24  20044342.853   105333739.914        1587.372          47.000  
G28  23868375.437   125429134.041       -1062.888          35.000  
R16  19035309.030   101683157.912         935.727          41.000  
R15  20744341.953   110851427.052       -3134.107          45.000  
J 1  37995687.779   199668681.045         -61.768          41.000  
J 2  36227985.224   190379326.350        -551.773          47.000  
R 5  20736244.937   110847065.126       -2245.811          50.000  
R 9  22338123.892   119284317.370        3793.991          46.000  
R21  21664705.498                       -3580.038          22.000  
R 7  22321536.510   119489109.568        2058.865          27.000  
R 6  19439667.074   103733555.397         558.058          34.000  
R22  22075075.913                        -324.219          23.000  
