     3.02           OBSERVATION DATA    M: Mixed            RINEX VERSION / TYPE
RTKCONV 2.4.2                           20191009 090927 UTC PGM / RUN BY / DATE 
log: C:\Users\Shimpei\Documents\signal_classifier\data\191  COMMENT             
format: u-blox                                              COMMENT             
                                                            MARKER NAME         
                                                            MARKER NUMBER       
                                                            MARKER TYPE         
                                                            OBSERVER / AGENCY   
                                                            REC # / TYPE / VERS 
                                                            ANT # / TYPE        
 -3751249.5132  3686080.2763  3596592.7926                  APPROX POSITION XYZ 
        0.0000        0.0000        0.0000                  ANTENNA: DELTA H/E/N
G    4 C1C L1C D1C S1C                                      SYS / # / OBS TYPES 
R    4 C1C L1C D1C S1C                                      SYS / # / OBS TYPES 
J    4 C1C L1C D1C S1C                                      SYS / # / OBS TYPES 
  2019    10     9     7    17   58.9970000     GPS         TIME OF FIRST OBS   
  2019    10     9     7    48   26.9980000     GPS         TIME OF LAST OBS    
G                                                           SYS / PHASE SHIFT   
R                                                           SYS / PHASE SHIFT   
J                                                           SYS / PHASE SHIFT   
  0                                                         GLONASS SLOT / FRQ #
 C1C    0.000 C1P    0.000 C2C    0.000 C2P    0.000        GLONASS COD/PHS/BIS 
                                                            END OF HEADER       
> 2019 10  9  7 17 58.9970000  0 15                     
G 5  21633418.715   113684211.307       -3063.601          33.000  
G13  20916995.942   109919550.484       -2585.838          47.000  
G15  19573387.704   102858837.440        -777.664          41.000  
G24  20017784.023   105194174.941        1829.242          41.000  
G28  23715129.858   124623868.858        -824.193          39.000  
R 5  20526694.765   109726900.791       -2072.854          43.000  
R15  20495825.968   109523402.841       -2841.174          36.000  
J 2  36096654.502   189689196.950        -418.870          38.000  
R16  18978795.523   101381252.646        1261.842          37.000  
G20  22185724.720   116586774.9052       2695.537          26.000  
R 6  19361588.082                         718.919          25.000  
R 7  22312247.899   119439230.450        2157.529          25.000  
R 9  22411415.051   119675539.924        3925.188          41.000  
R21  21394009.170   114483628.1732      -3349.795          28.000  
R22  21959139.423                          -5.636          25.000  
> 2019 10  9  7 17 59.9970000  0 14                     
G 5  21634001.063   113687274.910       -3064.551          33.000  
G13  20917488.282   109922136.595       -2586.683          47.000  
G15  19573536.083   102859615.374        -778.252          42.000  
G24  20017436.031   105192346.139        1828.259          41.000  
G28  23715286.736   124624693.646        -825.057          39.000  
R 5  20527082.159   109728973.884       -2073.671          43.000  
R15  20496357.624   109526244.347       -2841.841          36.000  
J 2  36096733.935   189689615.477        -418.591          37.000  
R16  18978559.247   101379991.208        1260.341          37.000  
G20  22185210.497   116584079.8852       2694.930          25.000  
R 6  19361456.333                         718.681          25.000  
R 7  22311844.328                        2156.968          24.000  
R 9  22410681.008   119671614.948        3924.534          41.000  
R21  21394634.621   114486978.4762      -3351.008          28.000  
> 2019 10  9  7 18  0.9970000  0 14                     
G 5  21634583.621   113690338.800       -3064.174          32.000  
G13  20917980.396   109924722.935       -2586.777          47.000  
G15  19573684.166   102860393.716        -778.910          42.000  
G24  20017088.056   105190517.979        1827.557          42.000  
G28  23715443.910   124625519.077        -825.583          39.000  
R 5  20527469.537   109731047.303       -2073.936          42.000  
R15  20496889.437   109529086.755       -2843.342          36.000  
J 2  36096813.648   189690034.271        -419.121          37.000  
R16  18978323.320   101378730.720        1259.569          37.000  
G20  22184697.198   116581385.166        2694.678          26.000  
R 6  19361324.200                         718.567          25.000  
R 7  22311437.755                        2157.202          23.000  
R 9  22409946.790   119667690.122        3924.743          41.000  
R21  21395262.462   114490329.3632      -3350.959          28.000  
> 2019 10  9  7 18  1.9970000  0 14                     
G 5  21635166.075   113693403.057       -3064.520          32.000  
G13  20918472.614   109927309.382       -2586.905          47.000  
G15  19573832.283   102861172.313        -779.154          41.000  
G24  20016740.500   105188690.305        1827.075          42.000  
G28  23715601.311   124626344.983        -826.178          40.000  
R 5  20527857.385   109733120.927       -2074.257          43.000  
R15  20497421.232   109531929.826       -2843.821          35.000  
J 2  36096893.657   189690453.118        -419.259          37.000  
R16  18978087.253   101377471.067        1258.593          37.000  
G20  22184183.708   116578690.440        2694.164          25.000  
R 6  19361191.700                         719.835          24.000  
R 7  22311033.050                        2156.560          24.000  
R 9  22409212.485   119663765.366        3924.350          41.000  
R21  21395887.040   114493680.7102      -3351.529          28.000  
> 2019 10  9  7 18  2.9970000  0 14                     
G 5  21635748.668   113696467.752       -3064.798          32.000  
G13  20918965.251   109929895.989       -2586.623          47.000  
G15  19573980.505   102861951.215        -778.950          41.000  
G24  20016392.892   105186863.173        1827.173          42.000  
G28  23715759.043   124627171.408        -826.597          40.000  
R 5  20528245.042   109735194.804       -2073.792          42.000  
R15  20497953.377   109534773.681       -2844.477          35.000  
J 2  36096973.177   189690872.042        -418.139          37.000  
R16  18977851.710   101376212.272        1258.133          37.000  
G20  22183675.296   116575995.931        2694.659          26.000  
R 6  19361060.073                         721.861          22.000  
R 7  22310629.548                        2157.132          25.000  
R 9  22408478.040   119659840.713        3924.837          42.000  
R21  21396512.020   114497032.623       -3352.367          28.000  
> 2019 10  9  7 18  3.9970000  0 14                     
G 5  21636330.912   113699532.524       -3064.371          32.000  
G13  20919457.470   109932482.674       -2587.054          47.000  
G15  19574128.344   102862730.357        -779.950          40.000  
G24  20016045.580   105185036.460        1826.489          42.000  
G28  23715916.654   124627998.289        -827.145          41.000  
R 5  20528632.838   109737268.879       -2074.307          42.000  
R15  20498485.853   109537618.185       -2845.403          35.000  
J 2  36097052.925   189691291.085        -419.253          36.000  
R16  18977616.394   101374954.242        1257.664          37.000  
G20  22183160.602   116573301.398        2694.451          25.000  
R 6  19360926.509                         717.081          21.000  
R 7  22310224.930                        2158.142          25.000  
R 9  22407743.456   119655916.043        3924.304          41.000  
R21  21397139.530   114500384.849       -3352.647          28.000  
> 2019 10  9  7 18  4.9970000  0 14                     
G 5  21636912.929   113702597.779       -3066.172          33.000  
G13  20919949.793   109935069.487       -2587.166          47.000  
G15  19574276.775   102863509.734        -779.775          41.000  
G24  20015698.408   105183210.297        1825.671          43.000  
G28  23716074.299   124628825.707        -828.183          41.000  
R 5  20529020.303   109739343.232       -2074.801          42.000  
R15  20499018.119   109540463.420       -2845.570          33.000  
J 2  36097132.585   189691710.151        -419.663          37.000  
R16  18977381.026   101373697.088        1256.818          37.000  
G20  22182644.983   116570607.111        2693.614          25.000  
R 6  19360791.008                         724.693          20.000  
R 7  22309820.486                        2157.123          24.000  
R 9  22407008.435   119651991.450        3924.315          41.000  
R21  21397764.352   114503737.717       -3353.605          27.000  
> 2019 10  9  7 18  5.9970000  0 14                     
G 5  21637494.893   113705663.264       -3065.725          34.000  
G13  20920442.203   109937656.487       -2586.979          47.000  
G15  19574424.875   102864289.515        -780.131          40.000  
G24  20015351.166   105181384.702        1825.214          43.000  
G28  23716232.154   124629653.659        -828.348          41.000  
R 5  20529407.593   109741417.866       -2074.919          41.000  
R15  20499550.299   109543309.532       -2846.750          33.000  
J 2  36097212.228   189692129.386        -419.282          37.000  
R16  18977145.936   101372440.831        1255.788          37.000  
G20  22182129.905   116567912.827        2694.402          26.000  
R 6  19360653.151                         719.043          19.000  
R 7  22309416.217                        2154.061          23.000  
R 9  22406273.397   119648066.931        3924.563          41.000  
R21  21398392.281   114507091.060       -3353.971          27.000  
> 2019 10  9  7 18  6.9970000  0 14                     
G 5  21638077.260   113708729.122       -3066.456          33.000  
G13  20920934.962   109940243.716       -2587.248          47.000  
G15  19574572.835   102865069.644        -780.460          40.000  
G24  20015004.238   105179559.727        1824.615          43.000  
G28  23716389.938   124630482.216        -828.826          41.000  
R 5  20529794.970   109743492.826       -2075.243          41.000  
R15  20500082.722   109546156.370       -2846.656          33.000  
J 2  36097291.888   189692548.792        -419.333          36.000  
R16  18976911.109   101371185.513        1255.121          37.000  
G20  22181618.247   116565218.861        2694.000          26.000  
R 6  19360514.509                         713.619          19.000  
R 7  22309011.425                        2159.948          22.000  
R 9  22405538.498   119644142.576        3924.619          41.000  
R21  21399019.477   114510444.973       -3353.815          27.000  
> 2019 10  9  7 18  7.9970000  0 14                     
G 5  21638659.102   113711794.752       -3065.031          34.000  
G13  20921426.988   109942830.501       -2586.223          47.000  
G15  19574721.040   102865849.486        -779.770          39.000  
G24  20014657.415   105177734.696        1825.500          43.000  
G28  23716547.514   124631310.713        -828.077          41.000  
R 5  20530182.540   109745567.392       -2073.897          41.000  
R15  20500615.146   109549003.412       -2846.745          33.000  
J 2  36097371.025   189692967.681        -418.179          36.000  
R16  18976676.543   101369930.425        1255.538          37.000  
G20  22181105.856   116562524.442        2694.348          26.000  
R 6  19360376.705                         725.069          21.000  
R 7  22308605.951                        2168.333          22.000  
R 9  22404803.478   119640217.684        3925.268          41.000  
R21  21399648.417   114513798.844       -3354.107          26.000  
> 2019 10  9  7 18  8.9970000  0 14                     
G 5  21639241.643   113714860.750       -3066.446          34.000  
G13  20921919.224   109945417.537       -2587.618          47.000  
G15  19574869.175   102866629.699        -780.911          40.000  
G24  20014310.435   105175910.297        1823.499          43.000  
G28  23716705.351   124632139.844        -829.935          41.000  
R 5  20530570.039   109747642.398       -2075.768          41.000  
R15  20501148.093   109551851.307       -2848.849          34.000  
J 2  36097450.546   189693386.850        -419.268          36.000  
R16  18976441.960   101368676.332        1253.084          37.000  
G20  22180594.425   116559830.283        2693.121          26.000  
R 6  19360241.553                         721.330          23.000  
R 7  22308199.047                        2157.032          22.000  
R 9  22404067.969   119636292.993        3924.014          41.000  
R21  21400276.137   114517153.298       -3355.545          26.000  
> 2019 10  9  7 18  9.9970000  0 14                     
G 5  21639824.515   113717927.858       -3066.473          34.000  
G13  20922411.495   109948005.450       -2588.094          47.000  
G15  19575017.607   102867410.974        -781.532          40.000  
G24  20013963.455   105174087.179        1822.791          42.000  
G28  23716863.485   124632970.206        -830.503          41.000  
R 5  20530957.818   109749718.363       -2076.165          41.000  
R15  20501680.830   109554700.630       -2849.470          33.000  
J 2  36097530.311   189693806.830        -419.915          36.000  
R16  18976207.673   101367423.789        1251.723          37.000  
G20  22180084.268   116557136.825        2693.271          26.000  
R 6  19360106.419                         718.119          25.000  
R 7  22307794.220                        2162.203          23.000  
R 9  22403332.634   119632369.109        3923.797          40.000  
R21  21400905.531   114520508.868       -3355.762          27.000  
> 2019 10  9  7 18 10.9970000  0 14                     
G 5  21640407.282   113720995.475       -3067.365          34.000  
G13  20922903.783   109950593.677       -2588.256          47.000  
G15  19575166.492   102868192.725        -781.737          40.000  
G24  20013616.579   105172264.764        1822.205          42.000  
G28  23717021.601   124633801.303        -831.406          41.000  
R 5  20531345.405   109751794.768       -2076.521          41.000  
R15  20502214.074   109557550.972       -2850.587          33.000  
J 2  36097610.076   189694227.095        -420.229          37.000  
R16  18975973.491   101366172.296        1250.863          37.000  
G20  22179571.005   116554443.805        2692.995          26.000  
R 6  19359973.361                         716.439          26.000  
R 7  22307386.897                        2164.536          25.000  
R 9  22402597.491   119628445.511        3923.809          40.000  
R21  21401534.245   114523865.236       -3356.769          27.000  
> 2019 10  9  7 18 11.9970000  0 14                     
G 5  21640990.696   113724063.436       -3067.775          33.000  
G13  20923396.054   109953182.079       -2588.408          46.000  
G15  19575314.958   102868974.755        -782.197          40.000  
G24  20013269.721   105170442.894        1821.643          42.000  
G28  23717179.857   124634632.945        -831.969          41.000  
R 5  20531733.428   109753871.440       -2076.763          41.000  
R15  20502747.178   109560402.063       -2852.093          33.000  
J 2  36097689.753   189694647.500        -420.636          36.000  
R16  18975739.449   101364921.670        1250.313          37.000  
G20  22179058.265   116551750.896        2692.607          25.000  
R 6  19359840.408   103307735.5322        715.711          27.000  
R 7  22306982.156                        2158.537          25.000  
R 9  22401861.999   119624521.949        3923.816          40.000  
R21  21402160.621   114527222.109       -3357.681          27.000  
> 2019 10  9  7 18 12.9970000  0 14                     
G 5  21641574.109   113727131.640       -3068.386          35.000  
G13  20923888.778   109955770.531       -2588.420          46.000  
G15  19575463.878   102869757.012        -782.486          40.000  
G24  20012923.090   105168621.481        1821.051          42.000  
G28  23717338.096   124635465.005        -832.592          41.000  
R 5  20532121.782   109755948.260       -2076.850          41.000  
R15  20503280.544   109563253.762       -2851.489          33.000  
J 2  36097769.309   189695067.883        -420.411          35.000  
R16  18975505.389   101363671.852        1249.152          37.000  
G20  22178548.736   116549058.116        2692.989          26.000  
R 6  19359706.896   103307019.376         716.007          27.000  
R 7  22306577.311                        2158.697          25.000  
R 9  22401126.560   119620598.443        3923.320          40.000  
R21  21402787.799   114530579.398       -3357.828          26.000  
> 2019 10  9  7 18 13.9970000  0 14                     
G 5  21642157.120   113730200.202       -3068.829          35.000  
G13  20924381.083   109958359.238       -2589.012          46.000  
G15  19575613.060   102870539.672        -783.005          41.000  
G24  20012576.581   105166800.687        1820.282          42.000  
G28  23717496.509   124636297.694        -833.296          41.000  
R 5  20532509.805   109758025.455       -2077.676          42.000  
R15  20503814.172   109566106.371       -2852.790          32.000  
J 2  36097849.318   189695488.468        -420.512          35.000  
R16  18975271.539   101362422.981        1247.873          37.000  
G20  22178037.899   116546365.463        2692.341          26.000  
R 6  19359572.198   103306303.424         715.757          27.000  
R 7  22306172.239                        2157.705          26.000  
R 9  22400390.771   119616675.063        3923.260          40.000  
R21  21403414.401   114533937.329       -3358.824          25.000  
> 2019 10  9  7 18 14.9970000  0 14                     
G 5  21642740.481   113733268.989       -3068.374          36.000  
G13  20924873.598   109960947.967       -2588.720          46.000  
G15  19575762.382   102871322.509        -782.713          41.000  
G24  20012229.689   105164980.304        1820.233          42.000  
G28  23717654.852   124637130.785        -833.143          41.000  
R 5  20532898.718   109760102.772       -2077.346          42.000  
R15  20504347.468   109568959.573       -2853.208          32.000  
J 2  36097928.926   189695909.049        -419.855          35.000  
R16  18975038.037   101361174.847        1247.830          36.000  
G20  22177528.387   116543672.850        2692.720          26.000  
R 6  19359436.557   103305587.650         716.063          27.000  
R 7  22305768.912                        2159.520          25.000  
R 9  22399654.791   119612751.714        3923.263          39.000  
R21  21404040.288                       -3358.920          24.000  
> 2019 10  9  7 18 15.9970000  0 14                     
G 5  21643324.086   113736338.063       -3069.518          36.000  
G13  20925366.026   109963536.812       -2589.001          46.000  
G15  19575912.244   102872105.611        -783.260          42.000  
G24  20011883.232   105163160.433        1819.604          42.000  
G28  23717813.108   124637964.358        -833.772          41.000  
R 5  20533287.911   109762180.315       -2077.522          43.000  
R15  20504881.305   109571813.505       -2854.731          32.000  
J 2  36098008.813   189696329.733        -420.766          35.000  
R16  18974804.623   101359927.530        1246.972          36.000  
G20  22177020.150   116540980.362        2692.542          27.000  
R 6  19359301.091   103304872.022         715.823          26.000  
R 7  22305364.364                        2158.408          25.000  
R 9  22398918.880   119608828.331        3923.435          39.000  
R21  21404667.938                       -3358.214          23.000  
> 2019 10  9  7 18 16.9970000  0 13                     
G 5  21643907.831   113739407.469       -3069.636          36.000  
G13  20925858.733   109966125.819       -2588.918          46.000  
G15  19576061.653   102872889.035        -783.572          42.000  
G24  20011536.636   105161341.115        1819.147          42.000  
G28  23717971.609   124638798.500        -834.636          41.000  
R 5  20533676.998   109764258.135       -2077.655          43.000  
R15  20505405.702   109574668.159       -2855.302          31.000  
J 2  36098088.805   189696750.556        -420.885          35.000  
R16  18974571.087   101358681.084        1246.046          36.000  
G20  22176509.347   116538288.010        2692.521          27.000  
R 6  19359166.498   103304156.698         715.021          26.000  
R 7  22304960.932                        2157.779          25.000  
R 9  22398182.795   119604905.066        3923.717          39.000  
> 2019 10  9  7 18 17.9970000  0 13                     
G 5  21644491.366   113742476.683       -3069.041          35.000  
G13  20926351.527   109968714.451       -2587.983          46.000  
G15  19576210.940   102873672.224        -782.763          42.000  
G24  20011190.144   105159521.803        1819.543          42.000  
G28  23718130.336   124639632.629        -833.992          41.000  
R 5  20534065.946   109766335.661       -2077.014          43.000  
R15  20505939.574   109577523.054       -2855.492          31.000  
J 2  36098168.797   189697170.922        -420.018          35.000  
R16  18974337.533   101357434.973        1245.771          36.000  
G20  22175997.724   116535595.266        2693.708          26.000  
R 6  19359028.641   103303440.929         716.746          26.000  
R 7  22304555.546                        2158.863          24.000  
R 9  22397446.955   119600981.357        3924.052          39.000  
> 2019 10  9  7 18 18.9970000  0 13                     
G 5  21645075.512   113745546.054       -3069.580          35.000  
G13  20926843.833   109971303.132       -2588.946          46.000  
G15  19576360.663   102874455.622        -783.771          42.000  
G24  20010843.862   105157702.931        1818.329          42.000  
G28  23718289.046   124640467.168        -835.071          41.000  
R 5  20534454.650   109768413.327       -2078.090          43.000  
R15  20506469.432   109580378.619       -2856.421          32.000  
J 2  36098248.631   189697591.292        -420.218          35.000  
R16  18974103.927   101356189.605        1244.319          36.000  
G20  22175486.869   116532902.581        2691.977          26.000  
R 6  19358890.034   103302725.4262        714.685          26.000  
R 7  22304149.323                        2156.799          24.000  
R 9  22396711.410   119597057.608        3923.650          39.000  
> 2019 10  9  7 18 19.9970000  0 13                     
G 5  21645659.501   113748616.493       -3070.959          35.000  
G13  20927336.731   109973892.644       -2589.978          46.000  
G15  19576510.211   102875239.979        -784.570          42.000  
G24  20010497.999   105155885.268        1817.273          42.000  
G28  23718448.122   124641302.922        -836.223          41.000  
R 5  20534843.493   109770491.948       -2078.805          43.000  
R15  20507005.468   109583235.623       -2857.364          31.000  
J 2  36098328.745   189698012.472        -421.840          35.000  
R16  18973870.705   101354945.794        1243.599          35.000  
G20  22174978.596   116530210.637        2691.957          26.000  
R 6  19358756.121   103302010.6572        714.279          26.000  
R 7  22303745.961                        2158.837          24.000  
R 9  22395975.727   119593134.640        3922.671          39.000  
> 2019 10  9  7 18 20.9970000  0 13                     
G 5  21646243.560   113751687.323       -3071.084          35.000  
G13  20927829.822   109976482.385       -2589.741          46.000  
G15  19576659.707   102876024.743        -784.875          42.000  
G24  20010152.066   105154068.228        1816.717          42.000  
G28  23718607.303   124642139.305        -836.781          41.000  
R 5  20535232.458   109772570.948       -2078.917          43.000  
R15  20507533.494   109586093.464       -2858.109          30.000  
J 2  36098408.859   189698433.858        -421.653          35.000  
R16  18973637.378   101353702.997        1242.350          35.000  
G20  22174470.603   116527518.952        2691.945          27.000  
R 6  19358621.981   103301296.197         714.410          27.000  
R 7  22303341.290                        2158.013          25.000  
R 9  22395240.270   119589211.814        3922.902          39.000  
> 2019 10  9  7 18 21.9970000  0 13                     
G 5  21646827.758   113754758.608       -3071.798          35.000  
G13  20928322.564   109979072.388       -2589.796          46.000  
G15  19576809.639   102876809.917        -785.050          42.000  
G24  20009806.342   105152251.797        1816.345          42.000  
G28  23718766.030   124642976.298        -837.027          41.000  
R 5  20535621.511   109774650.301       -2079.180          43.000  
R15  20508065.900   109588952.171       -2859.232          30.000  
J 2  36098488.380   189698855.376        -420.828          35.000  
R16  18973404.697   101352461.132        1241.739          35.000  
G20  22173961.685   116524827.561        2691.240          26.000  
R 6  19358486.096   103300582.205         713.257          27.000  
R 7  22302937.405                        2158.098          25.000  
R 9  22394505.092   119585289.195        3922.522          39.000  
> 2019 10  9  7 18 22.9970000  0 13                     
G 5  21647412.079   113757830.252       -3072.229          35.000  
G13  20928815.393   109981662.564       -2590.247          46.000  
G15  19576959.502   102877595.422        -785.780          42.000  
G24  20009460.705   105150435.947        1815.570          42.000  
G28  23718925.228   124643813.862        -837.727          41.000  
R 5  20536010.511   109776729.943       -2079.907          43.000  
R15  20508592.059   109591811.634       -2859.678          29.000  
J 2  36098568.494   189699277.134        -422.092          35.000  
R16  18973172.103   101351220.144        1240.723          35.000  
G20  22173453.325   116522136.271        2691.402          27.000  
R 6  19358350.613   103299868.296         713.725          27.000  
R 7  22302535.579                        2158.459          25.000  
R 9  22393769.775   119581366.670        3922.739          39.000  
> 2019 10  9  7 18 23.9970000  0 13                     
G 5  21647996.382   113760902.050       -3072.303          35.000  
G13  20929308.083   109984252.770       -2590.088          46.000  
G15  19577108.719   102878381.107        -785.686          42.000  
G24  20009115.296   105148620.548        1815.308          42.000  
G28  23719083.816   124644651.838        -837.801          40.000  
R 5  20536399.686   109778809.703       -2079.698          43.000  
R15  20509128.147   109594671.779       -2860.653          29.000  
J 2  36098648.695   189699698.836        -421.755          35.000  
R16  18972939.701   101349979.899        1239.865          35.000  
G20  22172941.196   116519445.013        2691.034          26.000  
R 6  19358216.612   103299154.506         713.746          27.000  
R 7  22302129.094                        2159.781          25.000  
R 9  22393034.702   119577444.099        3923.067          39.000  
> 2019 10  9  7 18 24.9970000  0 14                     
G 5  21648581.156   113763974.107       -3072.612          36.000  
G13  20929800.894   109986843.044       -2590.389          46.000  
G15  19577258.337   102879166.999        -785.987          42.000  
G24  20008770.113   105146805.575        1814.691          42.000  
G28  23719242.368   124645490.231        -838.482          40.000  
R 5  20536788.686   109780889.612       -2079.753          43.000  
R15  20509657.325   109597532.475       -2860.685          27.000  
J 2  36098728.879   189700120.541        -421.164          35.000  
R16  18972707.246   101348740.386        1239.462          35.000  
G20  22172434.756   116516753.837        2691.176          27.000  
R22  21959125.289                         -32.386          25.000  
R 6  19358083.031   103298440.825         713.880          27.000  
R 7  22301723.760                        2158.270          24.000  
R 9  22392299.681   119573521.534        3922.015          39.000  
> 2019 10  9  7 18 25.9970000  0 15                     
G 5  21649165.617   113767046.433       -3072.425          36.000  
G13  20930294.055   109989433.444       -2590.446          47.000  
G15  19577407.990   102879953.194        -786.237          41.000  
G24  20008424.965   105144991.130        1814.313          42.000  
G28  23719401.829   124646329.166        -838.890          40.000  
R 5  20537177.808   109782969.817       -2080.046          43.000  
R15  20510190.516   109600394.032       -2862.205          26.000  
J 2  36098808.609   189700542.380        -421.950          34.000  
R16  18972475.176   101347501.804        1238.058          35.000  
G20  22171925.053   116514062.759        2691.079          27.000  
R22  21959130.018                         -28.841          26.000  
R 6  19357949.223   103297727.427         713.777          27.000  
R 7  22301318.444                        2159.250          23.000  
R 9  22391564.696   119569599.035        3922.513          39.000  
J 3  36879603.542   193803623.6581       -836.341          35.000  
> 2019 10  9  7 18 26.9970000  0 15                     
G 5  21649749.902   113770119.073       -3072.322          35.000  
G13  20930787.180   109992023.933       -2590.225          47.000  
G15  19577557.294   102880739.613        -786.122          41.000  
G24  20008080.079   105143177.148        1814.032          42.000  
G28  23719561.271   124647168.546        -839.301          40.000  
R 5  20537566.913   109785050.180       -2079.851          43.000  
R15  20510720.584                       -2860.894          26.000  
J 2  36098888.810   189700964.237        -421.708          34.000  
R16  18972243.437   101346263.999        1237.581          35.000  
G20  22171417.164   116511371.723        2691.092          28.000  
R22  21959132.321                         -29.728          25.000  
R 6  19357815.641   103297014.169         712.634          27.000  
R 7  22300912.534                        2157.199          25.000  
R 9  22390829.989   119565676.543        3922.758          40.000  
J 3  36879762.618   193804459.993        -835.779          35.000  
> 2019 10  9  7 18 27.9970000  0 16                     
G 5  21650334.589   113773191.608       -3072.889          36.000  
G13  20931280.149   109994614.142       -2590.137          47.000  
G15  19577706.650   102881525.915        -786.294          41.000  
G24  20007735.001   105141363.266        1814.007          42.000  
G28  23719720.627   124648008.033        -839.502          40.000  
R 5  20537956.455   109787130.376       -2079.930          43.000  
R15  20511253.147   109606118.642       -2862.286          26.000  
J 2  36098969.029   189701385.813        -421.612          34.000  
R16  18972011.594   101345026.545        1238.060          35.000  
G20  22170904.267   116508680.383        2691.846          28.000  
R22  21959140.767                         -31.386          26.000  
R 6  19357682.793   103296300.554         714.070          27.000  
R 7  22300508.003                        2158.812          25.000  
R 9  22390095.213   119561753.711        3923.157          40.000  
R21  21412225.924                       -3364.916          27.000  
J 3  36879921.555   193805295.894        -835.469          35.000  
> 2019 10  9  7 18 28.9970000  0 16                     
G 5  21650919.311   113776264.162       -3073.029          35.000  
G13  20931772.856   109997204.240       -2590.581          47.000  
G15  19577856.042   102882312.256        -786.898          41.000  
G24  20007390.115   105139549.669        1812.854          42.000  
G28  23719880.418   124648847.784        -840.138          40.000  
R 5  20538345.734   109789210.539       -2080.779          43.000  
R15  20511787.176   109608981.578       -2863.212          25.000  
J 2  36099049.247   189701807.209        -421.877          35.000  
R16  18971779.890   101343789.726        1235.914          35.000  
G20  22170390.358   116505988.979        2690.964          28.000  
R22  21959147.730                         -31.226          26.000  
R 6  19357552.108   103295586.983         713.391          27.000  
R 7  22300105.095                        2159.707          26.000  
R 9  22389360.227   119557830.688        3922.562          40.000  
R21  21412842.998                       -3364.434          26.000  
J 3  36880080.823   193806131.484        -835.898          35.000  
> 2019 10  9  7 18 29.9970000  0 16                     
G 5  21651504.190   113779337.724       -3073.651          35.000  
G13  20932265.668   109999795.153       -2591.262          47.000  
G15  19578005.014   102883099.572        -787.831          41.000  
G24  20007045.456   105137737.265        1811.944          42.000  
G28  23720040.384   124649688.744        -841.584          40.000  
R 5  20538735.415   109791291.632       -2081.781          43.000  
R15  20512324.172   109611846.087       -2864.746          26.000  
J 2  36099129.710   189702229.417        -423.134          35.000  
R16  18971548.029   101342554.430        1234.630          35.000  
G20  22169875.943   116503298.384        2689.992          28.000  
R22  21959154.867                         -33.069          26.000  
R 6  19357417.200   103294874.352         712.249          26.000  
R 7  22299701.088                        2156.188          26.000  
R 9  22388625.521   119553908.397        3922.087          40.000  
R21  21413463.615   114587787.1343      -3366.764          26.000  
J 3  36880240.056   193806967.716        -836.499          35.000  
> 2019 10  9  7 18 30.9970000  0 16                     
G 5  21652089.296   113782411.985       -3074.367          36.000  
G13  20932758.863   110002386.559       -2591.563          47.000  
G15  19578154.144   102883887.545        -788.210          41.000  
G24  20006700.988   105135925.765        1811.163          42.000  
G28  23720200.577   124650530.574        -841.989          40.000  
R 5  20539124.956   109793373.349       -2082.053          44.000  
R15  20512860.853   109614711.640       -2865.869          26.000  
J 2  36099210.313   189702652.043        -423.064          35.000  
R16  18971316.848   101341320.442        1232.677          36.000  
G20  22169363.256   116500608.208        2689.806          28.000  
R22  21959163.819                         -34.406          26.000  
R 6  19357286.272   103294162.1392        713.097          25.000  
R 7  22299296.155                        2158.000          25.000  
R 9  22387891.006   119549986.574        3921.566          40.000  
R21  21414090.514   114591153.7812      -3367.234          27.000  
J 3  36880399.010   193807804.272        -836.949          35.000  
> 2019 10  9  7 18 31.9970000  0 16                     
G 5  21652674.402   113785486.502       -3074.915          37.000  
G13  20933252.477   110004978.056       -2591.528          47.000  
G15  19578303.430   102884675.738        -788.098          41.000  
G24  20006356.643   105134114.729        1810.718          42.000  
G28  23720360.980   124651372.873        -842.310          40.000  
R 5  20539515.056   109795455.303       -2082.053          44.000  
R15  20513399.681   109617577.874       -2866.436          26.000  
J 2  36099290.776   189703074.725        -422.308          35.000  
R16  18971086.069   101340087.185        1232.823          36.000  
G20  22168849.347   116497918.123        2690.363          28.000  
R22  21959174.044                         -34.902          26.000  
R 6  19357154.592                         712.116          25.000  
R 7  22298891.276                        2159.044          25.000  
R 9  22387156.299   119546064.726        3921.931          40.000  
R21  21414715.825                       -3367.505          26.000  
J 3  36880558.243   193808640.742        -836.122          35.000  
> 2019 10  9  7 18 32.9970000  0 16                     
G 5  21653259.507   113788561.256       -3074.863          37.000  
G13  20933745.533   110007569.618       -2591.487          47.000  
G15  19578452.996   102885464.167        -788.472          41.000  
G24  20006012.350   105132304.153        1810.474          42.000  
G28  23720521.051   124652215.631        -843.005          40.000  
R 5  20539904.841   109797537.427       -2082.207          44.000  
R15  20513939.766   109620444.794       -2867.354          26.000  
J 2  36099371.378   189703497.473        -422.921          35.000  
R16  18970855.098   101338854.721        1232.046          36.000  
G20  22168337.375   116495228.115        2690.390          28.000  
R22  21959182.229                         -35.194          25.000  
R 6  19357020.260                         713.764          25.000  
R 7  22298488.821                        2158.773          25.000  
R 9  22386421.942   119542142.895        3921.607          40.000  
R21  21415340.630                       -3366.253          26.000  
J 3  36880717.564   193809477.107        -836.395          36.000  
> 2019 10  9  7 18 33.9970000  0 15                     
G 5  21653844.875   113791636.300       -3075.195          37.000  
G13  20934238.659   110010161.308       -2591.799          47.000  
G15  19578602.824   102886252.876        -788.999          41.000  
G24  20005668.058   105130494.104        1809.827          42.000  
G28  23720681.488   124653058.871        -843.316          40.000  
R 5  20540294.906   109799619.782       -2082.495          44.000  
R15  20514477.319   109623312.340       -2867.560          26.000  
J 2  36099451.894   189703920.263        -423.024          35.000  
R16  18970624.895   101337623.088        1231.699          36.000  
G20  22167825.298   116492538.227        2689.981          28.000  
R 6  19356887.290                         710.136          24.000  
R 7  22298085.390                        2159.919          25.000  
R 9  22385687.584   119538221.120        3921.823          40.000  
R21  21415966.919                       -3369.172          26.000  
J 3  36880876.710   193810313.381        -836.581          35.000  
> 2019 10  9  7 18 34.9970000  0 15                     
G 5  21654430.434   113794711.619       -3075.308          38.000  
G13  20934731.628   110012753.090       -2591.731          47.000  
G15  19578752.965   102887041.819        -788.988          41.000  
G24  20005323.573   105128684.529        1809.528          42.000  
G28  23720842.728   124653902.591        -843.398          40.000  
R 5  20540684.674   109801702.322       -2082.581          44.000  
R15  20515012.971   109626180.713       -2868.880          26.000  
J 2  36099532.496   189704343.105        -422.781          35.000  
R16  18970394.674   101336392.277        1230.688          37.000  
G20  22167310.377   116489848.395        2689.952          28.000  
R 6  19356751.771                         710.684          23.000  
R 7  22297684.209                        2159.267          25.000  
R 9  22384953.209   119534299.400        3921.940          40.000  
R21  21416599.175                       -3370.210          26.000  
J 3  36881035.769   193811149.578        -835.759          36.000  
> 2019 10  9  7 18 35.9970000  0 15                     
G 5  21655015.575   113797787.152       -3075.739          39.000  
G13  20935224.910   110015344.924       -2591.802          47.000  
G15  19578903.229   102887830.981        -789.413          42.000  
G24  20004979.524   105126875.408        1808.752          42.000  
G28  23721003.549   124654746.760        -844.386          40.000  
R 5  20541074.372   109803785.003       -2082.716          44.000  
R15  20515546.564   109629049.593       -2868.658          25.000  
J 2  36099613.116   189704766.005        -423.002          35.000  
R16  18970164.854   101335162.256        1229.009          37.000  
G20  22166794.427   116487158.641        2689.620          28.000  
R 6  19356616.166                         715.073          23.000  
R 7  22297283.308                        2159.339          26.000  
R 9  22384219.341   119530377.676        3921.404          40.000  
R21  21417232.600                       -3368.305          26.000  
J 3  36881195.211   193811985.669        -836.280          36.000  
> 2019 10  9  7 18 36.9970000  0 15                     
G 5  21655600.611   113800863.027       -3076.423          39.000  
G13  20935718.089   110017936.920       -2592.148          47.000  
G15  19579053.318   102888620.432        -789.748          42.000  
G24  20004635.546   105125066.831        1808.142          42.000  
G28  23721164.684   124655591.448        -845.103          40.000  
R 5  20541464.611   109805867.946       -2083.154          44.000  
R15  20516082.024   109631919.3232      -2870.232          25.000  
J 2  36099693.754   189705188.987        -423.477          35.000  
R16  18969934.791   101333933.075        1228.530          37.000  
G20  22166280.797   116484469.030        2689.501          28.000  
R 6  19356483.963                         706.060          22.000  
R 7  22296884.570                        2158.736          26.000  
R 9  22383485.507   119526456.009        3921.600          41.000  
R21  21417861.960                       -3370.090          26.000  
J 3  36881354.200   193812821.728        -836.175          35.000  
> 2019 10  9  7 18 37.9970000  0 15                     
G 5  21656185.787   113803938.939       -3075.660          40.000  
G13  20936211.389   110020528.812       -2591.589          47.000  
G15  19579203.547   102889409.945        -789.363          42.000  
G24  20004291.846   105123258.552        1808.624          43.000  
G28  23721325.610   124656436.417        -844.862          40.000  
R 5  20541854.781   109807950.888       -2082.635          45.000  
R15  20516621.044   109634789.4662      -2869.228          25.000  
J 2  36099774.339   189705611.838        -422.785          35.000  
R16  18969704.971   101332704.529        1228.533          37.000  
G20  22165766.242   116481779.236        2690.498          28.000  
R 6  19356352.109                         702.628          22.000  
R 7  22296483.547                        2159.632          27.000  
R 9  22382751.550   119522534.167        3922.331          41.000  
R21  21418489.522                       -3370.885          25.000  
J 3  36881513.084   193813657.468        -835.179          35.000  
> 2019 10  9  7 18 38.9970000  0 15                     
G 5  21656771.591   113807014.914       -3076.673          39.000  
G13  20936704.253   110023120.535       -2592.063          47.000  
G15  19579354.195   102890199.428        -789.980          42.000  
G24  20003947.920   105121450.491        1807.520          43.000  
G28  23721486.885   124657281.583        -845.710          41.000  
R 5  20542245.055   109810033.777       -2083.397          45.000  
R15  20517159.907   109637660.2522      -2872.121          25.000  
J 2  36099854.872   189706034.455        -422.958          35.000  
R16  18969475.327   101331476.534        1227.191          37.000  
G20  22165253.415   116479089.395        2689.139          28.000  
R 6  19356217.498                         708.963          21.000  
R 7  22296082.576   119352634.6801       2159.388          27.000  
R 9  22382017.681   119518612.075        3921.895          41.000  
R21  21419119.004                       -3369.819          25.000  
J 3  36881671.532   193814492.913        -835.828          35.000  
> 2019 10  9  7 18 39.9970000  0 15                     
G 5  21657357.639   113810091.862       -3077.236          39.000  
G13  20937197.553   110025713.110       -2592.867          46.000  
G15  19579504.633   102890989.923        -791.093          42.000  
G24  20003604.185   105119643.663        1806.415          43.000  
G28  23721648.073   124658127.988        -846.993          41.000  
R 5  20542635.155   109812117.625       -2084.058          45.000  
R15  20517695.768                       -2872.814          25.000  
J 2  36099935.526   189706457.937        -424.175          35.000  
R16  18969245.717   101330250.078        1225.910          38.000  
G20  22164741.932   116476400.263        2688.995          28.000  
R 6  19356082.381                         712.414          21.000  
R 7  22295682.652   119350475.987        2158.827          27.000  
R 9  22381283.586   119514690.794        3921.035          41.000  
R21  21419745.816                       -3372.619          25.000  
J 3  36881830.207   193815328.974        -836.346          35.000  
> 2019 10  9  7 18 40.9970000  0 15                     
G 5  21657943.687   113813169.300       -3077.559          39.000  
G13  20937690.818   110028305.983       -2593.193          46.000  
G15  19579655.316   102891780.837        -790.874          42.000  
G24  20003260.451   105117837.513        1805.841          43.000  
G28  23721809.557   124658975.075        -847.427          41.000  
R 5  20543025.132   109814201.899       -2084.531          45.000  
R15  20518232.903                       -2873.287          25.000  
J 2  36100016.216   189706881.636        -423.737          35.000  
R16  18969016.717   101329024.652        1225.149          37.000  
G20  22164229.629   116473711.467        2688.868          28.000  
R 6  19355945.275                         713.266          22.000  
R 7  22295281.506   119348317.392        2158.944          27.000  
R 9  22380549.699   119510769.756        3921.157          41.000  
R21  21420372.523                       -3371.959          25.000  
J 3  36881988.969   193816165.148        -835.912          35.000  
> 2019 10  9  7 18 41.9970000  0 15                     
G 5  21658529.630   113816247.089       -3078.121          40.000  
G13  20938184.049   110030899.037       -2593.337          46.000  
G15  19579806.156   102892572.131        -791.617          42.000  
G24  20002916.961   105116031.921        1805.145          43.000  
G28  23721971.373   124659822.732        -848.127          41.000  
R 5  20543415.633   109816286.458       -2084.726          45.000  
R15  20518771.556   109646279.0032      -2874.483          25.000  
J 2  36100097.046   189707305.498        -424.241          35.000  
R16  18968787.648   101327800.125        1223.820          37.000  
G20  22163717.360   116471022.832        2688.240          28.000  
R 6  19355809.756                         711.523          23.000  
R 7  22294881.024   119346158.920        2157.710          27.000  
R 9  22379815.900   119506848.839        3920.497          42.000  
R21  21420999.823                       -3372.396          26.000  
J 3  36882147.766   193817001.406        -836.831          35.000  
> 2019 10  9  7 18 42.9970000  0 15                     
G 5  21659115.626   113819325.030       -3077.964          41.000  
G13  20938677.593   110033492.067       -2593.190          46.000  
G15  19579957.013   102893363.540        -791.552          42.000  
G24  20002573.523   105114226.684        1804.962          43.000  
G28  23722133.084   124660670.722        -848.224          41.000  
R 5  20543805.558   109818371.118       -2084.825          45.000  
R15  20519305.568                       -2876.436          24.000  
J 2  36100177.805   189707729.272        -423.696          35.000  
R16  18968558.754   101326576.261        1223.296          38.000  
G20  22163206.610   116468334.260        2687.839          28.000  
R 6  19355675.651                         709.994          25.000  
R 7  22294478.656   119344000.5722       2158.442          27.000  
R 9  22379081.962   119502927.805        3921.181          42.000  
R21  21421625.693   114631419.2723      -3372.825          26.000  
J 3  36882306.860   193817837.379        -835.767          35.000  
> 2019 10  9  7 18 43.9970000  0 15                     
G 5  21659701.447   113822403.319       -3078.320          41.000  
G13  20939170.963   110036085.256       -2593.220          46.000  
G15  19580108.254   102894155.259        -791.835          42.000  
G24  20002229.981   105112422.019        1804.321          43.000  
G28  23722294.900   124661519.287        -848.936          41.000  
R 5  20544195.675   109820456.068       -2085.146          45.000  
R15  20519842.371                       -2876.486          24.000  
J 2  36100258.652   189708153.213        -424.190          35.000  
R16  18968329.737   101325353.305        1222.588          37.000  
G20  22162695.597   116465645.683        2688.507          28.000  
R 6  19355542.907                         709.093          25.000  
R 7  22294078.034   119341841.8292       2158.784          27.000  
R 9  22378348.110   119499006.908        3920.860          42.000  
R21  21422249.957   114634792.2252      -3372.897          26.000  
J 3  36882465.936   193818673.336        -835.358          35.000  
> 2019 10  9  7 18 44.9970000  0 15                     
G 5  21660287.600   113825481.786       -3078.544          41.000  
G13  20939664.490   110038678.474       -2593.361          46.000  
G15  19580259.198   102894947.158        -792.098          42.000  
G24  20001886.508   105110617.737        1804.004          42.000  
G28  23722456.454   124662368.243        -849.302          41.000  
R 5  20544585.810   109822541.120       -2085.108          45.000  
R15  20520379.943                       -2876.125          24.000  
J 2  36100339.307   189708577.113        -423.823          35.000  
R16  18968100.913   101324131.066        1222.195          38.000  
G20  22162184.568   116462957.166        2688.798          28.000  
R 6  19355410.216                         709.528          26.000  
R 7  22293677.168   119339682.391        2158.766          27.000  
R 9  22377614.049   119495085.934        3920.969          42.000  
R21  21422875.198   114638165.0871      -3373.282          26.000  
J 3  36882624.873   193819509.198        -835.535          35.000  
> 2019 10  9  7 18 45.9970000  0 15                     
G 5  21660873.788   113828560.527       -3079.108          42.000  
G13  20940157.755   110041271.769       -2593.649          46.000  
G15  19580410.213   102895739.276        -792.347          42.000  
G24  20001543.350   105108813.932        1803.522          42.000  
G28  23722618.724   124663217.645        -849.875          41.000  
R 5  20544976.049   109824626.358       -2085.702          45.000  
R15  20520917.776                       -2875.903          24.000  
J 2  36100420.102   189709001.069        -424.214          35.000  
R16  18967872.210   101322909.679        1220.833          38.000  
G20  22161675.597   116460268.791        2687.806          28.000  
R 6  19355278.310                         710.499          26.000  
R 7  22293277.069   119337523.367        2158.603          27.000  
R 9  22376880.023   119491164.991        3920.711          42.000  
R21  21423504.331   114641538.879       -3373.321          26.000  
J 3  36882783.687   193820344.933        -835.987          35.000  
> 2019 10  9  7 18 46.9970000  0 15                     
G 5  21661460.115   113831639.509       -3078.988          42.000  
G13  20940651.091   110043865.143       -2593.276          46.000  
G15  19580561.070   102896531.640        -792.390          42.000  
G24  20001200.156   105107010.625        1803.290          42.000  
G28  23722780.627   124664067.522        -849.836          41.000  
R 5  20545366.236   109826711.766       -2085.320          45.000  
R15  20521455.208                       -2876.156          25.000  
J 2  36100501.315   189709425.036        -423.427          35.000  
R16  18967643.944   101321689.072        1220.453          38.000  
G20  22161165.685   116457580.372        2688.933          28.000  
R 6  19355146.822                         709.866          26.000  
R 7  22292877.529   119335364.6542       2159.476          28.000  
R 9  22376146.102   119487244.071        3921.060          42.000  
R21  21424133.376   114644913.125       -3374.312          25.000  
J 3  36882942.467   193821180.536        -834.836          35.000  
> 2019 10  9  7 18 47.9970000  0 15                     
G 5  21662046.216   113834718.658       -3078.971          42.000  
G13  20941144.653   110046458.515       -2593.240          46.000  
G15  19580712.380   102897324.131        -792.315          42.000  
G24  20000857.399   105105207.702        1802.960          42.000  
G28  23722942.722   124664917.771        -850.284          41.000  
R 5  20545756.178   109828797.295       -2085.441          44.000  
R15  20521994.769                       -2877.778          25.000  
J 2  36100582.232   189709849.021        -423.657          35.000  
R16  18967415.834   101320469.161        1220.040          38.000  
G20  22160656.243   116454892.020        2688.484          29.000  
R 6  19355015.387                         706.636          26.000  
R 7  22292476.785   119333205.2892       2159.744          28.000  
R 9  22375412.338   119483323.044        3921.072          42.000  
R21  21424764.498   114648287.656       -3374.196          25.000  
J 3  36883101.142   193822015.945        -834.523          34.000  
> 2019 10  9  7 18 48.9970000  0 15                     
G 5  21662632.264   113837797.564       -3079.339          43.000  
G13  20941638.092   110049051.463       -2593.352          46.000  
G15  19580863.290   102898116.377        -792.783          42.000  
G24  20000513.996   105103404.770        1802.179          43.000  
G28  23723104.608   124665767.981        -850.885          41.000  
R 5  20546146.261   109830882.521       -2085.714          44.000  
R15  20522533.614                       -2878.039          26.000  
J 2  36100662.991   189710272.492        -423.542          35.000  
R16  18967187.655   101319249.578        1218.622          38.000  
G20  22160144.149   116452203.193        2688.663          29.000  
R 6  19354880.113                         710.132          25.000  
R 7  22292074.662   119331044.806        2160.120          27.000  
R 9  22374678.050   119479401.556        3921.231          42.000  
R21  21425394.835   114651662.067       -3375.093          25.000  
J 3  36883259.520   193822850.809        -835.005          34.000  
> 2019 10  9  7 18 49.9970000  0 15                     
G 5  21663218.050   113840877.444       -3080.468          43.000  
G13  20942131.637   110051645.223       -2594.199          46.000  
G15  19581014.496   102898909.555        -793.711          42.000  
G24  20000171.309   105101603.018        1801.178          43.000  
G28  23723266.633   124666619.361        -851.951          41.000  
R 5  20546536.273   109832968.659       -2086.595          44.000  
R15  20523073.052                       -2880.512          27.000  
J 2  36100744.047   189710696.762        -424.914          36.000  
R16  18966959.703   101318031.450        1217.325          38.000  
G20  22159635.615   116449515.174        2687.905          29.000  
R 6  19354743.653                         708.190          24.000  
R 7  22291672.784                        2158.830          27.000  
R 9  22373943.972   119475480.812        3920.227          42.000  
R21  21426024.805                       -3376.388          25.000  
J 3  36883418.195   193823686.279        -835.749          34.000  
> 2019 10  9  7 18 50.9970000  0 15                     
G 5  21663803.924   113843958.156       -3080.848          43.000  
G13  20942625.356   110054239.637       -2594.448          46.000  
G15  19581165.720   102899703.572        -794.219          43.000  
G24  19999828.639   105099802.353        1800.348          43.000  
G28  23723429.025   124667471.807        -852.925          41.000  
R 5  20546926.617   109835055.577       -2086.948          44.000  
R15  20523614.829   109671905.9941      -2881.120          27.000  
J 2  36100824.894   189711121.648        -425.189          36.000  
R16  18966731.925   101316814.693        1216.498          38.000  
G20  22159125.126   116446827.821        2687.191          29.000  
R 6  19354609.775                         710.352          23.000  
R 7  22291269.544                        2158.213          27.000  
R 9  22373209.789   119471560.638        3920.013          42.000  
R21  21426657.236                       -3377.366          24.000  
J 3  36883577.061   193824522.234        -836.400          35.000  
> 2019 10  9  7 18 51.9970000  0 15                     
G 5  21664389.954   113847039.218       -3081.407          42.000  
G13  20943119.389   110056834.238       -2594.845          46.000  
G15  19581317.345   102900497.901        -794.541          43.000  
G24  19999486.440   105098002.227        1799.829          43.000  
G28  23723591.364   124668324.779        -853.348          41.000  
R 5  20547317.851   109837142.797       -2087.356          45.000  
R15  20524158.753   109674787.292       -2881.861          28.000  
J 2  36100906.038   189711546.631        -425.015          36.000  
R16  18966504.218   101315598.840        1215.279          38.000  
G20  22158614.759   116444140.625        2687.503          29.000  
R 6  19354473.506                         705.894          22.000  
R 7  22290866.688   119324725.2883       2158.887          26.000  
R 9  22372476.129   119467640.625        3919.718          42.000  
R21  21427292.791                       -3378.693          24.000  
J 3  36883735.946   193825358.174        -836.388          35.000  
> 2019 10  9  7 18 52.9970000  0 15                     
G 5  21664975.653   113850120.522       -3081.458          42.000  
G13  20943613.108   110059428.888       -2594.945          46.000  
G15  19581468.481   102901292.447        -794.851          43.000  
G24  19999144.032   105096202.582        1799.237          43.000  
G28  23723753.738   124669178.225        -853.964          41.000  
R 5  20547708.544   109839230.188       -2087.464          45.000  
R15  20524716.322   109677669.241       -2882.552          30.000  
J 2  36100987.077   189711971.676        -425.141          36.000  
R16  18966276.824   101314383.799        1214.481          38.000  
G20  22158101.566   116441453.521        2686.734          28.000  
R 6  19354340.570                         699.453          21.000  
R 7  22290461.180   119322565.7921       2159.215          26.000  
R 9  22371741.929   119463720.582        3920.018          42.000  
R21  21427930.177                       -3375.083          23.000  
J 3  36883894.725   193826193.986        -835.919          34.000  
> 2019 10  9  7 18 53.9970000  0 15                     
G 5  21665561.492   113853202.229       -3081.930          42.000  
G13  20944106.600   110062023.784       -2595.139          46.000  
G15  19581620.455   102902087.410        -795.347          43.000  
G24  19998801.606   105094403.530        1798.822          43.000  
G28  23723916.270   124670032.263        -854.256          41.000  
R 5  20548099.184   109841317.956       -2087.875          45.000  
R15  20525264.241   109680552.075       -2883.016          30.000  
J 2  36101068.115   189712396.891        -425.113          35.000  
R16  18966049.168   101313169.743        1213.421          38.000  
G20  22157590.676   116438766.580        2686.974          28.000  
R 6  19354207.058                         702.892          21.000  
R 7  22290054.799   119320406.886        2158.649          25.000  
R 9  22371007.973   119459800.731        3919.879          42.000  
R21  21428570.181                       -3379.290          23.000  
J 3  36884053.540   193827029.861        -835.591          34.000  
> 2019 10  9  7 18 54.9970000  0 15                     
G 5  21666147.470   113856284.209       -3082.149          42.000  
G13  20944600.145   110064618.754       -2595.069          46.000  
G15  19581771.818   102902882.576        -795.338          43.000  
G24  19998459.338   105092604.994        1798.517          42.000  
G28  23724078.766   124670886.786        -855.026          41.000  
R 5  20548490.052   109843405.920       -2088.037          45.000  
R15  20525810.381   109683435.624       -2884.096          31.000  
J 2  36101148.648   189712822.186        -425.537          35.000  
R16  18965821.722   101311956.475        1213.197          38.000  
G20  22157083.660   116436079.755        2686.259          28.000  
R 6  19354077.107                         707.698          20.000  
R 7  22289650.146                        2158.030          24.000  
R 9  22370273.336   119455880.900        3919.942          42.000  
R21  21429209.069                       -3377.540          23.000  
J 3  36884212.406   193827865.631        -835.676          34.000  
> 2019 10  9  7 18 55.9970000  0 15                     
G 5  21666733.152   113859366.431       -3082.511          42.000  
G13  20945093.724   110067213.806       -2595.355          46.000  
G15  19581923.513   102903677.975        -795.557          43.000  
G24  19998117.191   105090806.950        1797.797          42.000  
G28  23724241.350   124671741.744        -855.410          41.000  
R 5  20548880.762   109845494.048       -2088.336          45.000  
R15  20526356.293   109686319.801       -2885.845          31.000  
J 2  36101229.216   189713247.490        -425.413          36.000  
R16  18965594.677   101310743.996        1211.986          38.000  
G20  22156572.857   116433393.021        2686.334          28.000  
R 6  19353944.939                         710.042          19.000  
R 7  22289246.558                        2159.889          24.000  
R 9  22369538.769   119451961.069        3919.800          42.000  
R21  21429849.300                       -3381.278          22.000  
J 3  36884371.308   193828701.326        -835.874          34.000  
> 2019 10  9  7 18 56.9970000  0 16                     
G 5  21667318.746   113862448.984       -3083.073          42.000  
G13  20945587.635   110069808.999       -2595.503          46.000  
G15  19582074.946   102904473.669        -795.912          43.000  
G24  19997775.307   105089009.423        1797.150          42.000  
G28  23724404.230   124672597.227        -855.758          41.000  
R 5  20549271.246   109847582.416       -2088.625          45.000  
R15  20526898.123   109689204.652       -2884.734          32.000  
J 2  36101310.464   189713672.907        -425.613          35.000  
R16  18965367.650   101309532.388        1210.795          38.000  
G20  22156065.614   116430706.335        2686.431          28.000  
R22  21959411.437                         -56.781          25.000  
R 6  19353812.666                         699.937          18.000  
R 7  22288841.329                        2159.864          24.000  
R 9  22368804.342   119448041.308        3919.562          42.000  
R21  21430487.995                       -3374.784          21.000  
J 3  36884530.454   193829536.960        -835.874          34.000  
> 2019 10  9  7 18 57.9970000  0 15                     
G 5  21667904.097   113865531.845       -3082.546          42.000  
G13  20946081.459   110072404.321       -2595.130          46.000  
G15  19582226.431   102905269.656        -795.733          43.000  
G24  19997432.951   105087212.400        1797.223          42.000  
G28  23724566.936   124673453.234        -856.123          41.000  
R 5  20549662.183   109849671.016       -2088.402          45.000  
R15  20527442.709   109692090.337       -2886.080          33.000  
J 2  36101391.328   189714098.446        -425.232          36.000  
R16  18965140.850   101308321.591        1210.688          38.000  
G20  22155554.742   116428019.822        2686.919          28.000  
R22  21959421.820                         -54.935          25.000  
R 6  19353678.683                         700.663          16.000  
R 7  22288435.384                        2159.064          23.000  
R 9  22368070.089   119444121.641        3919.814          41.000  
J 3  36884689.251   193830372.575        -835.420          34.000  
> 2019 10  9  7 18 58.9970000  0 15                     
G 5  21668489.499   113868614.401       -3082.681          42.000  
G13  20946575.178   110074999.164       -2594.753          46.000  
G15  19582377.498   102906065.318        -795.716          42.000  
G24  19997090.874   105085415.238        1797.137          42.000  
G28  23724729.816   124674309.143        -855.981          41.000  
R 5  20550052.614   109851759.224       -2088.160          45.000  
R15  20527987.854   109694976.109       -2885.886          34.000  
J 2  36101472.402   189714523.425        -424.738          36.000  
R16  18964914.293   101307111.046        1209.932          39.000  
G20  22155043.345   116425332.822        2686.948          29.000  
R22  21959432.238                         -57.123          25.000  
R 6  19353545.172                         707.675          15.000  
R 7  22288030.504                        2162.430          23.000  
R 9  22367335.574   119440201.394        3920.281          41.000  
J 3  36884847.943   193831207.471        -834.559          34.000  
> 2019 10  9  7 18 59.9970000  0 15                     
G 5  21669075.599   113871697.606       -3083.491          41.000  
G13  20947069.211   110077594.506       -2595.631          46.000  
G15  19582528.634   102906861.606        -796.267          42.000  
G24  19996748.972   105083618.979        1795.856          42.000  
G28  23724892.766   124675165.905        -857.029          41.000  
R 5  20550443.045   109853848.063       -2089.414          45.000  
R15  20528528.479   109697862.968       -2886.556          35.000  
J 2  36101553.197   189714948.895        -425.906          35.000  
R16  18964687.720   101305901.717        1208.591          39.000  
G20  22154532.857   116422646.300        2686.287          29.000  
R22  21959443.877                         -57.865          26.000  
R 6  19353413.580                         707.675          13.000  
R 7  22287629.271                        2158.418          23.000  
R 9  22366600.798   119436281.615        3919.346          41.000  
J 3  36885006.827   193832042.743        -835.876          34.000  
> 2019 10  9  7 19  0.9970000  0 14                     
G 5  21669661.962   113874781.644       -3084.048          41.000  
G13  20947563.052   110080190.474       -2595.865          46.000  
G15  19582679.840   102907658.717        -796.970          42.000  
G24  19996407.122   105081823.751        1795.123          42.000  
G28  23725056.153   124676023.698        -857.591          41.000  
R 5  20550833.581   109855937.663       -2089.574          45.000  
R15  20529070.937   109700751.126       -2888.746          35.000  
J 2  36101634.113   189715374.962        -425.913          35.000  
R16  18964461.478   101304693.764        1207.855          39.000  
G20  22154019.262   116419960.396        2686.165          29.000  
R22  21959455.970                         -60.230          26.000  
R 7  22287228.457                        2159.423          23.000  
R 9  22365866.580   119432362.412        3919.264          41.000  
J 3  36885165.712   193832878.412        -834.787          34.000  
> 2019 10  9  7 19  1.9970000  0 14                     
G 5  21670248.533   113877865.961       -3084.170          41.000  
G13  20948057.242   110082786.593       -2596.029          46.000  
G15  19582831.378   102908456.119        -797.552          42.000  
G24  19996065.395   105080029.051        1794.372          42.000  
G28  23725219.417   124676882.018        -858.604          41.000  
R 5  20551224.396   109858027.551       -2090.202          45.000  
R15  20529611.457   109703639.952       -2889.371          35.000  
J 2  36101715.257   189715801.091        -426.165          36.000  
R16  18964235.497   101303486.664        1206.314          39.000  
G20  22153507.028   116417274.656        2685.494          29.000  
R22  21959466.510                         -60.600          27.000  
R 7  22286826.806                        2158.848          24.000  
R 9  22365132.013   119428443.277        3919.062          41.000  
J 3  36885324.352   193833714.083        -835.153          34.000  
> 2019 10  9  7 19  2.9970000  0 14                     
G 5  21670835.087   113880950.626       -3084.818          40.000  
G13  20948551.624   110085382.837       -2596.352          46.000  
G15  19582982.741   102909253.784        -797.700          41.000  
G24  19995724.208   105078234.887        1794.049          42.000  
G28  23725382.611   124677740.851        -859.169          41.000  
R 5  20551615.264   109860117.673       -2090.584          44.000  
R15  20530152.431   109706529.508       -2889.849          35.000  
J 2  36101796.208   189716227.334        -426.462          35.000  
R16  18964009.534   101302280.393        1205.918          40.000  
G20  22152995.196   116414589.026        2685.208          29.000  
R22  21959477.818   117221108.8842        -60.944          28.000  
R 7  22286426.253                        2159.187          25.000  
R 9  22364397.708   119424524.188        3919.051          41.000  
J 3  36885483.323   193834549.714        -835.811          34.000  
> 2019 10  9  7 19  3.9970000  0 14                     
G 5  21671421.520   113884035.460       -3085.499          41.000  
G13  20949045.727   110087979.075       -2596.457          46.000  
G15  19583134.192   102910051.614        -798.128          41.000  
G24  19995382.376   105076441.087        1793.420          42.000  
G28  23725545.928   124678600.054        -859.628          42.000  
R 5  20552005.799   109862207.861       -2090.660          44.000  
R15  20530693.266   109709419.667       -2890.552          36.000  
J 2  36101877.020   189716653.527        -426.289          37.000  
R16  18963784.165   101301074.848        1205.192          40.000  
G20  22152482.404   116411903.319        2685.716          29.000  
R22  21959490.365   117221170.5602        -62.284          28.000  
R 7  22286024.549                        2158.231          25.000  
R 9  22363663.542   119420605.069        3919.027          41.000  
J 3  36885642.155   193835385.133        -835.594          34.000  
> 2019 10  9  7 19  4.9970000  0 14                     
G 5  21672008.370   113887120.460       -3085.174          41.000  
G13  20949539.743   110090575.337       -2596.382          46.000  
G15  19583285.642   102910849.608        -798.207          41.000  
G24  19995041.172   105074647.691        1793.176          42.000  
G28  23725709.367   124679459.657        -859.991          42.000  
R 5  20552396.614   109864298.172       -2090.433          44.000  
R15  20531234.537   109712310.454       -2891.233          37.000  
J 2  36101958.391   189717079.714        -426.036          37.000  
R16  18963558.708   101299870.042        1204.210          40.000  
G20  22151970.537   116409217.708        2685.370          29.000  
R22  21959504.395   117221232.4891        -62.984          29.000  
R 7  22285623.125                        2159.738          25.000  
R 9  22362929.115   119416685.899        3919.071          41.000  
J 3  36885801.039   193836220.382        -834.906          33.000  
> 2019 10  9  7 19  5.9970000  0 14                     
G 5  21672595.082   113890205.696       -3085.567          40.000  
G13  20950033.916   110093171.659       -2596.436          47.000  
G15  19583437.110   102911647.819        -798.181          41.000  
G24  19994699.915   105072854.771        1792.456          42.000  
G28  23725873.207   124680319.686        -860.473          42.000  
R 5  20552787.290   109866388.658       -2090.893          44.000  
R15  20531775.633   109715201.910       -2892.103          37.000  
J 2  36102039.552   189717505.907        -426.142          37.000  
R16  18963333.635   101298665.996        1203.297          40.000  
G20  22151457.640   116406532.149        2685.114          29.000  
R22  21959514.830   117221295.623         -63.429          30.000  
R 7  22285218.472                        2159.609          26.000  
R 9  22362194.793   119412766.701        3919.132          42.000  
J 3  36885960.011   193837055.550        -835.236          34.000  
> 2019 10  9  7 19  6.9970000  0 14                     
G 5  21673182.526   113893291.264       -3085.774          40.000  
G13  20950528.158   110095768.135       -2596.611          47.000  
G15  19583588.595   102912446.367        -798.814          40.000  
G24  19994358.589   105071062.370        1791.949          42.000  
G28  23726036.785   124681180.245        -860.692          41.000  
R 5  20553178.349   109868479.417       -2091.100          44.000  
R15  20532317.358   109718094.102       -2892.507          38.000  
J 2  36102120.922   189717932.284        -426.802          37.000  
R16  18963108.737   101297462.833        1202.575          40.000  
G20  22150944.377   116403846.670        2685.392          29.000  
R22  21959530.064   117221359.672         -65.495          30.000  
R 7  22284816.471                        2158.934          26.000  
R 9  22361460.522   119408847.634        3919.051          42.000  
J 3  36886119.035   193837890.680        -835.155          34.000  
> 2019 10  9  7 19  7.9970000  0 14                     
G 5  21673769.411   113896377.111       -3085.802          40.000  
G13  20951022.418   110098364.692       -2596.121          47.000  
G15  19583740.290   102913245.113        -798.405          40.000  
G24  19994017.280   105069270.473        1791.998          42.000  
G28  23726200.346   124682041.295        -861.017          41.000  
R 5  20553569.566   109870570.367       -2090.693          45.000  
R15  20532859.065   109720986.989       -2892.942          38.000  
J 2  36102202.135   189718358.649        -426.408          37.000  
R16  18962884.135   101296260.474        1202.290          40.000  
G20  22150432.090   116401161.317        2685.741          28.000  
R22  21959543.291   117221424.403         -64.393          30.000  
R 7  22284414.139   119290185.9153       2160.535          27.000  
R 9  22360726.374   119404928.569        3919.535          42.000  
J 3  36886277.744   193838725.678        -834.155          34.000  
> 2019 10  9  7 19  8.9970000  0 14                     
G 5  21674356.454   113899462.750       -3086.218          40.000  
G13  20951516.469   110100960.890       -2596.686          47.000  
G15  19583892.037   102914043.654        -798.830          40.000  
G24  19993675.971   105067478.572        1791.595          42.000  
G28  23726363.907   124682902.341        -861.761          41.000  
R 5  20553960.852   109872661.058       -2091.144          45.000  
R15  20533400.266   109723880.075       -2893.885          38.000  
J 2  36102283.157   189718784.589        -426.191          37.000  
R16  18962659.463   101295058.465        1201.492          40.000  
G20  22149919.281   116398475.602        2685.227          29.000  
R22  21959547.619   117221489.543         -65.659          29.000  
R 7  22284014.075   119288025.509        2160.440          28.000  
R 9  22359992.523   119401009.065        3919.197          42.000  
J 3  36886436.506   193839560.185        -835.069          34.000  
> 2019 10  9  7 19  9.9970000  0 16                     
G 5  21674943.951   113902549.153       -3087.019          41.000  
G13  20952010.519   110103557.661       -2597.390          47.000  
G15  19584044.151   102914842.929        -799.782          41.000  
G24  19993335.238   105065687.673        1790.039          42.000  
G28  23726527.852   124683764.341        -862.544          41.000  
R 5  20554352.330   109874752.430       -2091.996          45.000  
R15  20533942.200   109726774.364       -2895.447          38.000  
J 2  36102364.213   189719211.104        -427.315          37.000  
R16  18962435.193   101293857.804        1199.657          40.000  
G20  22149404.883   116395790.422        2684.730          28.000  
R22  21959558.036   117221555.955         -67.024          29.000  
R 6  19352108.914                         702.440          14.000  
R 7  22283613.121   119285865.512        2159.794          29.000  
R 9  22359258.671   119397090.107        3918.461          43.000  
R21  21438728.791                       -3387.121          26.000  
J 3  36886595.565   193840395.049        -835.661          34.000  
> 2019 10  9  7 19 10.9970000  0 16                     
G 5  21675531.273   113905636.426       -3087.584          41.000  
G13  20952504.832   110106155.140       -2597.539          47.000  
G15  19584196.386   102915643.058        -800.379          41.000  
G24  19992994.715   105063897.846        1789.471          42.000  
G28  23726692.058   124684627.441        -863.474          41.000  
R 5  20554743.896   109876844.610       -2092.361          45.000  
R15  20534484.308   109729669.967       -2895.956          39.000  
J 2  36102445.670   189719638.278        -427.291          37.000  
R16  18962211.010   101292658.550        1198.508          41.000  
G20  22148897.623   116393105.949        2684.156          28.000  
R22  21959569.990   117221623.680         -67.434          28.000  
R 6  19351975.717                         702.362          17.000  
R 7  22283215.431                        2159.252          29.000  
R 9  22358524.837   119393171.800        3918.332          43.000  
R21  21439363.351                       -3388.141          26.000  
J 3  36886754.484   193841230.433        -835.243          34.000  
> 2019 10  9  7 19 11.9970000  0 16                     
G 5  21676118.752   113908724.170       -3087.940          41.000  
G13  20952998.934   110108752.924       -2598.002          46.000  
G15  19584348.552   102916443.644        -800.856          41.000  
G24  19992654.296   105062108.730        1788.672          42.000  
G28  23726856.422   124685491.224        -864.260          41.000  
R 5  20555135.653   109878937.212       -2092.921          45.000  
R15  20535026.452   109732566.460       -2896.877          39.000  
J 2  36102527.198   189720065.709        -427.810          37.000  
R16  18961986.897   101291460.286        1197.694          41.000  
G20  22148387.780   116390421.767        2683.800          29.000  
R22  21959580.914   117221692.531         -69.148          27.000  
R 6  19351844.124                         704.745          18.000  
R 7  22282819.625   119281610.7363       2156.966          30.000  
R 9  22357791.282   119389253.725        3917.914          43.000  
R21  21439996.322   114729723.5683      -3387.794          27.000  
J 3  36886913.648   193842065.992        -836.010          34.000  
> 2019 10  9  7 19 12.9970000  0 16                     
G 5  21676706.301   113911812.209       -3087.961          41.000  
G13  20953493.299   110111350.810       -2597.918          46.000  
G15  19584501.119   102917244.489        -800.769          41.000  
G24  19992314.226   105060320.103        1788.562          42.000  
G28  23727020.925   124686355.488        -864.322          41.000  
R 5  20555527.498   109881030.044       -2092.702          45.000  
R15  20535568.700   109735463.634       -2897.418          38.000  
J 2  36102608.429   189720493.217        -427.424          37.000  
R16  18961763.011   101290262.846        1197.352          41.000  
G20  22147874.447   116387737.682        2684.118          29.000  
R22  21959590.075   117221762.185         -70.225          27.000  
R 6  19351710.560                         695.998          17.000  
R 7  22282419.055   119279451.236        2159.036          30.000  
R 9  22357057.728   119385335.693        3918.147          43.000  
R21  21440631.632   114733111.412       -3387.908          28.000  
J 3  36887072.863   193842901.420        -835.392          34.000  
> 2019 10  9  7 19 13.9970000  0 16                     
G 5  21677294.198   113914900.510       -3088.649          41.000  
G13  20953987.507   110113948.798       -2598.012          46.000  
G15  19584653.617   102918045.576        -801.210          41.000  
G24  19991974.034   105058531.986        1787.659          42.000  
G28  23727185.498   124687220.242        -864.777          41.000  
R 5  20555919.377   109883123.103       -2093.190          45.000  
R15  20536111.000   109738361.513       -2898.380          38.000  
J 2  36102689.520   189720920.798        -427.769          37.000  
R16  18961539.404   101289066.262        1195.958          41.000  
G20  22147362.562   116385053.687        2684.019          29.000  
R22  21959600.615   117221832.598         -70.547          27.000  
R 6  19351578.078                         700.834          18.000  
R 7  22282017.002   119277291.752        2159.178          30.000  
R 9  22356324.173   119381417.693        3917.655          44.000  
R21  21441265.512   114736499.665       -3388.332          28.000  
J 3  36887231.992   193843736.799        -835.769          34.000  
> 2019 10  9  7 19 14.9970000  0 16                     
G 5  21677882.201   113917989.084       -3088.700          41.000  
G13  20954482.046   110116546.887       -2598.208          46.000  
G15  19584806.341   102918846.909        -801.369          41.000  
G24  19991633.772   105056744.336        1787.213          42.000  
G28  23727350.001   124688085.486        -865.508          41.000  
R 5  20556311.222   109885216.366       -2093.253          45.000  
R15  20536653.109   109741260.124       -2899.066          38.000  
J 2  36102770.733   189721348.400        -426.986          36.000  
R16  18961315.535   101287870.486        1195.462          40.000  
G20  22146850.486   116382369.791        2684.139          29.000  
R22  21959611.853   117221903.795         -71.060          27.000  
R 6  19351445.631                         710.795          17.000  
R 7  22281614.426   119275132.100        2159.377          30.000  
R 9  22355590.548   119377499.725        3918.017          43.000  
R21  21441896.703   114739888.405       -3389.378          28.000  
J 3  36887390.911   193844572.076        -835.741          34.000  
> 2019 10  9  7 19 15.9970000  0 16                     
G 5  21678470.238   113921077.862       -3089.368          41.000  
G13  20954976.428   110119144.997       -2598.370          46.000  
G15  19584958.961   102919648.446        -801.981          41.000  
G24  19991293.458   105054957.097        1786.664          42.000  
G28  23727514.609   124688951.140        -866.213          41.000  
R 5  20556703.136   109887309.782       -2093.677          45.000  
R15  20537195.636   109744159.385       -2900.028          38.000  
J 2  36102852.103   189721776.068        -428.077          36.000  
R16  18961091.771   101286675.484        1194.233          40.000  
G20  22146338.077   116379685.926        2683.732          29.000  
R22  21959623.335   117221975.801         -72.886          27.000  
R 6  19351312.538                         704.142          18.000  
R 7  22281210.855   119272972.296        2160.652          30.000  
R 9  22354857.203   119373581.750        3917.595          44.000  
R21  21442528.628   114743277.482       -3389.649          28.000  
J 3  36887549.848   193845407.197        -835.731          34.000  
> 2019 10  9  7 19 16.9970000  0 16                     
G 5  21679058.503   113924166.970       -3089.158          42.000  
G13  20955470.636   110121743.277       -2598.141          46.000  
G15  19585111.668   102920450.279        -801.832          41.000  
G24  19990953.214   105053170.417        1786.755          42.000  
G28  23727679.374   124689817.317        -866.206          41.000  
R 5  20557095.086   109889403.465       -2093.479          45.000  
R15  20537737.919   109747059.345       -2899.944          38.000  
J 2  36102933.893   189722203.782        -427.503          36.000  
R16  18960867.972   101285481.310        1194.001          40.000  
G20  22145826.140   116377002.239        2683.885          29.000  
R22  21959637.435   117222048.557         -73.153          27.000  
R 6  19351180.877                         707.792          18.000  
R 7  22280811.698   119270812.528        2160.182          30.000  
R 9  22354123.700   119369663.847        3918.136          44.000  
R21  21443160.151   114746667.099       -3389.791          28.000  
J 3  36887708.854   193846242.282        -834.649          34.000  
> 2019 10  9  7 19 17.9970000  0 16                     
G 5  21679646.715   113927256.419       -3089.268          42.000  
G13  20955964.931   110124341.717       -2597.982          46.000  
G15  19585264.287   102921252.457        -801.882          41.000  
G24  19990613.074   105051384.306        1786.133          42.000  
G28  23727844.279   124690684.053        -866.567          41.000  
R 5  20557487.105   109891497.410       -2093.664          45.000  
R15  20538280.202   109749960.080       -2900.785          37.000  
J 2  36103015.542   189722631.662        -427.355          36.000  
R16  18960644.225   101284288.016        1193.438          40.000  
G20  22145312.476   116374318.689        2683.561          29.000  
R22  21959652.878   117222122.219         -73.929          27.000  
R 6  19351047.592                         694.544          19.000  
R 7  22280414.235   119268652.772        2160.204          29.000  
R 9  22353390.215   119365746.089        3918.059          44.000  
R21  21443791.518   114750057.228       -3390.511          27.000  
J 3  36887867.773   193847077.404        -834.782          35.000  
> 2019 10  9  7 19 18.9970000  0 16                     
G 5  21680234.874   113930345.609       -3089.346          43.000  
G13  20956458.911   110126939.748       -2598.076          46.000  
G15  19585416.907   102922054.360        -802.029          41.000  
G24  19990272.725   105049598.192        1785.797          42.000  
G28  23728009.166   124691550.759        -867.176          41.000  
R 5  20557879.141   109893591.043       -2093.694          45.000  
R15  20538822.450   109752860.986       -2901.301          37.000  
J 2  36103096.982   189723059.078        -427.438          36.000  
R16  18960420.321   101283095.021        1192.688          40.000  
G20  22144799.387   116371634.702        2684.100          28.000  
R22  21959668.008   117222196.094         -73.945          27.000  
R 6  19350915.057                         696.529          20.000  
R 7  22280006.458   119266492.405        2160.293          29.000  
R 9  22352656.329   119361827.847        3918.141          44.000  
R21  21444418.190   114753447.226       -3390.096          27.000  
J 3  36888026.762   193847911.920        -834.592          34.000  
> 2019 10  9  7 19 19.9970000  0 16                     
G 5  21680823.016   113933435.452       -3090.086          43.000  
G13  20956953.189   110129538.243       -2598.998          46.000  
G15  19585569.666   102922856.866        -802.716          41.000  
G24  19989933.109   105047812.896        1784.668          42.000  
G28  23728174.193   124692418.305        -867.952          41.000  
R 5  20558270.881   109895685.247       -2094.451          45.000  
R15  20539364.872   109755762.946       -2901.878          37.000  
J 2  36103178.457   189723486.928        -428.315          36.000  
R16  18960196.784   101281903.234        1190.976          40.000  
G20  22144288.323   116368951.146        2683.766          28.000  
R22  21959684.865   117222271.198         -75.677          27.000  
R 6  19350782.244                         702.414          20.000  
R 7  22279602.189   119264332.287        2159.684          29.000  
R 9  22351923.001   119357909.978        3917.728          44.000  
R21  21445048.108   114756838.051       -3391.138          27.000  
J 3  36888185.437   193848746.662        -835.006          34.000  
> 2019 10  9  7 19 20.9970000  0 16                     
G 5  21681411.176   113936526.116       -3090.696          43.000  
G13  20957447.658   110132137.375       -2599.029          46.000  
G15  19585722.303   102923660.201        -803.628          40.000  
G24  19989593.406   105046028.652        1784.180          42.000  
G28  23728339.289   124693286.881        -868.671          41.000  
R 5  20558662.866   109897780.235       -2094.933          45.000  
R15  20539907.469   109758666.193       -2903.470          37.000  
J 2  36103260.124   189723915.390        -428.307          35.000  
R16  18959973.718   101280712.850        1189.988          40.000  
G20  22143775.251   116366268.313        2682.701          28.000  
R22  21959703.432   117222347.657         -77.063          27.000  
R 6  19350649.273                         698.090          21.000  
R 7  22279201.689   119262172.624        2159.577          29.000  
R 9  22351189.551   119353992.726        3917.268          44.000  
R21  21445678.148   114760229.936       -3391.770          26.000  
J 3  36888344.583   193849581.922        -834.818          34.000  
> 2019 10  9  7 19 21.9970000  0 16                     
G 5  21681998.952   113939617.163       -3091.266          43.000  
G13  20957942.319   110134736.722       -2599.333          46.000  
G15  19585875.254   102924463.885        -803.926          40.000  
G24  19989254.296   105044245.026        1783.215          42.000  
G28  23728504.508   124694156.041        -869.641          41.000  
R 5  20559055.112   109899875.561       -2095.572          45.000  
R15  20540450.206   109761570.231       -2904.791          37.000  
J 2  36103341.826   189724344.042        -428.416          35.000  
R16  18959751.001   101279523.378        1188.942          40.000  
G20  22143263.349   116363585.629        2682.443          28.000  
R22  21959720.899   117222425.031         -78.098          27.000  
R 6  19350521.956                         705.793          23.000  
R 7  22278798.152   119260012.994        2159.848          28.000  
R 9  22350456.206   119350075.603        3917.109          44.000  
R21  21446308.223   114763622.392       -3392.920          26.000  
J 3  36888503.450   193850417.215        -835.548          34.000  
> 2019 10  9  7 19 22.9970000  0 16                     
G 5  21682586.972   113942708.543       -3091.480          43.000  
G13  20958437.068   110137336.228       -2599.349          46.000  
G15  19586028.310   102925267.883        -804.088          40.000  
G24  19988915.063   105042461.926        1782.977          42.000  
G28  23728669.831   124695025.738        -869.719          41.000  
R 5  20559447.776   109901971.152       -2095.718          45.000  
R15  20540992.838   109764474.991       -2904.904          36.000  
J 2  36103423.336   189724772.792        -428.761          36.000  
R16  18959528.266   101278334.794        1188.215          40.000  
G20  22142749.545   116360903.143        2681.968          28.000  
R22  21959740.042   117222503.201         -78.384          27.000  
R 6  19350396.454                         699.594          24.000  
R 7  22278396.082   119257853.312        2160.313          28.000  
R 9  22349723.157   119346158.614        3917.035          44.000  
R21  21446940.549   114767015.268       -3392.804          26.000  
J 3  36888662.229   193851252.472        -834.738          35.000  
> 2019 10  9  7 19 23.9970000  0 16                     
G 5  21683174.974   113945800.181       -3091.728          43.000  
G13  20958931.851   110139935.842       -2599.701          46.000  
G15  19586181.506   102926072.125        -804.679          40.000  
G24  19988575.953   105040679.321        1782.471          42.000  
G28  23728835.469   124695895.926        -870.606          41.000  
R 5  20559839.848   109904066.931       -2095.792          45.000  
R15  20541535.714   109767380.475       -2905.434          36.000  
J 2  36103504.916   189725201.580        -428.557          36.000  
R16  18959305.689   101277147.013        1187.168          40.000  
G20  22142241.901   116358220.667        2682.440          29.000  
R22  21959758.225   117222582.261         -79.268          27.000  
R 6  19350269.853                         700.941          26.000  
R 7  22277992.493   119255693.607        2159.905          27.000  
R 9  22348989.951   119342241.653        3916.801          44.000  
R21  21447574.289   114770408.718       -3394.417          26.000  
J 3  36888821.201   193852087.645        -835.010          35.000  
> 2019 10  9  7 19 24.9970000  0 16                     
G 5  21683762.924   113948892.135       -3092.233          44.000  
G13  20959426.844   110142535.570       -2599.977          46.000  
G15  19586334.771   102926876.634        -804.215          40.000  
G24  19988237.000   105038897.234        1781.757          42.000  
G28  23729001.438   124696766.611        -871.202          41.000  
R 5  20560232.111   109906162.950       -2096.298          45.000  
R15  20542078.346   109770286.687       -2906.496          36.000  
J 2  36103586.810   189725630.519        -429.141          36.000  
R16  18959083.303   101275960.070        1186.460          40.000  
G20  22141733.105   116355538.329        2682.442          29.000  
R22  21959776.164   117222662.087         -80.297          28.000  
R 6  19350143.339                         700.248          27.000  
R 7  22277591.034   119253533.841        2159.950          26.000  
R 9  22348256.501   119338324.762        3916.762          44.000  
R21  21448209.023   114773802.500       -3393.828          27.000  
J 3  36888980.120   193852922.786        -835.036          35.000  
> 2019 10  9  7 19 25.9970000  0 16                     
G 5  21684351.119   113951984.359       -3092.368          44.000  
G13  20959922.047   110145135.405       -2599.914          46.000  
G15  19586487.914   102927681.436        -805.149          41.000  
G24  19987897.925   105037115.652        1781.311          42.000  
G28  23729167.093   124697637.800        -871.779          41.000  
R 5  20560624.776   109908259.178       -2096.372          45.000  
R15  20542621.397   109773193.603       -2907.217          36.000  
J 2  36103668.966   189726059.479        -429.095          36.000  
R16  18958861.109   101274773.974        1185.473          40.000  
G20  22141223.523   116352856.179        2681.576          29.000  
R22  21959796.372   117222742.741         -80.724          28.000  
R 6  19350015.848   103255296.8843        699.591          28.000  
R 7  22277187.288   119251374.040        2159.587          26.000  
R 9  22347523.365   119334407.892        3916.949          44.000  
R21  21448846.392   114777196.831       -3394.647          27.000  
J 3  36889138.917   193853757.854        -835.188          35.000  
> 2019 10  9  7 19 26.9970000  0 16                     
G 5  21684938.912   113955076.822       -3092.797          44.000  
G13  20960416.987   110147735.313       -2600.183          46.000  
G15  19586641.319   102928486.431        -805.480          41.000  
G24  19987559.112   105035334.555        1780.621          42.000  
G28  23729333.376   124698509.427        -872.265          41.000  
R 5  20561017.162   109910355.592       -2096.721          45.000  
R15  20543164.745   109776101.219       -2908.281          36.000  
J 2  36103750.929   189726488.465        -429.004          36.000  
R16  18958639.247   101273588.664        1184.566          41.000  
G20  22140717.484   116350173.982        2682.045          29.000  
R22  21959816.753   117222824.218         -82.101          28.000  
R 6  19349886.786   103254596.795         699.979          28.000  
R 7  22276783.455   119249213.957        2159.819          25.000  
R 9  22346789.897   119330491.040        3916.687          44.000  
R21  21449481.266   114780591.525       -3395.129          27.000  
J 3  36889297.784   193854592.788        -834.784          35.000  
> 2019 10  9  7 19 27.9970000  0 16                     
G 5  21685527.054   113958169.558       -3092.583          44.000  
G13  20960912.120   110150335.308       -2599.787          46.000  
G15  19586794.793   102929291.686        -805.199          41.000  
G24  19987220.368   105033553.940        1780.627          43.000  
G28  23729499.606   124699381.539        -872.245          41.000  
R 5  20561410.018   109912452.237       -2096.543          45.000  
R15  20543708.563   109779009.506       -2908.608          35.000  
J 2  36103832.492   189726917.546        -428.923          37.000  
R16  18958417.403   101272404.169        1184.383          41.000  
G20  22140215.180   116347491.951        2681.956          30.000  
R22  21959835.303   117222906.463         -82.460          29.000  
R 6  19349757.078   103253896.912         700.077          29.000  
R 7  22276379.099                        2160.773          24.000  
R 9  22346056.587   119326574.250        3916.959          44.000  
R21  21450116.105   114783986.674       -3395.215          28.000  
J 3  36889456.860   193855427.671        -834.726          35.000  
> 2019 10  9  7 19 28.9970000  0 16                     
G 5  21686115.318   113961261.940       -3092.493          44.000  
G13  20961406.973   110152934.775       -2599.480          46.000  
G15  19586948.408   102930096.563        -805.370          41.000  
G24  19986881.310   105031773.170        1780.481          43.000  
G28  23729665.750   124700253.499        -872.207          41.000  
R 5  20561802.509   109914548.444       -2096.342          45.000  
R15  20544252.486   109781917.816       -2908.792          36.000  
J 2  36103913.949   189727346.045        -428.894          37.000  
R16  18958195.907   101271219.876        1183.897          41.000  
G20  22139708.583   116344809.336        2682.352          30.000  
R22  21959855.161   117222988.801         -82.892          29.000  
R 6  19349626.638   103253196.602         699.928          28.000  
R 7  22275976.365                        2167.534          22.000  
R 9  22345322.858   119322656.854        3917.281          44.000  
R21  21450751.293   114787381.596       -3394.560          28.000  
J 3  36889615.325   193856261.811        -834.176          35.000  
> 2019 10  9  7 19 29.9970000  0 16                     
G 5  21686703.548   113964354.996       -3093.923          44.000  
G13  20961902.001   110155534.732       -2600.629          46.000  
G15  19587102.162   102930902.065        -806.346          41.000  
G24  19986542.619   105029993.294        1779.260          42.000  
G28  23729832.155   124701126.325        -873.547          41.000  
R 5  20562195.034   109916645.252       -2097.408          45.000  
R15  20544796.619   109784827.207       -2910.687          36.000  
J 2  36103995.721   189727774.992        -429.411          37.000  
R16  18957974.464   101270036.796        1182.312          41.000  
G20  22139197.361   116342127.248        2681.157          30.000  
R22  21959874.409   117223072.384         -84.197          28.000  
R 6  19349492.952   103252496.754         699.121          28.000  
R 7  22275573.125                        2168.020          21.000  
R 9  22344589.320   119318739.898        3916.287          44.000  
R21  21451386.289   114790777.369       -3396.148          28.000  
J 3  36889773.948   193857096.288        -835.269          35.000  
> 2019 10  9  7 19 30.9970000  0 16                     
G 5  21687292.039   113967448.928       -3094.299          44.000  
G13  20962397.238   110158135.392       -2600.745          46.000  
G15  19587255.758   102931708.450        -806.488          41.000  
G24  19986204.312   105028214.560        1778.198          42.000  
G28  23729998.665   124702000.255        -874.297          41.000  
R 5  20562587.454   109918742.901       -2097.882          45.000  
R15  20545341.066   109787737.955       -2911.672          36.000  
J 2  36104077.859   189728204.613        -429.465          37.000  
R16  18957753.300   101268855.152        1181.204          41.000  
G20  22138690.362   116339445.809        2681.686          30.000  
R22  21959891.685   117223157.372         -85.843          28.000  
R 6  19349359.772   103251797.728         699.059          28.000  
R 7  22275168.786                        2170.450          18.000  
R 9  22343856.254   119314823.598        3916.241          44.000  
R21  21452020.430   114794174.228       -3396.782          27.000  
J 3  36889932.972   193857931.263        -834.839          35.000  
> 2019 10  9  7 19 31.9970000  0 16                     
G 5  21687880.390   113970543.255       -3094.370          44.000  
G13  20962892.248   110160736.303       -2601.040          47.000  
G15  19587409.530   102932515.225        -807.033          41.000  
G24  19985865.725   105026436.420        1777.826          42.000  
G28  23730165.140   124702874.794        -874.736          41.000  
R 5  20562979.927   109920840.891       -2098.136          44.000  
R15  20545885.757   109790649.525       -2911.896          36.000  
J 2  36104159.840   189728634.444        -429.862          37.000  
R16  18957532.712   101267674.470        1180.262          41.000  
G20  22138180.345   116336764.637        2680.885          30.000  
R22  21959912.328   117223243.232         -86.289          27.000  
R 6  19349227.429   103251098.991         698.677          27.000  
R 7  22274762.633                        2155.814          16.000  
R 9  22343122.769   119310907.479        3915.946          44.000  
R21  21452655.914   114797571.723       -3398.016          27.000  
J 3  36890091.995   193858766.308        -834.871          35.000  
> 2019 10  9  7 19 32.9970000  0 16                     
G 5  21688468.847   113973637.832       -3094.643          44.000  
G13  20963387.293   110163337.271       -2601.108          47.000  
G15  19587563.214   102933322.201        -807.077          41.000  
G24  19985527.261   105024658.764        1777.124          42.000  
G28  23730331.947   124703749.793        -875.315          41.000  
R 5  20563372.784   109922939.048       -2098.383          44.000  
R15  20546430.797   109793561.712       -2912.442          37.000  
J 2  36104241.944   189729064.280        -429.857          37.000  
R16  18957311.879   101266494.554        1179.659          42.000  
G20  22137672.212   116334083.548        2679.562          30.000  
R22  21959929.412   117223329.923         -87.501          26.000  
R 6  19349096.012   103250400.351         698.794          27.000  
R 7  22274358.259                        2145.560          15.000  
R 9  22342389.738   119306991.367        3916.029          45.000  
R21  21453293.737   114800969.542       -3397.953          26.000  
J 3  36890250.705   193859601.243        -834.491          35.000  
> 2019 10  9  7 19 33.9970000  0 16                     
G 5  21689057.634   113976732.722       -3095.251          45.000  
G13  20963882.164   110165938.362       -2601.083          46.000  
G15  19587716.811   102934129.501        -807.712          41.000  
G24  19985189.128   105022881.620        1776.752          42.000  
G28  23730498.998   124704625.292        -875.907          42.000  
R 5  20563765.082   109925037.449       -2098.606          44.000  
R15  20546975.855   109796474.657       -2913.049          37.000  
J 2  36104324.029   189729494.208        -429.516          37.000  
R16  18957091.413   101265315.509        1178.679          42.000  
G20  22137165.196   116331402.489        2681.068          31.000  
R22  21959943.599   117223417.390         -87.959          25.000  
R 6  19348964.071   103249701.941         697.974          27.000  
R 7  22273957.235                        2137.630          13.000  
R 9  22341656.567   119303075.335        3915.823          45.000  
R21  21453932.363   114804367.909       -3399.187          26.000  
J 3  36890409.694   193860436.131        -834.754          35.000  
> 2019 10  9  7 19 34.9970000  0 16                     
G 5  21689646.562   113979827.897       -3095.438          45.000  
G13  20964377.244   110168539.588       -2601.531          46.000  
G15  19587870.634   102934937.035        -807.772          41.000  
G24  19984851.134   105021104.971        1776.391          42.000  
G28  23730665.770   124705501.287        -876.351          42.000  
R 5  20564157.503   109927136.061       -2098.846          44.000  
R15  20547521.191   109799388.322       -2914.062          37.000  
J 2  36104405.993   189729924.257        -430.219          37.000  
R16  18956870.930   101264137.309        1177.543          42.000  
G20  22136646.000   116328721.602        2681.423          30.000  
R22  21959958.571   117223506.1852        -88.690          24.000  
R 6  19348832.077   103249003.713         697.828          27.000  
R 7  22273558.184                        2149.188          12.000  
R 9  22340923.710   119299159.356        3915.960          45.000  
R21  21454569.051   114807766.6222      -3398.408          26.000  
J 3  36890568.526   193861270.985        -835.129          35.000  
> 2019 10  9  7 19 35.9970000  0 15                     
G 5  21690235.821   113982923.399       -3095.749          45.000  
G13  20964872.272   110171140.970       -2601.503          46.000  
G15  19588024.214   102935744.917        -808.126          41.000  
G24  19984513.333   105019328.900        1775.745          42.000  
G28  23730832.716   124706377.830        -876.800          42.000  
R 5  20564550.255   109929234.995       -2099.153          44.000  
R15  20548066.790   109802302.748       -2914.727          37.000  
J 2  36104487.904   189730354.426        -430.737          37.000  
R16  18956650.411   101262959.968        1176.741          42.000  
G20  22136140.624   116326040.912        2680.670          30.000  
R22  21959973.038                         -89.959          23.000  
R 6  19348701.148   103248305.676         697.705          27.000  
R 9  22340190.591   119295243.503        3915.708          45.000  
R21  21455208.742   114811165.9322      -3399.770          26.000  
J 3  36890727.742   193862105.796        -835.211          35.000  
> 2019 10  9  7 19 36.9970000  0 15                     
G 5  21690824.870   113986019.221       -3096.167          45.000  
G13  20965367.125   110173742.471       -2601.760          46.000  
G15  19588177.758   102936553.053        -808.228          41.000  
G24  19984175.602   105017553.340        1775.049          42.000  
G28  23730999.837   124707254.890        -877.438          42.000  
R 5  20564942.745   109931334.162       -2099.347          43.000  
R15  20548612.388   109805217.914       -2915.524          37.000  
J 2  36104569.641   189730784.642        -430.466          37.000  
R16  18956430.399   101261783.496        1175.751          42.000  
G20  22135629.210   116323360.301        2680.215          30.000  
R22  21959985.986                         -89.809          22.000  
R 6  19348570.586   103247607.8882        697.942          26.000  
R 9  22339457.333   119291327.708        3915.651          45.000  
R21  21455848.013   114814565.647       -3399.740          25.000  
J 3  36890886.539   193862940.534        -834.775          34.000  
> 2019 10  9  7 19 37.9970000  0 15                     
G 5  21691414.321   113989115.314       -3096.504          45.000  
G13  20965862.136   110176344.079       -2601.942          46.000  
G15  19588331.721   102937361.474        -808.749          41.000  
G24  19983837.922   105015778.266        1774.719          42.000  
G28  23731167.097   124708132.438        -878.275          42.000  
R 5  20565335.183   109933433.537       -2099.490          43.000  
R15  20549157.725   109808133.796       -2916.739          36.000  
J 2  36104651.483   189731214.961        -430.715          37.000  
R16  18956210.544   101260607.851        1175.026          42.000  
G20  22135113.853   116320679.835        2680.445          30.000  
R22  21959996.805                         -91.109          22.000  
R 6  19348439.622                         697.797          25.000  
R 9  22338723.918   119287411.987        3915.463          45.000  
R21  21456491.071   114817965.753       -3400.009          25.000  
J 3  36891045.632   193863775.228        -834.911          34.000  
> 2019 10  9  7 19 38.9970000  0 15                     
G 5  21692003.580   113992211.081       -3095.519          45.000  
G13  20966356.937   110178945.192       -2600.746          46.000  
G15  19588485.196   102938169.531        -807.856          41.000  
G24  19983499.877   105014003.123        1775.079          42.000  
G28  23731334.095   124709009.851        -877.442          42.000  
R 5  20565727.621   109935532.516       -2098.817          43.000  
R15  20549703.585   109811049.704       -2915.793          36.000  
J 2  36104733.377   189731644.745        -429.281          37.000  
R16  18955990.496   101259432.436        1175.378          42.000  
G20  22134607.448   116317998.805        2681.530          30.000  
R22  21960008.200                         -84.033          22.000  
R 6  19348306.424                         699.254          24.000  
R 9  22337990.782   119283495.666        3916.635          45.000  
R21  21457131.372                       -3400.184          23.000  
J 3  36891204.412   193864609.238        -833.422          35.000  
> 2019 10  9  7 19 39.9970000  0 15                     
G 5  21692592.647   113995307.415       -3097.173          45.000  
G13  20966852.156   110181546.700       -2602.041          46.000  
G15  19588638.863   102938978.135        -809.249          41.000  
G24  19983162.076   105012228.718        1773.718          42.000  
G28  23731501.234   124709888.039        -878.870          41.000  
R 5  20566120.216   109937631.981       -2099.961          43.000  
R15  20550249.341   109813966.655       -2918.044          36.000  
J 2  36104815.445   189732074.863        -430.520          38.000  
R16  18955770.955   101258258.117        1173.424          42.000  
G20  22134095.877   116315318.216        2680.161          30.000  
R22  21960020.659                         -83.819          23.000  
R 6  19348173.471                         699.706          22.000  
R 9  22337257.733   119279579.673        3915.386          45.000  
R21  21457771.254                       -3400.874          22.000  
J 3  36891362.930   193865443.457        -834.885          35.000  
> 2019 10  9  7 19 40.9970000  0 15                     
G 5  21693181.993   113998404.618       -3097.638          46.000  
G13  20967347.498   110184148.917       -2602.585          46.000  
G15  19588792.861   102939787.605        -809.718          41.000  
G24  19982824.519   105010455.453        1772.797          42.000  
G28  23731668.616   124710767.321        -879.512          42.000  
R 5  20566512.462   109939732.333       -2100.694          43.000  
R15  20550795.585   109816884.872       -2918.693          37.000  
J 2  36104897.583   189732505.661        -431.064          38.000  
R16  18955551.239   101257085.226        1172.220          42.000  
G20  22133582.963   116312638.322        2679.646          29.000  
R22  21960029.402                         -84.120          23.000  
R 6  19348041.460                         692.629          21.000  
R 9  22336524.772   119275664.353        3914.954          45.000  
R21  21458409.007                       -3399.194          20.000  
J 3  36891521.762   193866278.188        -834.918          34.000  
> 2019 10  9  7 19 41.9970000  0 16                     
G 5  21693771.532   114001502.352       -3097.917          46.000  
G13  20967842.788   110186751.493       -2602.943          46.000  
G15  19588947.173   102940597.590        -810.534          41.000  
G24  19982487.066   105008682.932        1772.107          42.000  
G28  23731835.894   124711647.358        -880.397          42.000  
R 5  20566905.179   109941833.131       -2101.132          43.000  
R15  20551342.056   109819804.086       -2919.900          37.000  
J 2  36104979.948   189732936.786        -431.291          37.000  
R16  18955331.576   101255913.399        1171.393          42.000  
G20  22133073.364   116309958.753        2679.199          29.000  
R22  21960038.197                         -96.212          24.000  
R 6  19347908.001                         697.130          20.000  
R 7  22270643.997                        2164.465          20.000  
R 9  22335791.776   119271749.338        3914.863          45.000  
R21  21459043.322                       -3398.229          18.000  
J 3  36891680.454   193867113.142        -835.451          34.000  
> 2019 10  9  7 19 42.9970000  0 16                     
G 5  21694361.000   114004600.396       -3098.221          45.000  
G13  20968338.287   110189354.175       -2602.860          46.000  
G15  19589101.416   102941407.826        -810.228          41.000  
G24  19982149.928   105006910.939        1771.558          42.000  
G28  23732003.695   124712527.879        -880.820          42.000  
R 5  20567297.809   109943934.186       -2101.584          42.000  
R15  20551888.719   109822724.005       -2920.688          37.000  
J 2  36105062.261   189733367.994        -431.526          37.000  
R16  18955112.436   101254742.436        1170.255          42.000  
G20  22132565.214   116307279.317        2679.164          29.000  
R22  21960048.702                         -95.315          26.000  
R 6  19347775.781                         689.040          20.000  
R 7  22270249.692                        2157.102          22.000  
R 9  22335058.744   119267834.402        3914.680          45.000  
R21  21459681.738                       -3398.229          14.000  
J 3  36891839.425   193867947.995        -835.029          34.000  
> 2019 10  9  7 19 43.9970000  0 16                     
G 5  21694950.224   114007698.784       -3098.272          45.000  
G13  20968833.594   110191957.047       -2602.781          46.000  
G15  19589255.833   102942218.417        -810.725          42.000  
G24  19981812.912   105005139.504        1771.350          42.000  
G28  23732171.566   124713408.968        -881.048          42.000  
R 5  20567690.020   109946035.518       -2101.283          42.000  
R15  20552435.260   109825644.676       -2920.985          37.000  
J 2  36105144.556   189733799.322        -431.224          38.000  
R16  18954893.070   101253572.427        1169.716          42.000  
G20  22132054.254   116304600.036        2679.260          29.000  
R22  21960061.528   117224252.1803        -96.316          27.000  
R 6  19347644.189                         706.667          20.000  
R 7  22269854.515                        2154.403          23.000  
R 9  22334325.434   119263919.587        3914.812          45.000  
R21  21460315.670                       -3396.744          16.000  
J 3  36891998.467   193868782.835        -834.425          34.000  
> 2019 10  9  7 19 44.9970000  0 16                     
G 5  21695539.535   114010797.406       -3098.960          45.000  
G13  20969328.848   110194559.967       -2603.061          46.000  
G15  19589410.162   102943029.202        -811.267          42.000  
G24  19981475.896   105003368.498        1770.770          42.000  
G28  23732339.158   124714290.476        -881.644          42.000  
R 5  20568082.406   109948137.019       -2101.559          42.000  
R15  20552981.556   109828565.990       -2921.643          37.000  
J 2  36105226.799   189734230.705        -431.701          38.000  
R16  18954674.401   101252403.160        1168.657          42.000  
G20  22131544.202   116301920.802        2679.193          29.000  
R22  21960076.151   117224348.7211        -96.899          28.000  
R 6  19347514.080                         698.636          20.000  
R 7  22269456.946                        2162.763          24.000  
R 9  22333592.402   119260004.745        3914.592          45.000  
R21  21460946.443                       -3400.592          18.000  
J 3  36892157.403   193869617.588        -834.914          35.000  
> 2019 10  9  7 19 45.9970000  0 16                     
G 5  21696128.951   114013896.343       -3099.107          45.000  
G13  20969824.277   110197163.035       -2603.414          46.000  
G15  19589564.632   102943840.273        -811.417          42.000  
G24  19981139.054   105001598.042        1770.294          42.000  
G28  23732507.099   124715172.529        -882.402          42.000  
R 5  20568474.844   109950238.778       -2101.782          42.000  
R15  20553528.097   109831488.046       -2922.408          37.000  
J 2  36105309.181   189734662.164        -431.807          38.000  
R16  18954455.558   101251234.769        1167.714          42.000  
G20  22131040.414   116299241.705        2680.060          30.000  
R22  21960085.400   117224446.608         -97.782          29.000  
R 6  19347384.233                         692.982          22.000  
R 7  22269058.820                        2153.881          25.000  
R 9  22332859.528   119256089.967        3914.885          45.000  
R21  21461578.385                       -3400.632          20.000  
J 3  36892316.218   193870452.240        -834.421          34.000  
> 2019 10  9  7 19 46.9970000  0 16                     
G 5  21696718.245   114016995.373       -3099.175          45.000  
G13  20970319.497   110199766.020       -2602.981          46.000  
G15  19589718.996   102944651.438        -811.355          42.000  
G24  19980802.230   104999827.947        1769.702          42.000  
G28  23732674.935   124716054.898        -882.944          42.000  
R 5  20568867.369   109952340.559       -2102.065          42.000  
R15  20554075.092   109834410.627       -2922.892          37.000  
J 2  36105391.407   189735093.520        -431.283          38.000  
R16  18954236.767   101250067.008        1167.174          42.000  
G20  22130528.704   116296562.590        2678.585          29.000  
R22  21960099.238   117224545.086         -98.745          30.000  
R 6  19347254.473                         690.223          22.000  
R 7  22268658.512                        2161.772          24.000  
R 9  22332126.305   119252175.104        3914.604          45.000  
R21  21462208.914                       -3407.503          22.000  
J 3  36892474.788   193871286.707        -834.578          35.000  
> 2019 10  9  7 19 47.9970000  0 16                     
G 5  21697307.853   114020094.778       -3099.546          45.000  
G13  20970815.293   110202369.196       -2603.226          46.000  
G15  19589873.780   102945462.951        -811.827          42.000  
G24  19980465.720   104998058.406        1769.177          42.000  
G28  23732842.998   124716937.809        -883.113          42.000  
R 5  20569259.929   109954442.624       -2102.122          42.000  
R15  20554622.139   109837334.017       -2923.900          37.000  
J 2  36105473.877   189735525.013        -431.428          38.000  
R16  18954017.924   101248900.128        1166.655          42.000  
G20  22130018.459   116293883.564        2679.350          29.000  
R22  21960124.209   117224644.449         -98.847          31.000  
R 6  19347128.360                         690.632          21.000  
R 7  22268258.570                        2163.909          24.000  
R 9  22331393.186   119248260.368        3914.801          45.000  
R21  21462839.111                       -3404.421          24.000  
J 3  36892633.672   193872121.155        -834.168          35.000  
> 2019 10  9  7 19 48.9970000  0 16                     
G 5  21697897.409   114023193.899       -3098.819          45.000  
G13  20971310.704   110204971.933       -2602.540          46.000  
G15  19590028.424   102946274.154        -811.011          43.000  
G24  19980129.175   104996288.841        1769.641          42.000  
G28  23733011.026   124717820.674        -882.780          41.000  
R 5  20569652.489   109956544.361       -2101.793          42.000  
R15  20555169.360   109840257.522       -2923.042          37.000  
J 2  36105556.015   189735956.053        -430.559          38.000  
R16  18953799.325   101247733.532        1166.673          42.000  
G20  22129510.518   116291204.158        2679.837          30.000  
R22  21960140.752   117224744.123         -99.762          31.000  
R 6  19346999.752                         698.906          21.000  
R 7  22267854.929                        2163.227          23.000  
R 9  22330659.457   119244345.127        3915.827          45.000  
R21  21463472.013                       -3403.987          25.000  
J 3  36892792.190   193872954.993        -833.705          35.000  
> 2019 10  9  7 19 49.9970000  0 16                     
G 5  21698487.558   114026293.453       -3100.272          45.000  
G13  20971806.325   110207574.919       -2603.466          46.000  
G15  19590183.067   102947085.771        -812.120          43.000  
G24  19979792.543   104994519.902        1768.207          42.000  
G28  23733179.055   124718704.171        -884.045          41.000  
R 5  20570045.590   109958646.457       -2102.805          42.000  
R15  20555716.721   109843181.907       -2925.219          38.000  
J 2  36105638.345   189736387.320        -431.902          38.000  
R16  18953581.040   101246567.919        1164.576          42.000  
G20  22129009.959   116288524.973        2678.727          29.000  
R22  21960159.772   117224844.716        -101.506          32.000  
R 6  19346868.422                         693.283          20.000  
R 7  22267452.178                        2151.817          23.000  
R 9  22329926.321   119240430.089        3914.568          45.000  
R21  21464103.746                       -3406.695          26.000  
J 3  36892951.039   193873788.886        -834.383          35.000  
> 2019 10  9  7 19 50.9970000  0 16                     
G 5  21699077.759   114029393.989       -3100.996          45.000  
G13  20972301.807   110210178.713       -2604.106          46.000  
G15  19590337.903   102947898.366        -813.088          43.000  
G24  19979456.086   104992752.174        1767.328          42.000  
G28  23733347.153   124719588.869        -885.248          41.000  
R 5  20570438.604   109960749.519       -2103.444          41.000  
R15  20556264.326   109846107.673       -2926.564          38.000  
J 2  36105720.954   189736819.344        -432.375          38.000  
R16  18953363.000   101245403.857        1163.337          42.000  
G20  22128496.853   116285846.586        2678.123          30.000  
R22  21960176.751   117224946.822        -102.701          32.000  
R 6  19346736.655                         683.363          19.000  
R 7  22267050.823                        2166.697          22.000  
R 9  22329193.342   119236515.780        3914.124          45.000  
R21  21464735.374                       -3408.337          26.000  
J 3  36893110.080   193874623.435        -834.944          35.000  
> 2019 10  9  7 19 51.9970000  0 16                     
G 5  21699667.768   114032495.050       -3101.211          45.000  
G13  20972797.445   110212782.862       -2604.043          46.000  
G15  19590492.983   102948711.443        -812.956          43.000  
G24  19979119.907   104990985.189        1766.821          42.000  
G28  23733515.338   124720474.293        -885.650          41.000  
R 5  20570831.740   109962853.051       -2103.340          41.000  
R15  20556811.897   109849034.372       -2926.993          38.000  
J 2  36105803.232   189737251.674        -432.336          38.000  
R16  18953145.465   101244240.889        1162.701          42.000  
G20  22127988.598   116283168.597        2677.539          29.000  
R22  21960194.638   117225050.003        -103.589          32.000  
R 6  19346606.983                         699.930          16.000  
R 7  22266649.102                        2159.204          22.000  
R 9  22328460.119   119232601.819        3914.075          45.000  
R21  21465369.183                       -3408.875          26.000  
J 3  36893268.947   193875458.135        -834.411          35.000  
> 2019 10  9  7 19 52.9970000  0 16                     
G 5  21700257.568   114035596.360       -3101.683          45.000  
G13  20973293.189   110215387.089       -2604.602          46.000  
G15  19590648.325   102949524.768        -813.717          43.000  
G24  19978783.676   104989218.664        1765.948          42.000  
G28  23733683.732   124721360.180        -886.627          41.000  
R 5  20571225.207   109964956.778       -2104.181          41.000  
R15  20557360.078   109851961.779       -2927.733          38.000  
J 2  36105885.580   189737684.052        -432.668          38.000  
R16  18952928.280   101243078.742        1161.396          42.000  
G20  22127470.309   116280490.595        2678.002          29.000  
R22  21960212.210   117225153.959        -104.208          32.000  
R 6  19346474.466                         692.480          16.000  
R 7  22266247.188                        2163.592          23.000  
R 9  22327727.349   119228687.862        3913.739          45.000  
R21  21466001.858                       -3406.846          26.000  
J 3  36893427.605   193876292.756        -835.023          35.000  
> 2019 10  9  7 19 53.9970000  0 16                     
G 5  21700847.926   114038697.978       -3101.834          45.000  
G13  20973788.565   110217991.436       -2604.454          46.000  
G15  19590803.527   102950338.347        -813.673          43.000  
G24  19978447.603   104987452.640        1765.900          42.000  
G28  23733852.022   124722246.556        -886.635          40.000  
R 5  20571618.588   109967060.711       -2103.987          41.000  
R15  20557908.329   109854889.900       -2928.484          38.000  
J 2  36105967.945   189738116.530        -432.896          38.000  
R16  18952711.182   101241917.446        1160.819          42.000  
G20  22126957.883   116277812.769        2678.189          29.000  
R22  21960231.405   117225258.717        -105.411          31.000  
R 6  19346342.507                         684.743          17.000  
R 7  22265846.269                        2152.394          24.000  
R 9  22326994.632   119224773.985        3913.887          45.000  
R21  21466634.411                       -3409.321          26.000  
J 3  36893586.646   193877127.295        -834.389          35.000  
> 2019 10  9  7 19 54.9970000  0 16                     
G 5  21701438.302   114041799.904       -3102.236          45.000  
G13  20974283.715   110220595.908       -2604.548          46.000  
G15  19590958.415   102951152.211        -813.855          43.000  
G24  19978111.703   104985687.153        1765.259          42.000  
G28  23734020.469   124723133.453        -887.190          40.000  
R 5  20572012.439   109969164.881       -2104.170          41.000  
R15  20558456.615   109857818.726       -2928.760          38.000  
J 2  36106050.187   189738549.078        -432.361          38.000  
R16  18952494.049   101240757.006        1159.942          42.000  
G20  22126449.803   116275135.051        2677.938          28.000  
R22  21960250.862   117225364.286        -106.489          31.000  
R 6  19346210.583                         686.213          20.000  
R 7  22265446.380                        2161.741          25.000  
R 9  22326261.793   119220860.169        3913.705          45.000  
R21  21467268.133   114875678.2481      -3409.055          26.000  
J 3  36893745.321   193877961.809        -834.862          35.000  
> 2019 10  9  7 19 55.9970000  0 16                     
G 5  21702028.800   114044902.095       -3102.175          45.000  
G13  20974779.057   110223200.495       -2604.497          46.000  
G15  19591113.740   102951966.336        -813.982          43.000  
G24  19977775.525   104983922.188        1765.021          42.000  
G28  23734188.602   124724020.840        -887.286          40.000  
R 5  20572406.343   109971269.303       -2104.397          41.000  
R15  20559005.040   109860748.273       -2929.457          38.000  
J 2  36106132.779   189738981.715        -432.653          38.000  
R16  18952277.055   101239597.390        1159.504          43.000  
G20  22125940.727   116272457.492        2677.674          28.000  
R22  21960270.511   117225470.679        -107.354          31.000  
R 6  19346079.550                         690.760          21.000  
R 7  22265044.955                        2161.894          25.000  
R 9  22325529.250   119216946.409        3913.887          45.000  
R21  21467901.821   114879087.603       -3409.200          27.000  
J 3  36893904.118   193878796.225        -834.054          35.000  
> 2019 10  9  7 19 56.9970000  0 16                     
G 5  21702618.984   114048004.447       -3102.545          45.000  
G13  20975274.329   110225805.052       -2604.675          46.000  
G15  19591268.820   102952780.599        -814.527          43.000  
G24  19977439.922   104982157.618        1764.203          42.000  
G28  23734357.293   124724908.593        -888.159          40.000  
R 5  20572800.735   109973373.832       -2104.939          42.000  
R15  20559553.431   109863678.388       -2930.525          38.000  
J 2  36106215.057   189739414.281        -432.922          38.000  
R16  18952060.271   101238438.507        1158.216          43.000  
G20  22125427.621   116269779.846        2677.351          28.000  
R22  21960284.978   117225577.730        -108.038          30.000  
R 6  19345947.260                         688.518          22.000  
R 7  22264644.857                        2161.699          25.000  
R 9  22324796.585   119213032.580        3913.690          45.000  
R21  21468536.816   114882497.309       -3409.803          27.000  
J 3  36894062.792   193879630.481        -834.659          35.000  
> 2019 10  9  7 19 57.9970000  0 16                     
G 5  21703209.395   114051107.169       -3102.779          45.000  
G13  20975769.898   110228409.804       -2604.784          46.000  
G15  19591424.127   102953595.199        -814.733          43.000  
G24  19977104.285   104980393.626        1763.830          42.000  
G28  23734526.630   124725796.909        -888.523          40.000  
R 5  20573195.477   109975478.645       -2104.989          42.000  
R15  20560102.327   109866609.286       -2931.478          38.000  
J 2  36106297.422   189739846.999        -432.795          38.000  
R16  18951843.609   101237280.495        1157.535          42.000  
G20  22124914.620   116267102.419        2677.488          27.000  
R22  21960299.863   117225685.706        -108.620          30.000  
R 6  19345818.896                         693.668          23.000  
R 7  22264242.315   119182205.3453       2160.303          26.000  
R 9  22324064.304   119209118.893        3913.897          45.000  
R21  21469170.940   114885907.596       -3411.010          28.000  
J 3  36894221.589   193880464.730        -834.854          34.000  
> 2019 10  9  7 19 58.9970000  0 16                     
G 5  21703799.561   114054209.696       -3102.340          45.000  
G13  20976265.641   110231014.182       -2603.975          46.000  
G15  19591579.469   102954409.581        -814.148          43.000  
G24  19976768.612   104978629.663        1763.849          42.000  
G28  23734695.793   124726685.256        -888.488          40.000  
R 5  20573589.764   109977583.171       -2104.186          42.000  
R15  20560651.154   109869540.410       -2931.417          38.000  
J 2  36106379.700   189740279.321        -431.990          38.000  
R16  18951627.034   101236122.805        1157.552          42.000  
G20  22124405.370   116264424.572        2678.652          27.000  
R22  21960320.646   117225793.967        -108.341          30.000  
R 6  19345689.310                         690.766          24.000  
R 7  22263840.611   119180043.969        2161.786          26.000  
R 9  22323331.570   119205204.785        3914.498          45.000  
R21  21469808.745   114889317.683       -3409.490          28.000  
J 3  36894380.247   193881298.368        -833.430          35.000  
> 2019 10  9  7 19 59.9970000  0 16                     
G 5  21704389.937   114057312.605       -3103.689          45.000  
G13  20976761.315   110233618.785       -2605.207          46.000  
G15  19591734.531   102955224.319        -815.345          44.000  
G24  19976433.394   104976866.303        1762.359          42.000  
G28  23734865.182   124727574.181        -889.977          40.000  
R 5  20573984.349   109979688.011       -2105.442          43.000  
R15  20561199.963   109872472.339       -2932.933          38.000  
J 2  36106462.135   189740711.793        -433.010          38.000  
R16  18951410.111   101234966.052        1155.610          43.000  
G20  22123891.234   116261747.002        2676.996          27.000  
R22  21960347.519   117225903.180        -111.460          30.000  
R 6  19345561.348                         696.628          25.000  
R 7  22263437.476   119177882.687        2160.585          27.000  
R 9  22322599.149   119201290.801        3913.294          45.000  
R21  21470445.207   114892728.477       -3411.662          29.000  
J 3  36894538.416   193882132.113        -834.258          34.000  
> 2019 10  9  7 20  0.9970000  0 16                     
G 5  21704980.644   114060416.551       -3104.270          45.000  
G13  20977257.041   110236224.223       -2605.610          46.000  
G15  19591889.926   102956040.094        -816.152          44.000  
G24  19976098.175   104975104.194        1761.871          42.000  
G28  23735034.484   124728464.333        -890.455          40.000  
R 5  20574379.299   109981793.825       -2105.923          43.000  
R15  20561749.418   109875405.721       -2933.967          37.000  
J 2  36106544.744   189741145.110        -433.403          38.000  
R16  18951193.728   101233810.890        1154.681          43.000  
G20  22123378.843   116259070.277        2676.326          26.000  
R22  21960377.272   117226013.909        -111.581          30.000  
R 6  19345432.007                         690.045          25.000  
R 7  22263033.521   119175722.110        2160.336          27.000  
R 9  22321866.816   119197377.635        3912.938          45.000  
R21  21471083.868   114896140.431       -3412.065          29.000  
J 3  36894697.282   193882966.483        -834.142          35.000  
> 2019 10  9  7 20  1.9970000  0 16                     
G 5  21705571.299   114063521.007       -3104.767          45.000  
G13  20977752.906   110238830.016       -2606.013          46.000  
G15  19592045.599   102956856.349        -816.807          44.000  
G24  19975763.026   104973342.833        1760.913          42.000  
G28  23735204.170   124729355.241        -891.589          40.000  
R 5  20574774.163   109983900.115       -2106.638          43.000  
R15  20562298.769   109878340.002       -2934.762          37.000  
J 2  36106627.231   189741578.743        -433.702          38.000  
R16  18950977.677   101232656.809        1153.312          43.000  
G20  22122867.953   116256393.881        2675.741          26.000  
R22  21960401.772   117226125.685        -111.711          30.000  
R 6  19345302.125                         695.048          24.000  
R 7  22262627.507   119173561.650        2160.536          26.000  
R 9  22321134.413   119193464.799        3912.737          45.000  
R21  21471721.446   114899553.102       -3412.847          29.000  
J 3  36894855.818   193883801.070        -834.875          35.000  
> 2019 10  9  7 20  2.9970000  0 16                     
G 5  21706161.570   114066625.817       -3104.727          45.000  
G13  20978248.911   110241435.986       -2605.885          46.000  
G15  19592200.941   102957672.923        -816.572          44.000  
G24  19975427.842   104971582.035        1760.724          43.000  
G28  23735374.327   124730246.690        -891.549          41.000  
R 5  20575169.131   109986006.723       -2106.614          43.000  
R15  20562848.224   109881275.088       -2935.138          37.000  
J 2  36106709.945   189742012.500        -433.470          38.000  
R16  18950761.731   101231503.646        1152.900          43.000  
G20  22122355.528   116253717.698        2675.784          25.000  
R22  21960422.817   117226238.408        -113.728          30.000  
R 6  19345171.720                         692.603          24.000  
R 7  22262220.969   119171384.2343       2160.746          26.000  
R 9  22320402.289   119189552.097        3912.730          46.000  
R21  21472359.339   114902966.260       -3413.187          29.000  
J 3  36895014.702   193884635.651        -835.021          35.000  
> 2019 10  9  7 20  3.9970000  0 16                     
G 5  21706752.469   114069730.934       -3105.178          45.000  
G13  20978744.811   110244042.109       -2606.163          46.000  
G15  19592356.230   102958489.803        -816.998          43.000  
G24  19975093.025   104969821.744        1760.358          43.000  
G28  23735544.536   124731138.667        -892.059          41.000  
R 5  20575563.785   109988113.584       -2106.929          43.000  
R15  20563397.731   109884210.935       -2936.462          36.000  
J 2  36106792.171   189742446.360        -433.914          38.000  
R16  18950545.749   101230351.337        1152.070          43.000  
G20  22121845.144   116251041.516        2676.830          25.000  
R22  21960450.563   117226351.904        -114.020          30.000  
R 6  19345041.017                         692.657          23.000  
R 7  22261812.547   119169223.8482       2159.968          26.000  
R 9  22319670.252   119185639.471        3912.828          46.000  
R21  21472996.429   114906379.858       -3413.328          29.000  
J 3  36895173.499   193885470.158        -834.759          35.000  
> 2019 10  9  7 20  4.9970000  0 16                     
G 5  21707343.630   114072836.280       -3105.397          45.000  
G13  20979240.851   110246648.277       -2606.242          46.000  
G15  19592511.537   102959306.875        -817.326          43.000  
G24  19974758.469   104968061.914        1759.625          43.000  
G28  23735714.781   124732031.080        -892.716          41.000  
R 5  20575958.265   109990220.575       -2106.876          43.000  
R15  20563947.029   109887147.379       -2937.218          35.000  
J 2  36106874.361   189742880.267        -434.069          38.000  
R16  18950329.820   101229199.841        1151.119          43.000  
G20  22121331.252   116248365.532        2675.813          25.000  
R22  21960475.551   117226466.148        -113.912          30.000  
R 6  19344909.425                         685.938          23.000  
R 7  22261406.567   119167063.2372       2160.400          27.000  
R 9  22318937.779   119181726.850        3912.515          46.000  
R21  21473634.200   114909793.900       -3413.861          28.000  
J 3  36895332.052   193886304.540        -834.646          35.000  
> 2019 10  9  7 20  5.9970000  0 16                     
G 5  21707934.687   114075941.923       -3105.704          46.000  
G13  20979737.170   110249254.550       -2606.083          46.000  
G15  19592666.600   102960124.229        -817.340          43.000  
G24  19974423.879   104966302.587        1759.100          43.000  
G28  23735885.008   124732923.990        -893.150          41.000  
R 5  20576352.779   109992327.793       -2107.114          43.000  
R15  20564496.798   109890084.518       -2937.225          35.000  
J 2  36106956.953   189743314.214        -433.993          38.000  
R16  18950114.310   101228049.167        1150.409          42.000  
G20  22120819.333   116245689.529        2676.172          24.000  
R22  21960499.074   117226581.257        -115.484          30.000  
R 6  19344778.723                         689.709          22.000  
R 7  22261000.832   119164902.5332       2161.924          27.000  
R 9  22318205.359   119177814.287        3912.528          46.000  
R21  21474270.766   114913208.395       -3414.633          29.000  
J 3  36895490.709   193887138.882        -835.037          35.000  
> 2019 10  9  7 20  6.9970000  0 16                     
G 5  21708525.621   114079047.806       -3106.153          46.000  
G13  20980233.175   110251860.904       -2606.547          46.000  
G15  19592821.837   102960941.797        -817.632          43.000  
G24  19974089.097   104964543.735        1758.404          43.000  
G28  23736054.903   124733817.353        -893.681          41.000  
R 5  20576747.224   109994435.183       -2107.741          43.000  
R15  20565046.567   109893022.316       -2938.496          35.000  
J 2  36107039.336   189743748.194        -434.035          38.000  
R16  18949898.800   101226899.269        1149.282          42.000  
G20  22120308.547                        2676.771          24.000  
R22  21960520.294   117226697.106        -116.404          30.000  
R 6  19344647.079                         684.739          23.000  
R 7  22260598.989   119162741.820        2160.426          28.000  
R 9  22317472.834   119173901.705        3912.478          45.000  
R21  21474909.130   114916623.316       -3415.182          29.000  
J 3  36895649.349   193887973.077        -833.922          36.000  
> 2019 10  9  7 20  7.9970000  0 16                     
G 5  21709116.852   114082153.985       -3106.384          45.000  
G13  20980729.302   110254467.382       -2606.398          46.000  
G15  19592977.249   102961759.654        -818.068          43.000  
G24  19973754.332   104962785.387        1758.051          43.000  
G28  23736225.391   124734711.216        -893.969          41.000  
R 5  20577141.512   109996542.814       -2107.625          42.000  
R15  20565596.162   109895960.853       -2938.540          34.000  
J 2  36107122.015   189744182.263        -433.713          37.000  
R16  18949683.412   101225750.202        1148.728          42.000  
G20  22119798.896                        2675.812          23.000  
R22  21960542.456   117226813.776        -116.914          29.000  
R 6  19344517.476                         690.329          23.000  
R 7  22260195.313   119160580.938        2160.733          28.000  
R 9  22316740.518   119169989.206        3912.386          45.000  
R21  21475550.216   114920038.697       -3415.139          29.000  
J 3  36895807.919   193888807.234        -833.179          35.000  
> 2019 10  9  7 20  8.9970000  0 16                     
G 5  21709708.187   114085260.116       -3105.791          46.000  
G13  20981225.272   110257073.641       -2605.897          46.000  
G15  19593132.189   102962577.448        -817.573          43.000  
G24  19973419.776   104961027.221        1758.441          43.000  
G28  23736395.357   124735605.272        -893.843          41.000  
R 5  20577535.573   109998650.354       -2107.034          42.000  
R15  20566145.739   109898899.776       -2938.524          32.000  
J 2  36107204.676   189744616.103        -433.499          37.000  
R16  18949468.443   101224601.658        1148.578          42.000  
G20  22119289.437                        2676.140          23.000  
R22  21960565.472   117226930.913        -116.911          28.000  
R 6  19344387.961                         696.108          23.000  
R 7  22259796.035   119158419.660        2161.534          28.000  
R 9  22316007.713   119166076.435        3913.273          45.000  
R21  21476196.223   114923454.238       -3415.730          30.000  
J 3  36895966.541   193889641.027        -832.818          35.000  
> 2019 10  9  7 20  9.9970000  0 16                     
G 5  21710299.244   114088366.504       -3106.926          46.000  
G13  20981721.138   110259679.956       -2606.620          46.000  
G15  19593287.409   102963395.455        -818.476          43.000  
G24  19973085.220   104959269.510        1757.239          43.000  
G28  23736565.723   124736499.742        -894.925          42.000  
R 5  20577929.581   110000758.114       -2108.208          42.000  
R15  20566695.438   109901839.297       -2939.615          32.000  
J 2  36107286.815   189745049.971        -434.609          37.000  
R16  18949253.648   101223453.922        1146.743          42.000  
G20  22118783.224                        2674.586          23.000  
R22  21960585.959   117227048.788        -118.435          27.000  
R 6  19344255.007                         688.236          23.000  
R 7  22259396.651   119156258.284        2160.821          28.000  
R 9  22315274.856   119162163.673        3912.239          45.000  
R21  21476841.288   114926870.134       -3417.357          31.000  
J 3  36896125.199   193890474.692        -833.924          36.000  
> 2019 10  9  7 20 10.9970000  0 16                     
G 5  21710890.021   114091473.762       -3107.318          46.000  
G13  20982217.230   110262286.993       -2606.983          46.000  
G15  19593442.820   102964214.332        -819.131          42.000  
G24  19972750.700   104957512.916        1756.580          42.000  
G28  23736736.107   124737395.328        -895.574          41.000  
R 5  20578323.642   110002866.699       -2108.577          42.000  
R15  20567244.736   109904780.184       -2941.086          31.000  
J 2  36107369.232   189745484.512        -434.448          37.000  
R16  18949039.115   101222307.602        1146.217          42.000  
G20  22118278.721                        2674.260          23.000  
R22  21960608.487   117227168.090        -119.754          27.000  
R 6  19344127.132                         689.586          23.000  
R 7  22258997.007   119154097.429        2160.822          28.000  
R 9  22314542.087   119158251.582        3912.299          45.000  
R21  21477485.602   114930287.027       -3417.223          32.000  
J 3  36896284.118   193891308.878        -833.929          36.000  
> 2019 10  9  7 20 11.9970000  0 16                     
G 5  21711481.304   114094581.526       -3107.647          46.000  
G13  20982713.567   110264894.357       -2607.404          46.000  
G15  19593598.598   102965033.699        -819.451          42.000  
G24  19972416.441   104955757.050        1755.646          42.000  
G28  23736906.805   124738291.630        -896.500          41.000  
R 5  20578717.895   110004975.753       -2108.999          42.000  
R15  20567788.276   109907721.951       -2941.702          29.000  
J 2  36107451.894   189745919.331        -434.520          37.000  
R16  18948824.495   101221162.378        1144.889          43.000  
G20  22117770.483                        2675.486          23.000  
R22  21960627.246   117227288.440        -120.385          26.000  
R 6  19343999.152                         689.778          24.000  
R 7  22258598.095   119151936.798        2160.594          28.000  
R 9  22313809.422   119154339.776        3911.940          45.000  
R21  21478121.122   114933704.660       -3417.409          32.000  
J 3  36896442.793   193892143.230        -834.106          35.000  
> 2019 10  9  7 20 12.9970000  0 16                     
G 5  21712072.639   114097689.583       -3108.357          46.000  
G13  20983209.502   110267501.814       -2607.615          46.000  
G15  19593754.080   102965853.316        -819.733          42.000  
G24  19972082.531   104954001.685        1755.145          42.000  
G28  23737077.678   124739188.402        -897.190          41.000  
R 5  20579112.374   110007084.992       -2109.459          42.000  
R15  20568333.455   109910664.448       -2942.661          29.000  
J 2  36107534.782   189746354.240        -434.989          37.000  
R16  18948610.468   101220017.973        1143.830          43.000  
G20  22117266.346                        2674.299          23.000  
R22  21960649.932   117227409.624        -121.573          27.000  
R 6  19343869.549                         689.339          25.000  
R 7  22258200.020   119149776.022        2160.747          28.000  
R 9  22313076.722   119150428.042        3911.664          45.000  
R21  21478758.247   114937122.737       -3417.764          33.000  
J 3  36896601.607   193892977.516        -834.254          36.000  
> 2019 10  9  7 20 13.9970000  0 16                     
G 5  21712663.957   114100797.849       -3108.312          46.000  
G13  20983705.437   110270109.337       -2607.608          46.000  
G15  19593909.753   102966673.167        -820.094          42.000  
G24  19971748.761   104952246.767        1754.645          42.000  
G28  23737248.829   124740085.633        -897.362          41.000  
R 5  20579506.278   110009194.413       -2109.606          41.000  
R15  20568878.094   109913607.551       -2943.387          29.000  
J 2  36107617.391   189746789.151        -434.786          37.000  
R16  18948396.196   101218874.347        1143.299          43.000  
G20  22116758.178                        2674.917          23.000  
R22  21960673.053   117227531.593        -122.483          27.000  
R 6  19343741.727                         689.951          25.000  
R 7  22257803.307   119147615.115        2161.123          28.000  
R 9  22312343.813   119146516.329        3911.801          45.000  
R21  21479399.839   114940541.225       -3418.833          33.000  
J 3  36896760.561   193893811.675        -834.374          36.000  
> 2019 10  9  7 20 14.9970000  0 16                     
G 5  21713255.520   114103906.482       -3108.656          46.000  
G13  20984201.250   110272717.020       -2607.633          46.000  
G15  19594065.252   102967493.331        -820.220          41.000  
G24  19971414.711   104950492.415        1754.108          42.000  
G28  23737419.998   124740983.410        -897.862          42.000  
R 5  20579900.583   110011304.108       -2109.784          41.000  
R15  20569426.485   109916551.455       -2943.999          29.000  
J 2  36107700.123   189747224.230        -435.051          36.000  
R16  18948182.519   101217731.620        1142.524          43.000  
G20  22116250.133                        2673.854          24.000  
R22  21960700.188   117227654.450        -123.295          27.000  
R 6  19343613.572                         689.548          25.000  
R 7  22257403.522   119145454.175        2161.100          27.000  
R 9  22311610.747   119142604.714        3911.708          44.000  
R21  21480038.255   114943960.175       -3419.100          33.000  
J 3  36896919.568   193894645.811        -833.922          36.000  
> 2019 10  9  7 20 15.9970000  0 16                     
G 5  21713847.344   114107015.362       -3109.204          46.000  
G13  20984697.272   110275324.788       -2607.924          46.000  
G15  19594220.926   102968313.723        -820.663          41.000  
G24  19971080.749   104948738.549        1753.540          42.000  
G28  23737591.307   124741881.646        -898.419          42.000  
R 5  20580294.976   110013414.011       -2110.341          41.000  
R15  20569976.987   109919496.104       -2945.487          29.000  
J 2  36107783.029   189747659.342        -435.955          36.000  
R16  18947969.085   101216589.697        1141.347          43.000  
G20  22115744.146                        2674.963          24.000  
R22  21960728.510   117227778.008        -123.961          28.000  
R 6  19343487.739                         688.773          25.000  
R 7  22257005.099   119143293.225        2160.370          26.000  
R 9  22310877.838   119138693.134        3911.428          44.000  
R21  21480677.980   114947379.560       -3419.768          32.000  
J 3  36897078.085   193895479.839        -834.546          36.000  
> 2019 10  9  7 20 16.9970000  0 16                     
G 5  21714438.976   114110124.462       -3109.258          46.000  
G13  20985193.557   110277932.606       -2607.970          46.000  
G15  19594376.808   102969134.322        -820.864          41.000  
G24  19970746.717   104946985.144        1753.107          41.000  
G28  23737762.721   124742780.327        -898.952          42.000  
R 5  20580689.071   110015524.075       -2110.477          41.000  
R15  20570537.924   109922441.229       -2944.822          31.000  
J 2  36107865.726   189748094.420        -435.009          36.000  
R16  18947755.669   101215448.546        1140.666          43.000  
G20  22115240.550                        2674.608          24.000  
R22  21960756.011   117227902.400        -125.031          28.000  
R 6  19343361.469                         688.553          26.000  
R 7  22256604.494   119141132.0752       2161.237          26.000  
R 9  22310144.824   119134781.535        3911.523          44.000  
R21  21481317.339   114950799.290       -3418.943          32.000  
J 3  36897236.830   193896313.729        -833.384          36.000  
> 2019 10  9  7 20 17.9970000  0 16                     
G 5  21715030.643   114113233.904       -3109.512          47.000  
G13  20985689.736   110280540.585       -2608.167          46.000  
G15  19594532.988   102969955.240        -821.192          41.000  
G24  19970413.261   104945232.289        1752.606          41.000  
G28  23737934.448   124743679.546        -899.448          42.000  
R 5  20581083.062   110017634.405       -2110.391          41.000  
R15  20571097.779   109925387.218       -2945.800          32.000  
J 2  36107948.317   189748529.680        -435.526          36.000  
R16  18947542.445   101214308.303        1139.867          43.000  
G20  22114729.870                        2675.749          24.000  
R22  21960783.740   117228027.549        -125.631          28.000  
R 6  19343236.351                         688.838          26.000  
R 7  22256205.303   119138970.9612       2161.252          25.000  
R 9  22309412.002   119130870.069        3911.568          44.000  
R21  21481956.872   114954219.606       -3419.625          31.000  
J 3  36897395.522   193897147.644        -833.842          36.000  
> 2019 10  9  7 20 18.9970000  0 16                     
G 5  21715622.328   114116343.438       -3109.260          47.000  
G13  20986185.846   110283148.472       -2607.413          46.000  
G15  19594689.220   102970776.218        -820.610          41.000  
G24  19970079.769   104943479.758        1752.997          42.000  
G28  23738106.089   124744579.070        -899.213          42.000  
R 5  20581477.298   110019744.782       -2110.148          40.000  
R15  20571655.855   109928333.752       -2947.074          33.000  
J 2  36108031.031   189748964.794        -434.499          36.000  
R16  18947329.447   101213168.718        1139.633          43.000  
G20  22114221.807                        2674.083          23.000  
R22  21960811.067   117228153.347        -125.677          27.000  
R 6  19343110.936                         689.516          26.000  
R 7  22255804.070                        2162.941          25.000  
R 9  22308678.866   119126958.459        3912.100          44.000  
R21  21482601.151   114957640.213       -3419.727          31.000  
J 3  36897554.337   193897981.274        -832.649          36.000  
> 2019 10  9  7 20 19.9970000  0 16                     
G 5  21716213.960   114119452.869       -3109.900          47.000  
G13  20986681.921   110285756.097       -2608.000          46.000  
G15  19594845.486   102971597.085        -821.172          41.000  
G24  19969746.348   104941727.388        1751.782          42.000  
G28  23738277.607   124745478.708        -900.140          42.000  
R 5  20581871.673   110021854.986       -2110.667          40.000  
R15  20572211.993   109931280.563       -2947.574          33.000  
J 2  36108113.588   189749399.638        -435.374          36.000  
R16  18947116.607   101212029.594        1138.248          43.000  
G20  22113713.534                        2676.085          23.000  
R22  21960838.237   117228279.586        -127.016          26.000  
R 6  19342983.776                         688.732          26.000  
R 7  22255403.466                        2161.661          23.000  
R 9  22307945.870   119123046.538        3911.553          44.000  
R21  21483237.264   114961060.837       -3421.346          30.000  
J 3  36897712.942   193898814.451        -833.283          36.000  
> 2019 10  9  7 20 20.9970000  0 16                     
G 5  21716805.767   114122563.281       -3110.911          47.000  
G13  20987178.048   110288364.533       -2608.877          46.000  
G15  19595002.119   102972418.913        -822.390          41.000  
G24  19969413.293   104939976.211        1750.604          42.000  
G28  23738449.003   124746379.545        -901.523          42.000  
R 5  20582266.257   110023966.116       -2111.518          40.000  
R15  20572765.566   109934228.805       -2949.667          34.000  
J 2  36108196.390   189749835.221        -436.112          36.000  
R16  18946903.767   101210891.991        1136.929          43.000  
G20  22113202.138                        2674.937          22.000  
R22  21960864.622   117228407.288        -127.852          25.000  
R 6  19342856.652                         684.978          25.000  
R 7  22254999.546                        2168.974          20.000  
R 9  22307212.716   119119135.394        3910.498          44.000  
R21  21483885.487   114964482.573       -3421.546          30.000  
J 3  36897871.826   193899648.267        -833.907          36.000  
> 2019 10  9  7 20 21.9970000  0 16                     
G 5  21717397.870   114125674.379       -3111.567          47.000  
G13  20987674.367   110290973.471       -2609.403          46.000  
G15  19595159.032   102973241.409        -822.940          41.000  
G24  19969080.745   104938225.935        1749.872          42.000  
G28  23738620.486   124747281.278        -902.469          42.000  
R 5  20582660.963   110026077.899       -2111.896          40.000  
R15  20573314.847   109937178.149       -2950.029          34.000  
J 2  36108279.174   189750271.303        -436.616          36.000  
R16  18946691.188   101209755.643        1135.521          43.000  
G20  22112692.417                        2670.801          22.000  
R22  21960888.912                        -131.909          23.000  
R 6  19342725.740                         687.335          24.000  
R 7  22254594.561                        2168.974          17.000  
R 9  22306479.842   119115224.700        3910.315          44.000  
R21  21484528.022   114967905.263       -3423.329          29.000  
J 3  36898030.850   193900482.421        -834.278          36.000  
> 2019 10  9  7 20 22.9970000  0 16                     
G 5  21717989.677   114128785.883       -3111.845          48.000  
G13  20988170.721   110293582.648       -2609.451          46.000  
G15  19595316.066   102974064.280        -823.110          41.000  
G24  19968747.951   104936476.297        1749.121          42.000  
G28  23738792.144   124748183.610        -902.841          41.000  
R 5  20583055.635   110028190.046       -2112.378          40.000  
R15  20573867.286   109940128.308       -2950.342          33.000  
J 2  36108361.905   189750707.580        -436.704          36.000  
R16  18946478.435   101208620.229        1134.837          43.000  
G20  22112185.768                        2672.460          23.000  
R22  21960911.824                        -128.631          21.000  
R 6  19342596.818                         682.418          23.000  
R 7  22254191.705                        2140.232          14.000  
R 9  22305746.985   119111314.157        3910.322          44.000  
R21  21485168.619   114971328.422       -3423.419          29.000  
J 3  36898189.682   193901316.671        -834.710          36.000  
> 2019 10  9  7 20 23.9970000  0 16                     
G 5  21718582.094   114131897.672       -3111.924          48.000  
G13  20988667.057   110296191.934       -2609.386          46.000  
G15  19595473.223   102974887.434        -823.249          41.000  
G24  19968415.507   104934727.145        1748.938          43.000  
G28  23738963.854   124749086.449        -903.136          42.000  
R 5  20583450.394   110030302.395       -2112.660          40.000  
R15  20574418.556   109943079.206       -2951.596          33.000  
J 2  36108445.020   189751143.930        -436.856          36.000  
R16  18946266.066   101207485.676        1134.012          43.000  
G20  22111679.136                        2673.430          24.000  
R22  21960934.806                        -123.803          20.000  
R 6  19342466.639                         686.271          22.000  
R 7  22253792.584                        2153.122          12.000  
R 9  22305014.163   119107403.704        3910.559          44.000  
R21  21485814.486   114974752.074       -3423.861          29.000  
J 3  36898348.496   193902150.783        -834.176          36.000  
> 2019 10  9  7 20 24.9970000  0 16                     
G 5  21719174.529   114135009.718       -3112.138          48.000  
G13  20989163.586   110298801.307       -2609.522          45.000  
G15  19595630.292   102975710.829        -823.643          41.000  
G24  19968083.377   104932978.482        1748.486          43.000  
G28  23739135.669   124749989.754        -903.642          41.000  
R 5  20583845.275   110032414.909       -2112.259          40.000  
R15  20574970.872   109946030.712       -2951.588          33.000  
J 2  36108528.101   189751580.295        -436.253          36.000  
R16  18946053.435   101206351.935        1133.426          43.000  
G20  22111171.945                        2672.992          25.000  
R22  21960955.310                        -133.623          19.000  
R 6  19342336.478                         682.391          20.000  
R 7  22253388.437                        2165.842          12.000  
R 9  22304281.603   119103493.291        3910.517          44.000  
R21  21486458.783   114978176.161       -3424.213          29.000  
J 3  36898506.996   193902984.832        -834.178          36.000  
> 2019 10  9  7 20 25.9970000  0 16                     
G 5  21719766.597   114138122.081       -3112.723          48.000  
G13  20989660.010   110301410.814       -2609.873          45.000  
G15  19595787.013   102976534.487        -823.717          41.000  
G24  19967750.741   104931230.360        1747.815          43.000  
G28  23739307.414   124750893.574        -904.038          41.000  
R 5  20584240.470   110034527.689       -2112.958          41.000  
R15  20575523.399   109948982.986       -2952.715          33.000  
J 2  36108610.937   189752016.808        -436.412          36.000  
R16  18945841.083   101205219.102        1132.161          43.000  
G20  22110665.330                        2671.160          25.000  
R22  21960976.146                        -136.126          20.000  
R 6  19342208.795                         685.189          19.000  
R 7  22252983.801                        2166.524          13.000  
R 9  22303549.270   119099582.970        3910.210          44.000  
R21  21487102.470   114981600.669       -3424.440          29.000  
J 3  36898665.741   193903818.855        -834.627          36.000  
> 2019 10  9  7 20 26.9970000  0 16                     
G 5  21720358.753   114141234.628       -3112.873          48.000  
G13  20990156.503   110304020.330       -2609.822          45.000  
G15  19595943.908   102977358.318        -823.900          41.000  
G24  19967418.507   104929482.662        1747.028          43.000  
G28  23739479.421   124751797.802        -904.670          41.000  
R 5  20584635.647   110036640.592       -2113.212          41.000  
R15  20576075.873   109951935.794       -2952.755          32.000  
J 2  36108693.756   189752453.276        -436.650          36.000  
R16  18945628.958   101204086.982        1131.616          42.000  
G20  22110160.042                        2672.521          25.000  
R22  21960997.522                        -141.726          20.000  
R 6  19342081.077                         679.068          18.000  
R 7  22252581.050                        2153.542          13.000  
R 9  22302816.710   119095672.610        3909.990          44.000  
R21  21487743.800                       -3425.439          29.000  
J 3  36898824.276   193904652.675        -833.897          36.000  
> 2019 10  9  7 20 27.9970000  0 16                     
G 5  21720951.118   114144347.464       -3113.119          48.000  
G13  20990652.683   110306629.951       -2609.760          45.000  
G15  19596100.960   102978182.421        -824.274          41.000  
G24  19967086.115   104927735.444        1746.881          43.000  
G28  23739651.236   124752702.514        -905.003          41.000  
R 5  20585031.314   110038753.748       -2113.458          41.000  
R15  20576628.399   109954889.422       -2954.156          33.000  
J 2  36108776.592   189752889.812        -436.374          35.000  
R16  18945416.764   101202955.693        1130.891          42.000  
G20  22109650.740                        2674.435          24.000  
R22  21961019.300                        -134.394          22.000  
R 6  19341952.975                         690.515          19.000  
R 7  22252174.059                        2173.033          12.000  
R 9  22302084.080   119091762.300        3910.311          44.000  
R21  21488375.829                       -3425.508          28.000  
J 3  36898983.056   193905486.418        -833.569          36.000  
> 2019 10  9  7 20 28.9970000  0 16                     
G 5  21721543.536   114147460.334       -3112.740          48.000  
G13  20991149.019   110309239.446       -2609.478          45.000  
G15  19596257.628   102979006.547        -823.864          41.000  
G24  19966753.880   104925988.510        1746.783          43.000  
G28  23739822.946   124753607.467        -904.986          41.000  
R 5  20585426.858   110040866.884       -2113.091          42.000  
R15  20577181.117   109957843.427       -2954.164          32.000  
J 2  36108859.428   189753326.185        -436.064          35.000  
R16  18945204.639   101201824.978        1130.435          42.000  
G20  22109143.601                        2673.486          24.000  
R22  21961040.502                        -139.318          23.000  
R 6  19341824.942                         676.347          18.000  
R 7  22251766.491                        2173.033          11.000  
R 9  22301351.590   119087851.825        3910.617          44.000  
R21  21489016.409   114992040.0003      -3426.128          27.000  
J 3  36899141.923   193906319.882        -833.169          36.000  
> 2019 10  9  7 20 29.9970000  0 15                     
G 5  21722135.901   114150573.098       -3113.627          48.000  
G13  20991645.565   110311848.642       -2609.952          45.000  
G15  19596414.435   102979830.532        -824.636          41.000  
G24  19966421.471   104924241.686        1745.941          43.000  
G28  23739994.429   124754512.513        -905.648          40.000  
R 5  20585822.646   110042979.832       -2113.803          42.000  
R15  20577733.818   109960797.702       -2955.049          31.000  
J 2  36108942.264   189753762.228        -436.438          35.000  
R16  18944993.055   101200694.691        1129.189          42.000  
G20  22108633.584                        2672.153          24.000  
R22  21961063.327                        -135.207          24.000  
R 6  19341696.264                         696.195          18.000  
R 9  22300619.047   119083941.003        3910.180          44.000  
R21  21489656.414   114995465.4772      -3426.427          26.000  
J 3  36899300.336   193907152.890        -834.245          36.000  
> 2019 10  9  7 20 30.9970000  0 15                     
G 5  21722728.405   114153686.861       -3114.081          48.000  
G13  20992142.164   110314458.674       -2610.481          45.000  
G15  19596571.522   102980655.503        -825.282          41.000  
G24  19966089.166   104922496.106        1744.849          43.000  
G28  23740166.541   124755418.800        -906.760          40.000  
R 5  20586218.138   110045093.734       -2114.109          42.000  
R15  20578286.676   109963753.472       -2956.455          30.000  
J 2  36109025.048   189754199.080        -437.246          34.000  
R16  18944781.628   101199565.991        1128.039          42.000  
G20  22108127.248                        2673.309          24.000  
R22  21961084.442                        -137.663          25.000  
R 6  19341568.459                         682.024          17.000  
R 9  22299886.836   119080030.972        3909.734          44.000  
R21  21490291.933   114998891.7831      -3428.142          26.000  
J 3  36899459.203   193907986.531        -834.583          36.000  
> 2019 10  9  7 20 31.9970000  0 16                     
G 5  21723320.579   114156801.191       -3114.278          48.000  
G13  20992638.867   110317069.085       -2610.348          45.000  
G15  19596728.557   102981481.009        -825.568          41.000  
G24  19965756.844   104920751.290        1744.873          43.000  
G28  23740338.582   124756325.851        -907.266          40.000  
R 5  20586613.856   110047208.142       -2114.419          42.000  
R15  20578839.254   109966710.226       -2957.720          30.000  
J 2  36109107.972   189754636.271        -436.950          34.000  
R16  18944570.376   101198438.396        1127.107          42.000  
G20  22107620.895                        2671.459          25.000  
R22  21961107.214                        -137.621          26.000  
R 6  19341441.491                         698.734          15.000  
R 9  22299154.520   119076121.292        3909.693          44.000  
R21  21490927.034   115002319.176       -3427.112          25.000  
J 3  36899617.825   193908820.358        -833.392          36.000  
J 1  37885820.493                          35.000          29.000  
> 2019 10  9  7 20 32.9970000  0 16                     
G 5  21723913.537   114159915.882       -3114.962          49.000  
G13  20993135.604   110319679.694       -2610.814          45.000  
G15  19596885.679   102982306.856        -826.144          41.000  
G24  19965425.151   104919007.063        1743.915          43.000  
G28  23740510.868   124757233.472        -908.082          40.000  
R 5  20587010.099   110049322.833       -2114.862          43.000  
R15  20579390.716   109969667.711       -2958.118          29.000  
J 2  36109190.947   189755073.645        -437.982          35.000  
R16  18944359.630   101197311.710        1125.985          43.000  
G20  22107113.653                        2672.618          24.000  
R22  21961131.418                        -138.492          27.000  
R 6  19341311.801                         694.019          13.000  
R 9  22298422.099   119072211.744        3909.372          44.000  
R21  21491566.549                       -3421.591          23.000  
J 3  36899776.639   193909654.232        -834.331          36.000  
J 1  37885806.306                          41.992          29.000  
> 2019 10  9  7 20 33.9970000  0 17                     
G 5  21724506.286   114163030.873       -3115.311          49.000  
G13  20993632.325   110322290.435       -2611.227          45.000  
G15  19597042.905   102983132.993        -826.481          41.000  
G24  19965093.754   104917263.391        1743.207          43.000  
G28  23740683.399   124758141.600        -908.554          40.000  
R 5  20587405.922   110051437.797       -2115.495          42.000  
R15  20579941.654   109972625.830       -2958.246          30.000  
J 2  36109274.168   189755511.079        -437.536          35.000  
R16  18944148.918   101196185.893        1125.369          42.000  
G20  22106606.584                        2671.412          25.000  
R22  21961158.728   117230074.6853       -139.778          28.000  
R 6  19341184.729                         682.399          13.000  
R 7  22249650.513                        2161.117          18.000  
R 9  22297689.749   119068302.297        3909.062          44.000  
R21  21492205.978                       -3412.285          21.000  
J 3  36899935.314   193910488.019        -834.129          36.000  
J 1  37885800.599   199091225.4332         37.503          29.000  
> 2019 10  9  7 20 34.9970000  0 17                     
G 5  21725099.419   114166146.149       -3115.283          49.000  
G13  20994129.272   110324901.273       -2610.807          45.000  
G15  19597199.940   102983959.399        -826.280          40.000  
G24  19964761.885   104915520.217        1743.164          43.000  
G28  23740856.278   124759050.223        -908.799          40.000  
R 5  20587801.815   110053552.982       -2115.125          43.000  
R15  20580496.536   109975584.787       -2960.041          30.000  
J 2  36109357.318   189755948.587        -437.471          35.000  
R16  18943938.311   101195060.950        1124.706          43.000  
G20  22106103.006                        2670.659          25.000  
R22  21961186.386   117230214.700        -140.684          28.000  
R 6  19341058.721                         681.679          13.000  
R 7  22249244.656                        2156.620          20.000  
R 9  22296957.398   119064392.893        3909.466          44.000  
R21  21492848.704                       -3425.565          20.000  
J 3  36900093.902   193911321.748        -833.824          36.000  
J 1  37885791.665   199091187.4212         37.160          29.000  
> 2019 10  9  7 20 35.9970000  0 17                     
G 5  21725692.360   114169261.678       -3115.822          49.000  
G13  20994626.272   110327512.195       -2611.154          45.000  
G15  19597357.026   102984786.023        -826.814          40.000  
G24  19964430.227   104913777.525        1742.413          43.000  
G28  23741029.279   124759959.293        -909.264          40.000  
R 5  20588197.551   110055668.372       -2115.528          43.000  
R15  20581056.671   109978544.272       -2960.031          31.000  
J 2  36109440.573   189756386.171        -438.102          35.000  
R16  18943727.879   101193936.797        1123.590          43.000  
G20  22105599.061                        2670.248          25.000  
R22  21961212.963   117230355.445        -141.053          28.000  
R 6  19340929.205                         679.556          15.000  
R 7  22248841.800                        2159.687          22.000  
R 9  22296224.960   119060483.521        3909.233          44.000  
R21  21493490.750                       -3435.001          20.000  
J 3  36900252.769   193912155.384        -833.697          36.000  
J 1  37885781.788   199091149.2252         37.950          29.000  
> 2019 10  9  7 20 36.9970000  0 17                     
G 5  21726285.493   114172377.543       -3115.834          49.000  
G13  20995123.062   110330123.274       -2611.047          45.000  
G15  19597513.886   102985612.962        -826.750          40.000  
G24  19964098.550   104912035.375        1742.059          43.000  
G28  23741202.106   124760868.935        -909.889          39.000  
R 5  20588593.235   110057784.028       -2115.562          42.000  
R15  20581616.980   109981504.625       -2960.595          31.000  
J 2  36109523.967   189756823.849        -437.480          35.000  
R16  18943517.465   101192813.543        1123.016          43.000  
G20  22105094.174                        2671.561          25.000  
R22  21961242.750   117230497.041        -141.442          28.000  
R 6  19340800.039                         693.283          15.000  
R 7  22248439.119                        2162.539          23.000  
R 9  22295492.714   119056574.301        3909.315          44.000  
R21  21494134.244                       -3435.818          19.000  
J 3  36900411.531   193912989.020        -833.719          36.000  
J 1  37885769.329   199091111.0502         38.200          29.000  
> 2019 10  9  7 20 37.9970000  0 17                     
G 5  21726878.730   114175493.645       -3116.251          49.000  
G13  20995620.009   110332734.410       -2611.187          45.000  
G15  19597671.043   102986440.143        -827.584          40.000  
G24  19963767.223   104910293.687        1741.278          43.000  
G28  23741375.160   124761779.023        -910.332          39.000  
R 5  20588989.058   110059899.849       -2115.795          42.000  
R15  20582173.851   109984465.637       -2961.168          32.000  
J 2  36109607.222   189757261.558        -437.702          35.000  
R16  18943307.434   101191691.063        1122.151          43.000  
G20  22104586.215                        2670.585          25.000  
R22  21961269.327   117230639.480        -142.745          28.000  
R 6  19340671.134                         687.158          17.000  
R 7  22248038.270                        2160.156          24.000  
R 9  22294760.189   119052665.074        3909.172          44.000  
R21  21494775.330                       -3430.324          18.000  
J 3  36900569.996   193913822.476        -832.708          36.000  
J 1  37885762.488   199091072.2111         38.634          29.000  
> 2019 10  9  7 20 38.9970000  0 17                     
G 5  21727471.636   114178609.904       -3116.016          49.000  
G13  20996116.800   110335345.539       -2610.720          45.000  
G15  19597828.217   102987267.440        -827.254          41.000  
G24  19963435.774   104908552.362        1741.467          43.000  
G28  23741548.528   124762689.466        -910.198          39.000  
R 5  20589385.021   110062015.780       -2115.775          42.000  
R15  20582731.124   109987427.261       -2962.332          32.000  
J 2  36109690.512   189757699.257        -437.544          36.000  
R16  18943097.560   101190569.313        1121.873          43.000  
G20  22104076.913                        2673.403          24.000  
R22  21961296.148   117230782.584        -143.122          28.000  
R 6  19340543.224                         683.100          19.000  
R 7  22247641.155                        2162.970          25.000  
R 9  22294028.047   119048755.780        3909.733          44.000  
R21  21495415.980                       -3434.381          17.000  
J 3  36900728.706   193914655.815        -832.656          36.000  
J 1  37885757.114   199091033.747          38.796          29.000  
> 2019 10  9  7 20 39.9970000  0 17                     
G 5  21728064.909   114181726.134       -3116.741          49.000  
G13  20996613.590   110337956.463       -2611.303          45.000  
G15  19597985.374   102988094.678        -827.736          41.000  
G24  19963104.376   104906811.221        1740.753          43.000  
G28  23741721.634   124763600.105        -911.304          39.000  
R 5  20589780.530   110064131.610       -2116.198          42.000  
R15  20583286.686   109990389.175       -2962.120          32.000  
J 2  36109774.029   189758136.685        -438.082          36.000  
R16  18942887.773   101189448.063        1120.699          42.000  
G20  22103570.386                        2671.411          25.000  
R22  21961322.568   117230926.117        -144.139          28.000  
R 6  19340412.766                         690.061          20.000  
R 7  22247241.353                        2160.577          26.000  
R 9  22293295.819   119044846.246        3908.997          44.000  
R21  21496057.031                       -3432.358          16.000  
J 3  36900887.259   193915488.750        -833.531          36.000  
J 1  37885749.052   199090994.884          38.439          29.000  
> 2019 10  9  7 20 40.9970000  0 17                     
G 5  21728658.094   114184843.393       -3117.613          49.000  
G13  20997110.677   110340568.243       -2612.023          45.000  
G15  19598142.670   102988922.946        -828.739          41.000  
G24  19962773.136   104905071.363        1739.471          43.000  
G28  23741894.932   124764511.980        -912.413          39.000  
R 5  20590176.249   110066248.460       -2117.188          41.000  
R15  20583841.813   109993352.601       -2963.834          32.000  
J 2  36109857.685   189758574.941        -438.490          36.000  
R16  18942678.510   101188328.406        1119.007          43.000  
G20  22103066.284                        2669.846          26.000  
R22  21961346.771   117231071.331        -145.927          28.000  
R 6  19340282.221                         684.882          21.000  
R 7  22246842.843                        2160.603          26.000  
R 9  22292563.573   119040937.506        3908.605          44.000  
R21  21496696.111                       -3418.323          15.000  
J 3  36901045.846   193916322.371        -833.896          35.000  
J 1  37885739.820   199090956.651          37.833          28.000  
> 2019 10  9  7 20 41.9970000  0 17                     
G 5  21729251.646   114187961.435       -3118.454          49.000  
G13  20997607.781   110343180.636       -2612.713          45.000  
G15  19598300.193   102989751.954        -829.348          41.000  
G24  19962442.368   104903332.499        1738.409          43.000  
G28  23742068.370   124765424.850        -913.303          38.000  
R 5  20590572.124   110068366.049       -2117.896          41.000  
R15  20584397.026   109996317.206       -2964.911          32.000  
J 2  36109941.150   189759013.767        -439.269          36.000  
R16  18942469.265   101187210.106        1117.575          42.000  
G20  22102558.605                        2668.945          25.000  
R22  21961373.836   117231217.694        -146.898          28.000  
R 6  19340155.305                         686.985          22.000  
R 7  22246445.431                        2160.762          27.000  
R 9  22291831.710   119037029.334        3907.881          44.000  
R21  21497336.761                       -3419.534          13.000  
J 3  36901204.643   193917156.442        -834.690          35.000  
J 1  37885734.341   199090918.844          37.610          29.000  
> 2019 10  9  7 20 42.9970000  0 16                     
G 5  21729845.232   114191079.653       -3118.206          49.000  
G13  20998105.043   110345793.028       -2612.339          45.000  
G15  19598458.083   102990581.144        -829.124          41.000  
G24  19962111.581   104901594.044        1738.226          43.000  
G28  23742241.930   124766338.119        -913.724          38.000  
R 5  20590968.262   110070483.748       -2117.769          41.000  
R15  20584951.891   109999282.487       -2965.705          32.000  
J 2  36110024.998   189759452.568        -438.853          36.000  
R16  18942259.984   101186092.554        1117.334          42.000  
G20  22102050.699                        2670.295          25.000  
R22  21961398.825   117231364.931        -148.151          27.000  
R 6  19340028.059                         679.605          23.000  
R 7  22246047.898   119084775.4961       2160.861          28.000  
R 9  22291099.709   119033121.157        3908.237          44.000  
J 3  36901363.196   193917990.273        -833.323          35.000  
J 1  37885728.199   199090880.891          37.848          29.000  
> 2019 10  9  7 20 43.9970000  0 16                     
G 5  21730439.325   114194198.132       -3118.602          49.000  
G13  20998602.339   110348405.506       -2612.484          45.000  
G15  19598615.763   102991410.561        -829.170          41.000  
G24  19961780.516   104899856.065        1737.689          43.000  
G28  23742415.577   124767251.831        -914.030          38.000  
R 5  20591364.451   110072601.647       -2117.867          42.000  
R15  20585506.825   110002248.389       -2966.318          33.000  
J 2  36110108.637   189759891.435        -438.719          35.000  
R16  18942050.774   101184975.838        1116.231          42.000  
G20  22101544.241                        2669.949          26.000  
R22  21961425.018   117231512.834        -148.411          27.000  
R 6  19339901.230                         681.655          23.000  
R 7  22245650.539   119082614.176        2161.235          28.000  
R 9  22290367.777   119029212.977        3908.334          44.000  
J 3  36901521.434   193918824.090        -834.013          35.000  
J 1  37885720.782   199090842.832          38.043          28.000  
> 2019 10  9  7 20 44.9970000  0 16                     
G 5  21731033.383   114197316.852       -3118.739          49.000  
G13  20999099.653   110351018.051       -2612.481          45.000  
G15  19598773.879   102992240.222        -829.868          41.000  
G24  19961449.694   104898118.571        1737.341          43.000  
G28  23742589.486   124768166.000        -914.176          38.000  
R 5  20591760.885   110074719.712       -2117.907          42.000  
R15  20586062.126   110005214.908       -2966.292          33.000  
J 2  36110192.363   189760330.300        -438.685          35.000  
R16  18941841.650   101183859.900        1115.714          42.000  
G20  22101036.492                        2670.088          26.000  
R22  21961452.903   117231661.495        -149.299          26.000  
R 6  19339773.582                         682.034          24.000  
R 7  22245250.301   119080452.747        2161.799          28.000  
R 9  22289636.002   119025304.861        3908.164          44.000  
J 3  36901680.004   193919657.768        -833.762          35.000  
J 1  37885712.668   199090804.667          37.879          28.000  
> 2019 10  9  7 20 45.9970000  0 16                     
G 5  21731627.126   114200435.814       -3119.105          50.000  
G13  20999596.652   110353630.678       -2612.573          45.000  
G15  19598932.031   102993070.078        -829.814          41.000  
G24  19961119.118   104896381.550        1736.700          43.000  
G28  23742763.290   124769080.672        -914.613          37.000  
R 5  20592157.250   110076837.945       -2118.078          42.000  
R15  20586617.375   110008182.117       -2966.771          34.000  
J 2  36110276.107   189760769.259        -438.989          35.000  
R16  18941632.946   101182744.748        1114.819          42.000  
G20  22100528.586                        2669.382          26.000  
R22  21961481.434   117231810.935        -149.583          26.000  
R 6  19339645.899                         681.198          24.000  
R 7  22244849.958   119078291.255        2161.899          28.000  
R 9  22288904.297   119021396.729        3908.230          44.000  
J 3  36901838.452   193920491.323        -834.393          34.000  
J 1  37885705.513   199090766.316          38.358          29.000  
> 2019 10  9  7 20 46.9970000  0 16                     
G 5  21732221.184   114203555.046       -3119.299          50.000  
G13  21000094.018   110356243.386       -2612.529          45.000  
G15  19599089.746   102993900.204        -830.046          41.000  
G24  19960788.453   104894645.058        1736.536          43.000  
G28  23742937.269   124769995.790        -915.112          37.000  
R 5  20592553.684   110078956.398       -2118.637          42.000  
R15  20587172.728   110011150.053       -2968.291          34.000  
J 2  36110360.042   189761208.273        -439.361          35.000  
R16  18941424.102   101181630.404        1114.099          42.000  
G20  22100020.872                        2670.273          26.000  
R22  21961509.669   117231961.264        -150.592          26.000  
R 6  19339516.942                         682.094          24.000  
R 7  22244447.347   119076129.646        2161.770          28.000  
R 9  22288172.452   119017488.670        3908.251          44.000  
J 3  36901996.935   193921324.818        -833.428          34.000  
J 1  37885698.952   199090727.934          38.458          29.000  
> 2019 10  9  7 20 47.9970000  0 17                     
G 5  21732815.033   114206674.607       -3119.996          50.000  
G13  21000591.681   110358856.254       -2613.247          45.000  
G15  19599247.845   102994730.623        -830.880          41.000  
G24  19960458.278   104892909.127        1735.156          43.000  
G28  23743111.666   124770911.437        -916.011          38.000  
R 5  20592950.275   110081075.137       -2119.126          42.000  
R15  20587727.889   110014118.679       -2969.249          34.000  
J 2  36110443.594   189761647.309        -439.265          35.000  
R16  18941215.659   101180516.949        1112.769          42.000  
G20  22099513.437                        2667.548          26.000  
R22  21961535.984   117232112.364        -151.557          25.000  
R 6  19339388.089                         679.455          24.000  
R 7  22244041.926   119073967.952        2162.114          27.000  
R 9  22287440.677   119013580.713        3907.590          45.000  
R21  21501134.608                       -3429.563          16.000  
J 3  36902155.523   193922158.301        -834.355          34.000  
J 1  37885694.485   199090689.491          38.214          29.000  
> 2019 10  9  7 20 48.9970000  0 17                     
G 5  21733408.654   114209794.371       -3119.448          50.000  
G13  21001088.925   110361469.135       -2612.387          45.000  
G15  19599405.787   102995561.222        -829.927          41.000  
G24  19960128.189   104891173.611        1735.626          43.000  
G28  23743285.959   124771827.509        -915.748          38.000  
R 5  20593347.110   110083194.024       -2118.316          42.000  
R15  20588283.329   110017087.924       -2968.763          34.000  
J 2  36110527.215   189762086.420        -438.540          35.000  
R16  18941007.198   101179404.261        1112.636          42.000  
G20  22099006.473                        2670.205          26.000  
R22  21961564.672                        -151.381          25.000  
R 6  19339257.143                         689.960          23.000  
R 7  22243637.499   119071806.257        2162.384          27.000  
R 9  22286709.042   119009672.747        3908.178          45.000  
R21  21501778.085                       -3434.854          18.000  
J 3  36902314.093   193922991.570        -832.934          34.000  
J 1  37885683.072   199090650.929          39.121          29.000  
> 2019 10  9  7 20 49.9970000  0 17                     
G 5  21734002.014   114212913.939       -3119.913          50.000  
G13  21001586.291   110364081.656       -2612.643          46.000  
G15  19599563.955   102996391.649        -830.999          41.000  
G24  19959797.822   104889438.116        1735.181          43.000  
G28  23743460.828   124772743.610        -916.506          39.000  
R 5  20593743.876   110085312.665       -2118.975          42.000  
R15  20588838.927   110020057.418       -2970.377          34.000  
J 2  36110611.064   189762525.139        -438.914          35.000  
R16  18940798.878   101178291.954        1111.748          42.000  
G20  22098500.766                        2669.733          26.000  
R22  21961593.622                        -151.869          26.000  
R 6  19339127.086                         685.016          21.000  
R 7  22243231.485   119069643.921        2162.463          26.000  
R 9  22285977.145   119005764.350        3908.432          45.000  
R21  21502423.133                       -3430.381          19.000  
J 3  36902472.489   193923824.352        -832.990          34.000  
J 1  37885675.237   199090611.773          39.318          29.000  
> 2019 10  9  7 20 50.9970000  0 17                     
G 5  21734595.618   114216034.506       -3121.160          50.000  
G13  21002083.675   110366695.009       -2613.910          46.000  
G15  19599722.107   102997223.004        -831.917          41.000  
G24  19959467.873   104887703.879        1733.307          43.000  
G28  23743635.312   124773660.915        -917.875          39.000  
R 5  20594140.519   110087432.236       -2120.106          42.000  
R15  20589394.786   110023028.285       -2971.942          34.000  
J 2  36110695.034   189762964.622        -440.238          35.000  
R16  18940590.644   101177181.223        1109.845          42.000  
G20  22097996.350   116125754.1923       2668.359          27.000  
R22  21961623.095                        -154.531          26.000  
R 6  19338997.222                         687.493          21.000  
R 7  22242826.745   119067482.8572       2160.906          26.000  
R 9  22285245.370   119001856.768        3906.978          45.000  
R21  21503068.442                       -3440.546          21.000  
J 3  36902630.902   193924657.795        -834.247          34.000  
J 1  37885665.116   199090573.285          37.978          29.000  
> 2019 10  9  7 20 51.9970000  0 17                     
G 5  21735189.501   114219155.773       -3121.484          49.000  
G13  21002581.093   110369308.872       -2614.189          46.000  
G15  19599880.502   102998055.074        -832.394          41.000  
G24  19959137.977   104885970.526        1732.788          43.000  
G28  23743810.408   124774579.140        -918.607          39.000  
R 5  20594537.512   110089552.459       -2120.346          42.000  
R15  20589951.082   110026000.327       -2972.757          35.000  
J 2  36110778.987   189763404.584        -440.329          35.000  
R16  18940382.847   101176071.744        1109.014          42.000  
G20  22097493.121   116123085.9222       2668.461          27.000  
R22  21961655.989   117232715.2553       -155.306          27.000  
R 6  19338868.701                         684.993          22.000  
R 7  22242420.835   119065321.5892       2161.477          25.000  
R 9  22284514.014   118997949.655        3907.049          45.000  
R21  21503715.374                       -3430.518          21.000  
J 3  36902789.385   193925491.533        -834.258          33.000  
J 1  37885660.910   199090535.110          38.300          28.000  
> 2019 10  9  7 20 52.9970000  0 17                     
G 5  21735783.262   114222277.385       -3121.982          49.000  
G13  21003078.442   110371922.897       -2614.271          45.000  
G15  19600039.020   102998887.429        -832.668          41.000  
G24  19958808.342   104884237.710        1732.501          43.000  
G28  23743985.800   124775497.889        -919.330          39.000  
R 5  20594934.539   110091672.968       -2120.823          43.000  
R15  20590507.115   110028973.053       -2972.913          35.000  
J 2  36110863.184   189763844.711        -440.394          35.000  
R16  18940175.207   101174963.148        1108.132          42.000  
G20  22096987.466   116120417.8682       2667.668          27.000  
R22  21961687.679   117232871.1032       -156.351          27.000  
R 6  19338740.930                         678.605          23.000  
R 7  22242014.420                        2161.561          25.000  
R 9  22283782.326   118994042.678        3906.815          45.000  
R21  21504360.770                       -3437.467          21.000  
J 3  36902948.304   193926325.259        -833.838          34.000  
J 1  37885656.129   199090496.931          38.051          28.000  
> 2019 10  9  7 20 53.9970000  0 18                     
G 5  21736376.831   114225399.244       -3121.861          49.000  
G13  21003575.930   110374537.012       -2614.292          46.000  
G15  19600197.276   102999720.041        -832.506          41.000  
G24  19958478.586   104882505.380        1732.104          43.000  
G28  23744161.262   124776417.097        -919.368          39.000  
R 5  20595331.392   110093793.677       -2120.691          43.000  
R15  20591063.516   110031946.529       -2973.697          34.000  
J 2  36110947.085   189764284.847        -439.900          35.000  
R16  18939967.514   101173855.346        1107.514          42.000  
G20  22096481.723   116117749.8102       2668.159          27.000  
R22  21961720.991   117233027.7382       -156.677          26.000  
R 6  19338610.734                         680.377          22.000  
R 7  22241607.306                        2160.814          24.000  
R 9  22283050.813   118990135.737        3907.070          45.000  
G21  21846797.098                         211.000          25.000  
R21  21505006.114                       -3443.782          21.000  
J 3  36903106.595   193927158.908        -833.795          33.000  
J 1  37885646.741   199090458.668          37.783          28.000  
> 2019 10  9  7 20 54.9970000  0 18                     
G 5  21736970.645   114228521.349       -3122.241          49.000  
G13  21004073.663   110377151.174       -2614.188          46.000  
G15  19600356.213   103000552.861        -832.974          41.000  
G24  19958148.724   104880773.501        1731.677          43.000  
G28  23744336.497   124777336.760        -919.586          40.000  
R 5  20595728.367   110095914.568       -2120.984          43.000  
R15  20591620.021   110034920.634       -2974.920          34.000  
J 2  36111030.794   189764725.042        -440.190          35.000  
R16  18939760.206   101172748.330        1106.649          41.000  
G20  22095976.801   116115081.3731       2667.820          27.000  
R22  21961754.111   117233185.176        -157.778          26.000  
R 6  19338479.997                         678.370          23.000  
R 7  22241202.234   119058837.2712       2161.992          24.000  
R 9  22282319.126   118986228.801        3906.889          45.000  
G21  21846757.643                         206.060          26.000  
R21  21505650.672                       -3435.948          21.000  
J 3  36903265.200   193927992.422        -833.457          33.000  
J 1  37885639.115   199090420.191          38.626          28.000  
> 2019 10  9  7 20 55.9970000  0 18                     
G 5  21737564.738   114231643.732       -3122.709          49.000  
G13  21004571.256   110379765.458       -2614.529          46.000  
G15  19600515.027   103001385.932        -833.309          41.000  
G24  19957819.107   104879042.143        1730.945          43.000  
G28  23744511.976   124778256.934        -920.586          40.000  
R 5  20596126.040   110098035.676       -2121.283          43.000  
R15  20592176.473   110037895.379       -2975.104          34.000  
J 2  36111115.096   189765165.313        -440.292          35.000  
R16  18939552.758   101171642.177        1105.487          41.000  
G20  22095468.250   116112413.543        2667.121          27.000  
R22  21961783.951   117233343.337        -158.780          25.000  
R 6  19338350.656                         670.529          22.000  
R 7  22240795.243   119056675.7142       2161.356          24.000  
R 9  22281587.543   118982321.956        3906.680          45.000  
G21  21846714.401   114805258.0642        206.366          27.000  
R21  21506296.034                       -3445.915          21.000  
J 3  36903423.543   193928825.906        -833.586          33.000  
J 1  37885632.083   199090381.740          38.229          29.000  
> 2019 10  9  7 20 56.9970000  0 18                     
G 5  21738158.708   114234766.358       -3122.662          49.000  
G13  21005068.988   110382379.798       -2614.203          45.000  
G15  19600673.650   103002219.235        -833.295          41.000  
G24  19957489.507   104877311.263        1730.652          42.000  
G28  23744687.421   124779177.534        -920.631          40.000  
R 5  20596523.277   110100156.951       -2121.326          43.000  
R15  20592732.838   110040870.817       -2975.734          34.000  
J 2  36111199.101   189765605.573        -439.731          35.000  
R16  18939345.536   101170536.838        1105.029          41.000  
G20  22094960.605   116109745.718        2668.167          27.000  
R22  21961810.231                        -160.092          25.000  
R 6  19338220.007                         687.066          21.000  
R 7  22240388.513                        2164.162          23.000  
R 9  22280855.838   118978415.129        3906.822          45.000  
G21  21846668.996   114805051.3822        206.729          27.000  
R21  21506938.446                       -3447.062          22.000  
J 3  36903582.026   193929659.259        -833.734          32.000  
J 1  37885624.248   199090343.112          38.391          29.000  
> 2019 10  9  7 20 57.9970000  0 18                     
G 5  21738752.556   114237889.292       -3123.196          49.000  
G13  21005566.773   110384994.278       -2614.600          46.000  
G15  19600832.708   103003052.833        -833.956          42.000  
G24  19957159.890   104875580.928        1730.066          42.000  
G28  23744863.092   124780098.675        -921.467          40.000  
R 5  20596920.671   110102278.480       -2121.482          43.000  
R15  20593289.605   110043846.979       -2976.964          34.000  
J 2  36111282.949   189766045.991        -440.848          36.000  
R16  18939138.699   101169432.352        1103.890          41.000  
G20  22094454.793   116107078.114        2667.587          28.000  
R22  21961838.780   117233662.0042       -160.074          25.000  
R 6  19338090.788                         674.300          21.000  
R 7  22239983.703                        2154.288          22.000  
R 9  22280124.691   118974508.387        3906.709          45.000  
G21  21846617.954   114804845.2482        205.770          28.000  
R21  21507580.457                       -3442.444          22.000  
J 3  36903740.439   193930492.595        -833.909          32.000  
J 1  37885615.278   199090304.449          38.305          29.000  
> 2019 10  9  7 20 58.9970000  0 18                     
G 5  21739346.510   114241012.498       -3123.105          49.000  
G13  21006064.331   110387608.864       -2614.475          46.000  
G15  19600991.244   103003886.677        -833.813          42.000  
G24  19956830.308   104873851.096        1729.932          42.000  
G28  23745038.729   124781020.298        -921.610          40.000  
R 5  20597318.047   110104400.251       -2121.639          44.000  
R15  20593845.935   110046823.834       -2977.195          34.000  
J 2  36111367.007   189766486.422        -439.673          36.000  
R16  18938932.019   101168328.702        1103.321          41.000  
G20  22093951.041   116104410.546        2668.039          28.000  
R22  21961867.678                        -159.937          24.000  
R 6  19337962.686                         678.929          22.000  
R 7  22239578.998                        2163.057          22.000  
R 9  22279392.864   118970601.714        3906.895          45.000  
G21  21846580.750   114804639.5982        205.676          28.000  
R21  21508224.580                       -3441.035          23.000  
J 3  36903898.887   193931325.759        -832.855          32.000  
J 1  37885609.520   199090265.674          39.219          29.000  
> 2019 10  9  7 20 59.9970000  0 18                     
G 5  21739940.306   114244135.444       -3123.269          49.000  
G13  21006561.715   110390223.010       -2614.384          45.000  
G15  19601149.918   103004720.237        -833.926          42.000  
G24  19956501.092   104872121.236        1729.382          42.000  
G28  23745214.086   124781941.879        -922.079          40.000  
R 5  20597715.179   110106521.707       -2121.830          44.000  
R15  20594402.301   110049800.825       -2977.602          33.000  
J 2  36111450.733   189766926.406        -439.641          36.000  
R16  18938725.513   101167225.332        1102.717          41.000  
G20  22093445.263   116101742.645        2667.254          28.000  
R22  21961895.633                        -158.538          24.000  
R 6  19337834.479                         672.999          22.000  
R 7  22239172.861                        2165.747          21.000  
R 9  22278661.036   118966694.562        3906.867          45.000  
G21  21846544.942   114804433.9872        205.301          29.000  
R21  21508869.260                       -3439.854          24.000  
J 3  36904057.265   193932158.432        -833.751          32.000  
J 1  37885602.016   199090226.328          39.191          29.000  
> 2019 10  9  7 21  0.9970000  0 18                     
G 5  21740534.573   114247259.222       -3124.392          49.000  
G13  21007059.081   110392837.805       -2615.413          45.000  
G15  19601308.628   103005554.612        -835.073          42.000  
G24  19956171.702   104870392.397        1727.972          42.000  
G28  23745389.792   124782864.496        -923.252          40.000  
R 5  20598112.625   110108643.917       -2122.756          44.000  
R15  20594958.806   110052779.030       -2979.218          32.000  
J 2  36111534.965   189767367.050        -441.582          36.000  
R16  18938519.216   101166123.391        1101.078          41.000  
G20  22092937.863   116099075.338        2667.021          28.000  
R22  21961923.571                        -162.688          23.000  
R 6  19337707.511                         684.124          22.000  
R 7  22238765.189                        2170.597          20.000  
R 9  22277929.454   118962788.021        3905.860          45.000  
G21  21846499.676   114804229.3712        203.674          29.000  
R21  21509512.301                       -3441.203          24.000  
J 3  36904215.713   193932991.518        -833.690          32.000  
J 1  37885591.354   199090187.400          38.756          28.000  
> 2019 10  9  7 21  1.9970000  0 18                     
G 5  21741128.596   114250383.877       -3124.755          48.000  
G13  21007556.691   110395453.306       -2615.509          45.000  
G15  19601467.652   103006389.829        -835.205          42.000  
G24  19955842.835   104868664.640        1727.618          42.000  
G28  23745565.568   124783788.196        -923.846          40.000  
R 5  20598509.862   110110766.967       -2122.980          44.000  
R15  20595502.066   110055758.580       -2980.224          32.000  
J 2  36111618.692   189767808.332        -441.440          35.000  
R16  18938312.989   101165022.910        1100.137          41.000  
G20  22092431.039   116096408.786        2665.981          28.000  
R22  21961953.445                        -169.688          22.000  
R 6  19337580.613                         676.451          22.000  
R 7  22238358.843                        2158.449          18.000  
R 9  22277198.045   118958882.160        3905.826          45.000  
G21  21846459.576   114804025.839         203.527          29.000  
R21  21510159.006                       -3442.723          25.000  
J 3  36904373.969   193933825.165        -833.825          32.000  
J 1  37885581.983   199090149.076          38.285          29.000  
> 2019 10  9  7 21  2.9970000  0 18                     
G 5  21741722.863   114253508.815       -3124.998          48.000  
G13  21008054.337   110398068.916       -2615.509          45.000  
G15  19601626.746   103007225.330        -835.621          42.000  
G24  19955513.951   104866937.392        1726.971          42.000  
G28  23745741.623   124784712.406        -924.382          40.000  
R 5  20598907.430   110112890.253       -2123.217          44.000  
R15  20596052.987   110058738.747       -2980.503          32.000  
J 2  36111703.063   189768249.675        -441.399          36.000  
R16  18938106.955   101163923.250        1099.288          41.000  
G20  22091926.013   116093742.289        2665.792          28.000  
R22  21961981.610                        -168.842          22.000  
R 6  19337451.377                         677.477          22.000  
R 7  22237953.056                        2156.471          17.000  
R 9  22276466.567   118954976.352        3905.755          45.000  
G21  21846419.074   114803822.835         202.604          29.000  
R21  21510800.371                       -3444.294          26.000  
J 3  36904532.609   193934658.682        -833.496          31.000  
J 1  37885578.894   199090110.581          38.420          29.000  
> 2019 10  9  7 21  3.9970000  0 18                     
G 5  21742317.252   114256634.120       -3125.196          48.000  
G13  21008551.825   110400684.725       -2615.668          45.000  
G15  19601785.386   103008061.186        -836.024          42.000  
G24  19955185.380   104865210.744        1726.666          42.000  
G28  23745917.714   124785637.197        -924.869          40.000  
R 5  20599305.156   110115013.862       -2123.507          44.000  
R15  20596605.164   110061719.811       -2981.472          32.000  
J 2  36111787.069   189768691.193        -441.614          36.000  
R16  18937900.990   101162824.503        1098.445          41.000  
G20  22091417.705   116091075.978        2666.108          28.000  
R22  21962011.589                        -167.122          22.000  
R 6  19337323.100                         686.660          22.000  
R 7  22237546.710                        2165.690          16.000  
R 9  22275734.984   118951070.687        3905.762          45.000  
G21  21846385.953   114803620.422         202.332          28.000  
R21  21511444.145                       -3444.811          25.000  
J 3  36904693.273   193935492.228        -833.306          31.000  
J 1  37885572.979   199090072.129          38.450          29.000  
> 2019 10  9  7 21  4.9970000  0 18                     
G 5  21742911.554   114259759.821       -3125.920          48.000  
G13  21009049.714   110403300.745       -2616.221          45.000  
G15  19601944.235   103008897.374        -836.040          42.000  
G24  19954856.828   104863484.723        1725.739          43.000  
G28  23746093.874   124786562.576        -925.642          40.000  
R 5  20599702.532   110117137.775       -2124.236          44.000  
R15  20597164.251   110064701.621       -2981.409          31.000  
J 2  36111871.266   189769132.864        -441.486          36.000  
R16  18937695.461   101161726.689        1097.478          42.000  
G20  22090910.637   116088409.869        2666.367          28.000  
R22  21962044.012                        -166.669          22.000  
R 6  19337195.382                         680.585          22.000  
R 7  22237142.598                        2156.855          17.000  
R 9  22275003.558   118947165.198        3905.491          45.000  
G21  21846347.964   114803418.624         201.710          28.000  
R21  21512086.313                       -3418.083          23.000  
J 3  36904852.367   193936325.868        -834.484          32.000  
J 1  37885565.109   199090033.700          38.758          29.000  
> 2019 10  9  7 21  5.9970000  0 18                     
G 5  21743506.275   114262885.587       -3126.001          48.000  
G13  21009547.377   110405916.649       -2616.067          45.000  
G15  19602103.119   103009733.640        -836.481          42.000  
G24  19954528.397   104861759.029        1725.342          43.000  
G28  23746270.313   124787488.252        -926.058          40.000  
R 5  20600099.961   110119261.676       -2123.998          44.000  
R15  20597723.845   110067683.932       -2982.451          31.000  
J 2  36111955.114   189769574.412        -441.578          36.000  
R16  18937490.421   101160629.504        1096.727          42.000  
G20  22090400.951   116085743.711        2665.801          28.000  
R22  21962078.127                        -163.209          22.000  
R 6  19337065.535                         682.083          21.000  
R 7  22236739.969                        2171.197          18.000  
R 9  22274272.150   118943259.580        3905.483          45.000  
G21  21846315.105   114803217.178         200.663          28.000  
R21  21512728.603                       -3450.133          21.000  
J 3  36905011.426   193937159.153        -833.237          32.000  
J 1  37885559.542   199089994.985          38.143          29.000  
> 2019 10  9  7 21  6.9970000  0 18                     
G 5  21744100.507   114266011.758       -3126.307          48.000  
G13  21010045.040   110408532.795       -2616.188          45.000  
G15  19602262.248   103010570.275        -836.583          42.000  
G24  19954200.298   104860033.962        1724.915          43.000  
G28  23746446.752   124788414.528        -926.602          40.000  
R 5  20600497.511   110121385.942       -2124.373          44.000  
R15  20598280.088   110070667.044       -2983.373          31.000  
J 2  36112039.277   189770016.172        -441.705          36.000  
R16  18937285.381   101159533.324        1095.744          42.000  
G20  22089894.860   116083077.765        2665.780          28.000  
R22  21962115.069                        -170.693          21.000  
R 6  19336936.491                         676.069          21.000  
R 7  22236337.951                        2164.779          19.000  
R 9  22273540.986   118939354.153        3905.372          45.000  
G21  21846279.437   114803016.261         200.831          27.000  
R21  21513372.691                       -3449.326          20.000  
J 3  36905165.494   193937992.574        -833.642          32.000  
J 1  37885554.482   199089956.285          38.804          29.000  
> 2019 10  9  7 21  7.9970000  0 18                     
G 5  21744695.106   114269138.177       -3126.621          48.000  
G13  21010542.703   110411149.005       -2616.505          45.000  
G15  19602421.202   103011407.167        -837.308          42.000  
G24  19953872.217   104858309.385        1724.225          43.000  
G28  23746623.156   124789341.262        -927.125          40.000  
R 5  20600894.556   110123510.407       -2124.746          43.000  
R15  20598840.484   110073650.755       -2984.521          31.000  
J 2  36112123.387   189770457.954        -442.134          36.000  
R16  18937080.568   101158437.939        1094.888          42.000  
G20  22089387.617   116080411.953        2665.644          28.000  
R22  21962150.895                        -166.017          21.000  
R 6  19336809.523                         685.879          23.000  
R 7  22235938.097                        2165.039          20.000  
R 9  22272809.577   118935448.748        3905.100          45.000  
G21  21846240.837   114802815.824         200.849          27.000  
R21  21514014.736                       -3441.802          18.000  
J 3  36905323.488   193938825.807        -833.634          32.000  
J 1  37885544.203   199089917.529          38.771          29.000  
> 2019 10  9  7 21  8.9970000  0 18                     
G 5  21745289.827   114272264.961       -3126.761          48.000  
G13  21011040.313   110413765.402       -2616.168          45.000  
G15  19602580.348   103012244.369        -837.339          42.000  
G24  19953543.995   104856585.404        1723.840          43.000  
G28  23746799.595   124790268.559        -927.336          40.000  
R 5  20601291.601   110125635.186       -2124.781          43.000  
R15  20599395.384   110076635.316       -2984.396          30.000  
J 2  36112207.671   189770899.912        -441.760          36.000  
R16  18936876.051   101157343.508        1094.094          42.000  
G20  22088878.559   116077746.283        2666.305          29.000  
R22  21962188.971                        -171.294          21.000  
R 6  19336682.520                         678.573          23.000  
R 7  22235538.068                        2161.334          21.000  
R 9  22272078.396   118931543.475        3905.418          45.000  
G21  21846205.082   114802616.049         200.077          28.000  
R21  21514655.840                       -3440.555          16.000  
J 3  36905486.665   193939659.110        -833.476          32.000  
J 1  37885538.148   199089878.747          38.871          28.000  
> 2019 10  9  7 21  9.9970000  0 18                     
G 5  21745884.809   114275391.500       -3126.604          48.000  
G13  21011538.430   110416381.399       -2616.007          45.000  
G15  19602739.581   103013081.336        -837.210          41.000  
G24  19953216.280   104854861.419        1723.621          43.000  
G28  23746975.842   124791195.853        -927.230          40.000  
R 5  20601688.524   110127759.686       -2124.657          43.000  
R15  20599952.255   110079620.082       -2984.784          31.000  
J 2  36112291.956   189771341.417        -441.193          36.000  
R16  18936671.203   101156249.374        1093.868          42.000  
G20  22088373.811   116075080.219        2666.175          29.000  
R22  21962229.386                        -171.611          22.000  
R 6  19336558.257                         676.816          26.000  
R 7  22235138.842                        2161.442          22.000  
R 9  22271346.621   118927637.747        3905.604          45.000  
G21  21846165.958   114802416.208         199.742          28.000  
R21  21515298.950                       -3440.555          11.000  
J 3  36905644.502   193940491.762        -832.390          32.000  
J 1  37885524.624   199089839.400          39.049          28.000  
> 2019 10  9  7 21 10.9970000  0 17                     
G 5  21746480.089   114278518.629       -3127.695          48.000  
G13  21012036.424   110418997.805       -2616.893          45.000  
G15  19602898.901   103013918.852        -837.977          41.000  
G24  19952888.565   104853138.241        1722.485          43.000  
G28  23747152.456   124792123.939        -928.991          40.000  
R 5  20602085.638   110129884.722       -2125.643          43.000  
R15  20600508.568   110082605.825       -2986.790          30.000  
J 2  36112376.153   189771783.301        -442.528          36.000  
R16  18936466.599   101155156.345        1092.463          42.000  
G20  22087867.895   116072414.584        2665.125          28.000  
R22  21962270.097                        -172.480          23.000  
R 6  19336436.734   103182828.3673        675.726          27.000  
R 7  22234739.843                        2161.831          23.000  
R 9  22270615.317   118923732.367        3904.896          45.000  
G21  21846131.512   114802217.254         198.268          27.000  
J 3  36905802.217   193941324.697        -832.727          33.000  
J 1  37885516.702   199089800.228          38.729          29.000  
> 2019 10  9  7 21 11.9970000  0 17                     
G 5  21747075.193   114281646.569       -3127.938          48.000  
G13  21012534.628   110421614.836       -2617.035          45.000  
G15  19603058.553   103014757.163        -838.294          41.000  
G24  19952561.182   104851416.105        1721.997          43.000  
G28  23747329.419   124793053.044        -929.305          40.000  
R 5  20602482.805   110132010.492       -2125.760          43.000  
R15  20601072.071   110085592.777       -2987.778          31.000  
J 2  36112460.612   189772225.791        -442.807          36.000  
R16  18936262.379   101154064.681        1091.558          41.000  
G20  22087361.193   116069749.563        2664.999          29.000  
R22  21962309.308                        -167.436          24.000  
R 6  19336313.884   103182152.8482        674.733          27.000  
R 7  22234340.599                        2158.125          23.000  
R 9  22269884.240   118919827.630        3904.694          45.000  
G21  21846095.774   114802019.219         198.301          27.000  
J 3  36905960.927   193942158.119        -833.886          33.000  
J 1  37885510.490   199089761.553          38.520          29.000  
> 2019 10  9  7 21 12.9970000  0 17                     
G 5  21747670.700   114284775.060       -3128.652          48.000  
G13  21013032.849   110424232.244       -2617.557          45.000  
G15  19603218.293   103015596.030        -839.144          41.000  
G24  19952233.938   104849694.749        1721.008          43.000  
G28  23747506.399   124793982.890        -930.116          40.000  
R 5  20602880.531   110134136.763       -2126.308          44.000  
R15  20601633.933   110088580.603       -2988.097          31.000  
J 2  36112544.897   189772668.598        -442.856          36.000  
R16  18936058.247   101152974.149        1089.928          41.000  
G20  22086855.224   116067084.945        2664.518          29.000  
R22  21962348.169                        -178.030          24.000  
R 6  19336192.483   103181477.756         674.987          27.000  
R 7  22233942.612                        2162.365          22.000  
R 9  22269153.355   118915923.209        3904.313          45.000  
G21  21846060.960   114801822.031         196.933          27.000  
J 3  36906119.741   193942991.688        -833.878          33.000  
J 1  37885509.268   199089723.012          38.539          29.000  
> 2019 10  9  7 21 13.9970000  0 17                     
G 5  21748266.031   114287903.821       -3128.961          48.000  
G13  21013531.332   110426849.751       -2617.620          45.000  
G15  19603377.892   103016435.140        -839.419          41.000  
G24  19951906.397   104847973.898        1720.489          43.000  
G28  23747683.466   124794913.245        -930.969          40.000  
R 5  20603278.483   110136263.257       -2126.957          44.000  
R15  20602198.866   110091569.245       -2989.492          32.000  
J 2  36112629.600   189773111.505        -443.304          36.000  
R16  18935854.167   101151884.450        1089.122          41.000  
G20  22086348.871   116064420.433        2664.420          29.000  
R22  21962386.752                        -169.047          25.000  
R 6  19336068.430   103180802.850         674.965          26.000  
R 7  22233544.241                        2163.412          22.000  
R 9  22268422.034   118912018.855        3904.240          45.000  
G21  21846027.979   114801625.302         196.885          27.000  
J 3  36906278.433   193943825.194        -833.584          33.000  
J 1  37885503.510   199089684.415          38.994          29.000  
> 2019 10  9  7 21 14.9970000  0 17                     
G 5  21748861.694   114291032.984       -3129.235          48.000  
G13  21014029.274   110429467.473       -2617.723          45.000  
G15  19603537.510   103017274.606        -839.557          41.000  
G24  19951579.206   104846253.673        1719.904          43.000  
G28  23747860.534   124795844.186        -931.344          40.000  
R 5  20603676.557   110138390.061       -2126.889          44.000  
R15  20602761.321   110094558.634       -2989.371          33.000  
J 2  36112714.111   189773554.569        -442.954          36.000  
R16  18935650.418   101150795.712        1088.332          41.000  
G20  22085838.766   116061756.155        2663.915          29.000  
R22  21962424.374                        -176.349          25.000  
R 6  19335944.865                         675.545          26.000  
R 7  22233148.732                        2157.570          23.000  
R 9  22267690.818   118908114.678        3904.118          45.000  
G21  21845992.241   114801429.238         195.632          27.000  
J 3  36906437.108   193944658.750        -834.197          33.000  
J 1  37885497.943   199089645.845          38.721          29.000  
> 2019 10  9  7 21 15.9970000  0 17                     
G 5  21749457.078   114294162.428       -3129.671          48.000  
G13  21014527.408   110432085.314       -2617.990          45.000  
G15  19603697.406   103018114.348        -839.923          42.000  
G24  19951251.874   104844533.972        1719.196          43.000  
G28  23748037.566   124796775.655        -931.937          40.000  
R 5  20604074.614   110140517.130       -2127.330          44.000  
R15  20603323.637   110097548.759       -2990.648          33.000  
J 2  36112798.553   189773997.725        -443.206          37.000  
R16  18935446.617   101149707.851        1087.257          41.000  
G20  22085324.194   116059091.958        2664.089          29.000  
R22  21962461.648                        -176.099          25.000  
R 6  19335820.619                         673.863          26.000  
R 7  22232751.792                        2164.973          23.000  
R 9  22266959.863   118904210.585        3903.889          45.000  
G21  21845957.254   114801233.736         194.843          26.000  
J 3  36906595.818   193945492.228        -833.781          33.000  
J 1  37885488.764   199089607.265          38.405          29.000  
> 2019 10  9  7 21 16.9970000  0 18                     
G 5  21750052.777   114297292.108       -3129.810          48.000  
G13  21015025.716   110434703.211       -2618.059          45.000  
G15  19603857.302   103018954.285        -839.983          42.000  
G24  19950924.770   104842814.718        1718.665          43.000  
G28  23748214.703   124797707.537        -932.070          40.000  
R 5  20604472.793   110142644.364       -2127.432          44.000  
R15  20603888.012   110100539.479       -2991.013          33.000  
J 2  36112883.012   189774440.912        -443.002          36.000  
R16  18935243.583   101148620.764        1086.767          42.000  
G20  22084816.393   116056427.841        2664.141          29.000  
R22  21962501.766                        -175.809          26.000  
R 6  19335697.054                         675.164          26.000  
R 7  22232356.841                        2162.593          23.000  
R 9  22266228.926   118900306.503        3904.057          45.000  
G21  21845917.310                         194.486          24.000  
R21  21519791.997                       -3446.448          13.000  
J 3  36906754.545   193946325.577        -832.671          33.000  
J 1  37885481.435   199089568.500          38.564          29.000  
> 2019 10  9  7 21 17.9970000  0 17                     
G 5  21750648.248   114300422.066       -3130.219          48.000  
G13  21015523.972   110437321.209       -2618.213          45.000  
G15  19604017.164   103019794.496        -840.456          42.000  
G24  19950597.526   104841095.955        1718.445          43.000  
G28  23748391.805   124798639.926        -932.669          40.000  
R 5  20604870.711   110144771.818       -2127.638          45.000  
R15  20604451.201   110103530.881       -2991.507          34.000  
J 2  36112967.244   189774884.167        -443.388          37.000  
R16  18935040.184   101147534.516        1085.717          42.000  
G20  22084308.958   116053763.855        2663.873          29.000  
R22  21962538.010                        -177.862          26.000  
R 6  19335571.343                         672.768          25.000  
R 7  22231959.866                        2163.683          24.000  
R 9  22265497.779   118896402.495        3903.788          45.000  
R21  21520434.986                       -3449.455          18.000  
J 3  36906913.272   193947158.886        -833.898          34.000  
J 1  37885473.582   199089529.635          38.791          29.000  
> 2019 10  9  7 21 18.9970000  0 17                     
G 5  21751243.736   114303552.268       -3130.343          48.000  
G13  21016022.176   110439939.290       -2618.320          45.000  
G15  19604177.025   103020634.936        -840.602          42.000  
G24  19950270.247   104839377.689        1717.847          43.000  
G28  23748569.187   124799572.791        -933.305          40.000  
R 5  20605268.767   110146899.462       -2127.777          45.000  
R15  20605011.178   110106523.044       -2992.619          34.000  
J 2  36113051.791   189775327.448        -443.024          37.000  
R16  18934837.185   101146449.071        1084.906          42.000  
G20  22083801.086   116051099.952        2663.779          29.000  
R22  21962576.296                        -178.321          26.000  
R 6  19335446.050                         674.006          25.000  
R 7  22231560.692                        2160.670          25.000  
R 9  22264766.702   118892498.528        3903.813          45.000  
R21  21521075.321                       -3449.087          20.000  
J 3  36907071.563   193947992.054        -832.669          34.000  
J 1  37885464.892   199089490.671          39.195          29.000  
> 2019 10  9  7 21 19.9970000  0 17                     
G 5  21751839.522   114306682.428       -3130.023          48.000  
G13  21016520.222   110442557.129       -2617.546          45.000  
G15  19604337.044   103021475.312        -840.130          42.000  
G24  19949943.038   104837659.595        1718.213          43.000  
G28  23748746.237   124800505.800        -932.886          40.000  
R 5  20605666.702   110149026.993       -2127.325          45.000  
R15  20605571.400   110109515.519       -2992.751          35.000  
J 2  36113136.250   189775770.493        -442.508          37.000  
R16  18934633.873   101145364.112        1084.782          42.000  
G20  22083288.766   116048435.802        2664.547          28.000  
R22  21962611.074   117237833.8643       -179.104          27.000  
R 6  19335321.403                         673.403          25.000  
R 7  22231161.065                        2162.144          24.000  
R 9  22264035.677   118888594.284        3904.487          45.000  
R21  21521719.391                       -3458.440          21.000  
J 3  36907230.046   193948824.863        -832.610          34.000  
J 1  37885454.858   199089451.326          39.689          29.000  
> 2019 10  9  7 21 20.9970000  0 17                     
G 5  21752435.272   114309812.793       -3130.762          48.000  
G13  21017018.321   110445175.029       -2618.318          45.000  
G15  19604497.289   103022315.917        -841.141          42.000  
G24  19949616.039   104835941.958        1716.931          43.000  
G28  23748923.514   124801439.260        -934.310          39.000  
R 5  20606064.585   110151154.692       -2128.185          45.000  
R15  20606131.918   110112508.595       -2993.502          34.000  
J 2  36113220.813   189776213.564        -443.012          37.000  
R16  18934430.909   101144279.972        1083.317          42.000  
G20  22082783.303   116045771.772        2663.552          28.000  
R22  21962645.346   117238013.2182       -179.801          26.000  
R 6  19335195.116                         673.568          26.000  
R 7  22230763.095                        2162.029          24.000  
R 9  22263304.548   118884690.086        3903.953          45.000  
R21  21522363.357                       -3452.747          22.000  
J 3  36907388.756   193949657.499        -832.267          34.000  
J 1  37885448.419   199089411.845          39.207          29.000  
> 2019 10  9  7 21 21.9970000  0 17                     
G 5  21753030.988   114312944.020       -3131.496          48.000  
G13  21017516.403   110447793.592       -2618.833          45.000  
G15  19604657.447   103023157.324        -841.701          42.000  
G24  19949289.144   104834225.393        1716.009          42.000  
G28  23749100.546   124802373.755        -934.805          39.000  
R 5  20606462.764   110153283.230       -2128.881          45.000  
R15  20606692.175   110115502.938       -2994.165          34.000  
J 2  36113305.238   189776657.251        -443.960          37.000  
R16  18934228.731   101143197.240        1082.077          42.000  
G20  22082274.541   116043108.328        2663.487          27.000  
R22  21962677.961   117238193.9682       -181.207          25.000  
R 6  19335068.602                         671.779          25.000  
R 7  22230366.190                        2162.242          23.000  
R 9  22262573.768   118880786.504        3903.295          45.000  
R21  21523008.369                       -3452.648          24.000  
J 3  36907547.535   193950490.671        -833.008          34.000  
J 1  37885441.718   199089372.822          39.122          29.000  
> 2019 10  9  7 21 22.9970000  0 17                     
G 5  21753627.140   114316075.756       -3131.889          48.000  
G13  21018015.026   110450412.494       -2618.878          45.000  
G15  19604818.059   103023999.221        -841.949          42.000  
G24  19948962.633   104832509.581        1715.716          42.000  
G28  23749278.085   124803308.989        -935.271          39.000  
R 5  20606860.716   110155412.248       -2129.071          44.000  
R15  20607252.711   110118498.242       -2995.221          34.000  
J 2  36113389.644   189777101.243        -443.667          37.000  
R16  18934026.361   101142115.621        1081.033          42.000  
G20  22081766.129   116040445.267        2662.700          27.000  
R22  21962713.263                        -182.124          25.000  
R 6  19334942.507                         673.083          25.000  
R 7  22229967.906                        2178.907          23.000  
R 9  22261843.145   118876883.228        3903.251          45.000  
R21  21523652.806                       -3452.573          25.000  
J 3  36907706.245   193951323.980        -833.126          34.000  
J 1  37885435.209   199089333.998          38.504          29.000  
> 2019 10  9  7 21 23.9970000  0 18                     
G 5  21754223.762   114319207.807       -3132.387          48.000  
G13  21018513.665   110453031.534       -2619.167          45.000  
G15  19604978.357   103024841.424        -842.346          42.000  
G24  19948636.261   104830794.315        1715.021          43.000  
G28  23749455.798   124804244.751        -936.253          39.000  
R 5  20607258.476   110157541.503       -2129.481          44.000  
R15  20607813.212   110121494.270       -2996.344          34.000  
J 2  36113474.243   189777545.370        -444.433          37.000  
R16  18933824.357   101141034.847        1080.250          42.000  
G20  22081255.327   116037782.359        2662.672          27.000  
R22  21962744.429   117238558.488        -183.054          26.000  
R 6  19334815.434                         672.485          24.000  
R 7  22229568.087                        2158.271          22.000  
R 9  22261112.295   118872980.055        3903.007          45.000  
G21  21845624.216                         191.509          27.000  
R21  21524299.266                       -3454.311          25.000  
J 3  36907865.060   193952157.273        -833.596          34.000  
J 1  37885428.840   199089295.103          38.527          29.000  
> 2019 10  9  7 21 24.9970000  0 18                     
G 5  21754819.897   114322340.135       -3132.362          48.000  
G13  21019012.236   110455650.676       -2619.103          45.000  
G15  19605138.707   103025683.882        -842.457          42.000  
G24  19948310.064   104829079.538        1714.478          43.000  
G28  23749633.929   124805180.975        -936.412          38.000  
R 5  20607656.568   110159670.954       -2129.424          44.000  
R15  20608373.626   110124490.997       -2996.432          34.000  
J 2  36113558.877   189777989.526        -444.070          37.000  
R16  18933622.511   101139954.915        1079.688          42.000  
G20  22080746.059   116035119.542        2662.960          27.000  
R22  21962774.670   117238741.933        -183.869          26.000  
R 6  19334690.142                         672.751          25.000  
R 7  22229168.267                        2169.243          22.000  
R 9  22260381.846   118869076.927        3903.029          45.000  
G21  21845596.226   114799339.2523        190.860          28.000  
R21  21524944.558                       -3453.748          25.000  
J 3  36908023.804   193952990.497        -833.803          34.000  
J 1  37885421.179   199089256.088          39.146          29.000  
> 2019 10  9  7 21 25.9970000  0 18                     
G 5  21755416.258   114325472.747       -3132.871          48.000  
G13  21019510.806   110458269.939       -2619.485          46.000  
G15  19605299.144   103026526.621        -843.211          42.000  
G24  19947983.641   104827365.264        1714.056          43.000  
G28  23749812.079   124806117.718        -936.771          38.000  
R 5  20608054.660   110161800.638       -2129.870          44.000  
R15  20608934.266   110127488.423       -2997.594          34.000  
J 2  36113643.859   189778433.769        -444.039          37.000  
R16  18933420.734   101138875.807        1078.700          42.000  
G20  22080236.792   116032456.853        2662.644          26.000  
R22  21962807.127   117238926.171        -184.455          27.000  
R 6  19334563.837                         671.739          23.000  
R 7  22228768.012                        2160.393          22.000  
R 9  22259651.223   118865173.884        3902.950          46.000  
G21  21845556.283   114799149.1592        189.498          28.000  
R21  21525590.356                       -3454.904          26.000  
J 3  36908182.444   193953823.593        -832.587          34.000  
J 1  37885414.025   199089217.018          39.656          29.000  
> 2019 10  9  7 21 26.9970000  0 18                     
G 5  21756012.898   114328605.666       -3133.254          48.000  
G13  21020009.359   110460889.327       -2619.698          46.000  
G15  19605459.634   103027369.608        -843.338          42.000  
G24  19947657.653   104825651.559        1713.220          43.000  
G28  23749990.315   124807054.984        -937.860          38.000  
R 5  20608452.647   110163930.572       -2130.278          45.000  
R15  20609495.186   110130486.532       -2999.045          34.000  
J 2  36113728.685   189778878.170        -444.918          36.000  
R16  18933219.271   101137797.567        1077.452          42.000  
G20  22079729.514   116029794.314        2662.281          26.000  
R22  21962837.299   117239111.299        -185.853          27.000  
R 6  19334437.166                         671.137          24.000  
R 7  22228368.192                        2164.689          23.000  
R 9  22258920.600   118861270.939        3902.557          46.000  
G21  21845524.052   114798959.5472        188.994          29.000  
R21  21526236.101                       -3454.905          26.000  
J 3  36908341.049   193954656.753        -833.912          34.000  
J 1  37885405.719   199089177.903          39.419          29.000  
> 2019 10  9  7 21 27.9970000  0 18                     
G 5  21756609.486   114331738.894       -3133.461          48.000  
G13  21020507.702   110463508.853       -2619.645          46.000  
G15  19605619.931   103028212.912        -843.500          41.000  
G24  19947331.718   104823938.389        1712.878          43.000  
G28  23750168.307   124807992.758        -938.246          38.000  
R 5  20608850.966   110166060.776       -2130.349          45.000  
R15  20610056.245   110133485.360       -2999.569          34.000  
J 2  36113813.318   189779322.599        -444.776          37.000  
R16  18933018.000   101136720.206        1076.772          42.000  
G20  22079218.991   116027131.925        2662.306          26.000  
R22  21962867.907   117239297.267        -187.313          26.000  
R 6  19334310.739                         671.104          24.000  
R 7  22227968.495                        2165.378          22.000  
R 9  22258189.994   118857368.092        3902.639          46.000  
G21  21845489.518   114798770.5112        188.550          29.000  
R21  21526879.089   115194665.2003      -3455.141          26.000  
J 3  36908499.968   193955489.755        -833.082          34.000  
J 1  37885398.704   199089138.775          39.447          29.000  
> 2019 10  9  7 21 28.9970000  0 18                     
G 5  21757205.900   114334872.477       -3133.668          48.000  
G13  21021006.604   110466128.550       -2619.688          46.000  
G15  19605780.334   103029056.548        -844.004          41.000  
G24  19947005.608   104822225.835        1712.262          43.000  
G28  23750347.050   124808931.092        -938.355          38.000  
R 5  20609248.970   110168191.288       -2130.551          44.000  
R15  20610617.218   110136484.940       -2998.966          33.000  
J 2  36113897.812   189779767.184        -444.233          37.000  
R16  18932816.712   101135643.778        1076.164          42.000  
G20  22078709.165   116024469.714        2662.192          26.000  
R22  21962895.827   117239484.090        -187.120          27.000  
R 6  19334186.406                         670.111          23.000  
R 7  22227569.950                        2162.346          23.000  
R 9  22257459.476   118853465.393        3902.764          46.000  
G21  21845454.932   114798582.0262        187.977          29.000  
R21  21527522.898   115198120.4991      -3455.688          26.000  
J 3  36908658.381   193956322.824        -833.202          34.000  
J 1  37885388.356   199089099.674          39.049          29.000  
> 2019 10  9  7 21 29.9970000  0 18                     
G 5  21757802.209   114338006.030       -3133.376          48.000  
G13  21021505.209   110468748.059       -2619.311          46.000  
G15  19605940.684   103029900.143        -843.512          41.000  
G24  19946679.534   104820513.445        1712.341          43.000  
G28  23750525.496   124809869.631        -938.658          38.000  
R 5  20609647.236   110170321.724       -2130.300          44.000  
R15  20611178.521   110139485.005       -3000.245          33.000  
J 2  36113982.411   189780211.581        -444.094          36.000  
R16  18932615.493   101134567.899        1075.877          42.000  
G20  22078201.120   116021807.337        2662.862          26.000  
R22  21962926.696   117239671.415        -187.239          27.000  
R 6  19334060.904                         673.254          23.000  
R 7  22227169.083                        2157.390          23.000  
R 9  22256728.695   118849562.479        3903.303          46.000  
G21  21845414.936   114798393.7322        188.519          29.000  
R21  21528168.817   115201576.446       -3455.863          26.000  
J 3  36908816.864   193957155.523        -832.496          34.000  
J 1  37885381.777   199089060.136          39.587          29.000  
> 2019 10  9  7 21 30.9970000  0 18                     
G 5  21758398.518   114341139.665       -3134.147          48.000  
G13  21022003.849   110471367.449       -2619.901          46.000  
G15  19606101.243   103030743.774        -844.192          42.000  
G24  19946353.965   104818801.361        1711.517          43.000  
G28  23750703.959   124810808.441        -939.198          38.000  
R 5  20610045.433   110172452.135       -2131.016          44.000  
R15  20611739.476   110142485.470       -3001.511          32.000  
J 2  36114066.992   189780655.830        -444.858          36.000  
R16  18932414.345   101133492.647        1074.489          42.000  
G20  22077688.554   116019144.911        2661.688          26.000  
R22  21962956.606   117239859.308        -188.429          27.000  
R 6  19333935.437                         671.364          23.000  
R 7  22226768.007                        2162.142          23.000  
R 9  22255997.671   118845659.409        3902.703          46.000  
G21  21845379.634   114798205.8022        187.063          30.000  
R21  21528814.598   115205032.643       -3456.836          26.000  
J 3  36908975.626   193957987.894        -832.304          34.000  
J 1  37885373.104   199089020.278          39.147          29.000  
> 2019 10  9  7 21 31.9970000  0 18                     
G 5  21758994.477   114344274.310       -3135.145          48.000  
G13  21022502.506   110473987.666       -2620.489          46.000  
G15  19606262.012   103031588.396        -844.977          42.000  
G24  19946028.518   104817090.542        1710.144          43.000  
G28  23750882.946   124811748.485        -940.601          38.000  
R 5  20610443.507   110174583.497       -2131.724          44.000  
R15  20612300.849   110145487.344       -3002.469          31.000  
J 2  36114151.556   189781100.849        -445.487          36.000  
R16  18932213.405   101132418.973        1072.871          42.000  
G20  22077178.729   116016483.223        2660.886          26.000  
R22  21962986.865   117240048.785        -190.163          28.000  
R 6  19333809.132                         671.716          22.000  
R 7  22226366.495                        2152.696          23.000  
R 9  22255267.170   118841757.107        3902.134          46.000  
G21  21845332.763   114798018.5111        186.350          29.000  
R21  21529462.193   115208489.950       -3457.624          27.000  
J 3  36909134.179   193958820.970        -833.095          34.000  
J 1  37885366.892   199088981.065          39.227          28.000  
> 2019 10  9  7 21 32.9970000  0 18                     
G 5  21759590.874   114347409.534       -3135.514          48.000  
G13  21023001.321   110476608.306       -2620.878          46.000  
G15  19606422.816   103032433.586        -845.330          42.000  
G24  19945703.019   104815380.497        1709.619          43.000  
G28  23751062.108   124812689.324        -941.398          38.000  
R 5  20610841.913   110176715.413       -2132.213          44.000  
R15  20612862.031   110148490.309       -3004.356          31.000  
J 2  36114236.451   189781546.278        -445.712          36.000  
R16  18932012.815   101131346.430        1072.018          42.000  
G20  22076669.706   116013821.978        2660.748          26.000  
R22  21963018.223   117240239.293        -190.191          28.000  
R 6  19333681.938                         668.766          23.000  
R 7  22225962.732                        2162.773          24.000  
R 9  22254536.826   118837855.204        3901.762          46.000  
G21  21845299.887   114797832.546         185.725          29.000  
R21  21530113.801   115211947.977       -3457.789          28.000  
J 3  36909292.540   193959654.251        -833.128          34.000  
J 1  37885363.768   199088942.099          38.905          28.000  
> 2019 10  9  7 21 33.9970000  0 18                     
G 5  21760187.741   114350545.012       -3135.662          48.000  
G13  21023500.798   110479229.030       -2620.794          46.000  
G15  19606583.689   103033279.026        -845.737          42.000  
G24  19945377.608   104813670.935        1709.375          43.000  
G28  23751241.548   124813630.610        -941.313          38.000  
R 5  20611240.459   110178847.529       -2132.440          45.000  
R15  20613421.537   110151493.749       -3003.747          30.000  
J 2  36114321.067   189781991.739        -445.421          36.000  
R16  18931811.998   101130274.706        1071.194          42.000  
G20  22076163.824   116011160.827        2660.898          27.000  
R22  21963049.685   117240430.706        -191.944          28.000  
R 6  19333553.888                         670.257          23.000  
R 7  22225557.050                        2163.500          24.000  
R 9  22253806.412   118833953.365        3901.592          46.000  
G21  21845256.470   114797647.148         185.177          29.000  
R21  21530765.829   115215406.468       -3458.469          28.000  
J 3  36909451.075   193960487.474        -833.650          34.000  
J 1  37885352.548   199088903.078          39.160          29.000  
> 2019 10  9  7 21 34.9970000  0 18                     
G 5  21760784.695   114353680.665       -3135.759          48.000  
G13  21023999.578   110481849.741       -2620.516          46.000  
G15  19606744.371   103034124.593        -845.753          42.000  
G24  19945052.423   104811961.757        1709.064          43.000  
G28  23751421.128   124814572.313        -942.031          39.000  
R 5  20611639.074   110180979.762       -2132.404          45.000  
R15  20613977.117   110154497.829       -3004.077          30.000  
J 2  36114405.596   189782437.184        -445.566          36.000  
R16  18931611.321   101129203.696        1070.735          42.000  
G20  22075657.367   116008499.622        2661.470          27.000  
R22  21963080.817   117240622.760        -192.405          28.000  
R 6  19333429.433                         669.679          24.000  
R 7  22225151.698                        2162.494          24.000  
R 9  22253076.051   118830051.440        3902.078          46.000  
G21  21845212.147   114797462.031         185.673          28.000  
R21  21531419.130   115218865.276       -3458.734          29.000  
J 3  36909609.349   193961320.462        -832.818          33.000  
J 1  37885344.381   199088863.805          39.742          28.000  
> 2019 10  9  7 21 35.9970000  0 18                     
G 5  21761381.685   114356816.670       -3136.201          48.000  
G13  21024498.026   110484470.645       -2621.111          46.000  
G15  19606905.088   103034970.495        -846.032          42.000  
G24  19944727.221   104810253.159        1708.405          43.000  
G28  23751601.389   124815514.571        -942.714          39.000  
R 5  20612038.038   110183112.301       -2132.775          45.000  
R15  20614540.393   110157502.724       -3005.189          31.000  
J 2  36114490.160   189782882.760        -446.170          36.000  
R16  18931410.800   101128133.603        1069.678          42.000  
G20  22075149.967   116005838.673        2661.150          27.000  
R22  21963112.960   117240815.682        -193.354          28.000  
R 6  19333305.257                         669.013          25.000  
R 7  22224745.963                        2170.950          25.000  
R 9  22252345.480   118826149.704        3901.529          46.000  
G21  21845171.261   114797277.619         184.166          27.000  
R21  21532070.023   115222324.585       -3459.361          29.000  
J 3  36909767.866   193962153.476        -833.414          33.000  
J 1  37885338.622   199088824.560          39.218          29.000  
> 2019 10  9  7 21 36.9970000  0 18                     
G 5  21761978.482   114359953.035       -3136.667          48.000  
G13  21024996.439   110487091.722       -2621.566          46.000  
G15  19607066.397   103035816.746        -846.771          42.000  
G24  19944402.350   104808545.162        1707.520          43.000  
G28  23751781.109   124816457.389        -943.374          39.000  
R 5  20612437.125   110185245.134       -2133.274          45.000  
R15  20615100.510   110160508.420       -3005.937          32.000  
J 2  36114574.811   189783328.470        -445.792          36.000  
R16  18931210.350   101127064.473        1068.566          41.000  
G20  22074645.481   116003177.948        2660.433          27.000  
R22  21963149.501   117241009.547        -194.573          29.000  
R 6  19333179.773                         669.125          24.000  
R 7  22224338.065                        2168.480          25.000  
R 9  22251615.014   118822248.097        3901.437          46.000  
G21  21845132.539                         182.389          25.000  
R21  21532722.626   115225784.411       -3459.962          29.000  
J 3  36909926.192   193962986.493        -833.236          32.000  
J 1  37885332.794   199088785.298          39.190          29.000  
> 2019 10  9  7 21 37.9970000  0 17                     
G 5  21762575.000   114363089.669       -3136.760          48.000  
G13  21025495.218   110489712.885       -2621.373          46.000  
G15  19607227.707   103036663.235        -846.772          42.000  
G24  19944077.514   104806837.670        1707.257          43.000  
G28  23751960.898   124817400.694        -943.831          39.000  
R 5  20612835.932   110187378.167       -2133.340          45.000  
R15  20615665.094   110163514.778       -3006.094          31.000  
J 2  36114659.270   189783774.250        -446.201          36.000  
R16  18931010.196   101125996.156        1067.697          41.000  
G20  22074137.627   116000517.294        2660.694          27.000  
R22  21963183.773   117241204.137        -195.059          29.000  
R 6  19333053.398                         668.537          24.000  
R 7  22223930.846                        2164.987          25.000  
R 9  22250884.460   118818346.514        3901.551          46.000  
R21  21533372.403   115229244.687       -3460.245          29.000  
J 3  36910084.413   193963819.464        -833.089          33.000  
J 1  37885324.627   199088745.927          40.216          29.000  
> 2019 10  9  7 21 38.9970000  0 17                     
G 5  21763171.745   114366226.646       -3137.060          48.000  
G13  21025993.911   110492334.207       -2621.396          46.000  
G15  19607388.755   103037510.049        -847.073          42.000  
G24  19943752.888   104805130.774        1706.628          43.000  
G28  23752141.002   124818344.548        -944.350          40.000  
R 5  20613234.862   110189511.470       -2133.334          45.000  
R15  20616229.714   110166521.931       -3007.298          31.000  
J 2  36114743.851   189784220.168        -445.678          36.000  
R16  18930810.164   101124928.726        1067.086          41.000  
G20  22073632.461   115997856.800        2660.443          28.000  
R22  21963219.982   117241399.666        -195.889          28.000  
R 6  19332928.245                         670.980          25.000  
R 7  22223524.815                        2163.390          25.000  
R 9  22250153.785   118814445.111        3900.986          46.000  
R21  21534023.488   115232705.435       -3461.092          30.000  
J 3  36910242.861   193964652.383        -833.146          33.000  
J 1  37885314.908   199088706.613          38.951          29.000  
> 2019 10  9  7 21 39.9970000  0 17                     
G 5  21763768.351   114369363.553       -3136.582          48.000  
G13  21026492.184   110494955.311       -2620.675          46.000  
G15  19607550.013   103038356.767        -846.594          42.000  
G24  19943428.261   104803424.024        1706.897          43.000  
G28  23752321.088   124819288.521        -943.663          40.000  
R 5  20613634.227   110191644.691       -2133.126          45.000  
R15  20616794.891   110169529.336       -3007.704          32.000  
J 2  36114828.380   189784665.811        -445.127          36.000  
R16  18930610.341   101123861.767        1066.947          41.000  
G20  22073127.242   115995196.130        2660.648          28.000  
R22  21963254.743   117241595.602        -195.889          29.000  
R 6  19332803.127                         669.929          25.000  
R 7  22223117.474   118962060.6733       2162.869          27.000  
R 9  22249423.197   118810543.431        3901.757          46.000  
R21  21534671.589   115236166.232       -3460.706          29.000  
J 3  36910401.414   193965484.904        -832.184          32.000  
J 1  37885309.184   199088666.775          40.455          29.000  
> 2019 10  9  7 21 40.9970000  0 17                     
G 5  21764365.340   114372500.475       -3137.616          48.000  
G13  21026990.458   110497576.244       -2621.703          46.000  
G15  19607711.270   103039203.461        -847.607          42.000  
G24  19943103.530   104801717.500        1705.774          43.000  
G28  23752501.436   124820232.758        -945.190          40.000  
R 5  20614033.331   110193777.851       -2133.939          45.000  
R15  20617356.282   110172537.257       -3010.159          33.000  
J 2  36114913.031   189785111.282        -446.163          36.000  
R16  18930410.292   101122795.389        1065.241          41.000  
G20  22072621.098   115992535.229        2660.093          27.000  
R22  21963286.904   117241792.025        -196.530          29.000  
R 6  19332676.264                         668.255          25.000  
R 7  22222711.792   118959888.7622       2161.857          27.000  
R 9  22248692.382   118806641.506        3901.120          46.000  
R21  21535321.417   115239627.190       -3461.498          29.000  
J 3  36910559.792   193966317.057        -833.041          32.000  
J 1  37885298.644   199088626.699          39.116          28.000  
> 2019 10  9  7 21 41.9970000  0 17                     
G 5  21764962.609   114375638.515       -3138.500          48.000  
G13  21027489.115   110500198.123       -2622.247          46.000  
G15  19607872.353   103040051.269        -848.349          42.000  
G24  19942778.939   104800012.360        1704.626          43.000  
G28  23752681.680   124821178.316        -946.464          40.000  
R 5  20614432.627   110195912.084       -2134.865          45.000  
R15  20617922.367   110175546.643       -3009.868          33.000  
J 2  36114997.787   189785557.624        -446.709          36.000  
R16  18930211.202   101121730.735        1063.964          41.000  
G20  22072115.443   115989875.256        2659.656          28.000  
R22  21963320.426   117241990.262        -199.088          29.000  
R 6  19332554.095                         667.562          27.000  
R 7  22222305.516   118957726.5812       2161.714          27.000  
R 9  22247961.427   118802740.533        3900.684          45.000  
R21  21535965.889   115243089.409       -3462.717          29.000  
J 3  36910718.205   193967150.028        -833.913          32.000  
J 1  37885290.425   199088587.324          38.538          29.000  
> 2019 10  9  7 21 42.9970000  0 17                     
G 5  21765559.930   114378777.241       -3139.362          48.000  
G13  21027988.209   110502820.499       -2622.841          46.000  
G15  19608033.506   103040899.736        -849.060          42.000  
G24  19942454.853   104798308.077        1703.607          43.000  
G28  23752862.150   124822124.754        -947.453          40.000  
R 5  20614832.115   110198046.951       -2135.443          45.000  
R15  20618486.987   110178557.224       -3012.550          33.000  
J 2  36115082.246   189786004.444        -447.046          36.000  
R16  18930012.218   101120667.343        1062.872          41.000  
G20  22071610.905   115987215.850        2659.300          29.000  
R22  21963357.263   117242189.527        -199.646          29.000  
R 6  19332428.855   103161470.2213        667.959          27.000  
R 7  22221901.438   118955564.703        2161.361          28.000  
R 9  22247230.821   118798839.997        3900.341          45.000  
R21  21536606.120   115246552.558       -3463.019          27.000  
J 3  36910876.915   193967983.301        -833.600          32.000  
J 1  37885290.460   199088548.231          38.654          30.000  
> 2019 10  9  7 21 43.9970000  0 17                     
G 5  21766157.582   114381916.358       -3139.612          48.000  
G13  21028487.425   110505443.103       -2622.823          46.000  
G15  19608195.165   103041748.583        -849.179          42.000  
G24  19942130.750   104796604.451        1703.070          43.000  
G28  23753042.829   124823071.817        -947.407          40.000  
R 5  20615231.655   110200182.170       -2135.618          45.000  
R15  20619050.576   110181568.475       -3012.002          33.000  
J 2  36115167.193   189786451.521        -447.813          36.000  
R16  18929813.268   101119604.905        1061.928          41.000  
G20  22071104.832   115984556.741        2658.667          29.000  
R22  21963404.780   117242389.862        -200.408          29.000  
R 6  19332307.122   103160802.8452        667.235          27.000  
R 7  22221495.250   118953402.927        2161.705          29.000  
R 9  22246500.268   118794939.694        3899.975          45.000  
R21  21537249.597                       -3464.319          26.000  
J 3  36911035.345   193968816.634        -834.927          32.000  
J 1  37885279.693   199088509.209          39.147          29.000  
> 2019 10  9  7 21 44.9970000  0 17                     
G 5  21766754.938   114385055.637       -3139.353          48.000  
G13  21028986.606   110508065.693       -2622.583          46.000  
G15  19608357.068   103042597.574        -849.203          42.000  
G24  19941807.101   104794901.214        1703.039          44.000  
G28  23753223.701   124824019.265        -947.781          40.000  
R 5  20615631.178   110202317.466       -2135.276          45.000  
R15  20619614.236   110184580.342       -3011.862          34.000  
J 2  36115251.740   189786898.495        -447.466          36.000  
R16  18929614.422   101118543.159        1061.398          41.000  
G20  22070598.950   115981897.540        2659.184          29.000  
R22  21963448.685   117242590.880        -201.764          28.000  
R 6  19332185.948   103160134.9231        667.407          27.000  
R 7  22221090.317   118951240.990        2161.173          29.000  
R 9  22245769.610   118791039.331        3900.558          45.000  
R21  21537893.335                       -3464.239          26.000  
J 3  36911193.671   193969649.754        -833.387          31.000  
J 1  37885272.713   199088470.037          39.067          29.000  
> 2019 10  9  7 21 45.9970000  0 17                     
G 5  21767352.364   114388195.182       -3139.642          48.000  
G13  21029485.944   110510688.375       -2622.689          46.000  
G15  19608519.006   103043446.815        -849.415          42.000  
G24  19941483.330   104793198.462        1702.490          44.000  
G28  23753404.538   124824967.177        -948.255          40.000  
R 5  20616030.805   110204452.992       -2135.662          45.000  
R15  20620177.982   110187592.859       -3012.137          34.000  
J 2  36115336.722   189787345.521        -447.454          36.000  
R16  18929415.926   101117482.204        1060.681          41.000  
G20  22070099.350   115979238.458        2659.468          30.000  
R22  21963485.714   117242792.630        -201.532          27.000  
R 6  19332063.168   103159467.636         667.108          28.000  
R 7  22220683.710   118949078.963        2161.209          29.000  
R 9  22245038.725   118787139.014        3900.435          45.000  
R21  21538540.267                       -3463.720          25.000  
J 3  36911352.346   193970482.784        -833.142          31.000  
J 1  37885266.152   199088430.712          39.339          29.000  
> 2019 10  9  7 21 46.9970000  0 17                     
G 5  21767949.667   114391335.061       -3140.102          48.000  
G13  21029984.985   110513311.212       -2623.037          46.000  
G15  19608681.118   103044296.361        -849.787          42.000  
G24  19941159.489   104791496.288        1701.874          44.000  
G28  23753585.339   124825915.629        -949.021          40.000  
R 5  20616430.346   110206588.835       -2136.187          45.000  
R15  20620742.200   110190606.175       -3013.786          35.000  
J 2  36115421.478   189787792.669        -447.306          36.000  
R16  18929217.378   101116422.178        1059.588          41.000  
G20  22069595.318   115976579.551        2658.687          30.000  
R22  21963522.359   117242995.332        -203.355          27.000  
R 6  19331937.230   103158800.653         667.058          29.000  
R 7  22220273.996   118946916.922        2161.926          30.000  
R 9  22244308.224   118783238.837        3899.827          45.000  
R21  21539187.147                       -3463.845          24.000  
J 3  36911506.885   193971315.738        -832.470          31.000  
J 1  37885256.153   199088391.342          39.911          29.000  
> 2019 10  9  7 21 47.9970000  0 18                     
G 5  21768547.180   114394475.185       -3140.101          48.000  
G13  21030484.532   110515934.115       -2622.637          46.000  
G15  19608843.318   103045146.122        -849.665          42.000  
G24  19940835.752   104789794.596        1701.471          44.000  
G28  23753765.914   124826864.539        -948.692          40.000  
R 5  20616829.641   110208724.859       -2135.993          45.000  
R15  20621306.750   110193620.146       -3013.709          35.000  
J 2  36115506.530   189788239.874        -446.774          36.000  
R16  18929019.143   101115362.989        1059.000          41.000  
G20  22069088.389   115973920.755        2659.426          30.000  
R22  21963559.877   117243198.783        -204.489          27.000  
R 6  19331811.693   103158133.850         667.090          28.000  
R 7  22219863.794   118944754.796        2162.144          30.000  
R 9  22243577.845   118779338.683        3900.261          45.000  
G21  21844845.570                         175.000          24.000  
R21  21539832.421                       -3462.847          23.000  
J 3  36911662.419   193972148.745        -833.644          31.000  
J 1  37885248.492   199088351.977          39.383          29.000  
> 2019 10  9  7 21 48.9970000  0 17                     
G 5  21769144.763   114397615.476       -3140.491          49.000  
G13  21030983.591   110518557.021       -2622.924          46.000  
G15  19609005.134   103045996.070        -850.160          42.000  
G24  19940511.859   104788093.302        1700.989          44.000  
G28  23753947.030   124827813.861        -949.995          40.000  
R 5  20617229.548   110210860.980       -2136.403          46.000  
R15  20621870.985   110196634.637       -3014.532          36.000  
J 2  36115591.129   189788687.050        -447.457          36.000  
R16  18928820.769   101114304.555        1057.877          41.000  
G20  22068582.054   115971261.952        2659.021          31.000  
R22  21963598.896   117243402.889        -204.901          27.000  
R 6  19331686.697   103157467.087         666.511          27.000  
R 7  22219460.868   118942592.430        2162.099          30.000  
R 9  22242847.571   118775438.520        3899.991          45.000  
R21  21540478.375                       -3461.730          21.000  
J 3  36911820.029   193972981.469        -833.198          30.000  
J 1  37885240.919   199088312.319          39.671          30.000  
> 2019 10  9  7 21 49.9970000  0 17                     
G 5  21769742.538   114400756.010       -3140.513          49.000  
G13  21031482.894   110521179.993       -2622.801          46.000  
G15  19609166.810   103046846.219        -850.210          42.000  
G24  19940188.471   104786392.489        1700.732          44.000  
G28  23754128.268   124828763.598        -949.566          40.000  
R 5  20617628.949   110212997.245       -2136.074          46.000  
R15  20622435.465   110199649.826       -3015.791          36.000  
J 2  36115675.815   189789134.233        -447.378          36.000  
R16  18928622.831   101113246.903        1057.492          41.000  
G20  22068076.486   115968603.183        2658.589          31.000  
R22  21963637.688   117243607.615        -204.045          26.000  
R 6  19331560.271   103156800.448         665.916          27.000  
R 7  22219051.486   118940429.920        2162.874          31.000  
R 9  22242116.825   118771538.387        3900.352          45.000  
R21  21541123.021                       -3458.509          19.000  
J 3  36911977.901   193973814.085        -833.013          30.000  
J 1  37885231.408   199088272.553          39.983          29.000  
> 2019 10  9  7 21 50.9970000  0 17                     
G 5  21770339.946   114403896.278       -3140.952          49.000  
G13  21031982.267   110523802.516       -2622.994          46.000  
G15  19609328.888   103047696.065        -850.239          42.000  
G24  19939865.066   104784691.668        1700.214          44.000  
G28  23754309.209   124829713.305        -950.286          40.000  
R 5  20618028.192   110215133.196       -2136.490          45.000  
R15  20623000.276   110202665.118       -3015.825          36.000  
J 2  36115760.745   189789580.963        -446.887          36.000  
R16  18928424.963   101112189.557        1056.300          41.000  
G20  22067570.046   115965944.016        2658.585          31.000  
R22  21963677.352                        -211.472          24.000  
R 6  19331431.977   103156133.390         666.948          26.000  
R 7  22218642.314   118938266.826        2162.433          31.000  
R 9  22241386.359   118767637.747        3900.107          45.000  
R21  21541765.870                       -3458.718          18.000  
J 3  36912139.281   193974646.054        -831.717          30.000  
J 1  37885222.561   199088232.215          39.913          29.000  
> 2019 10  9  7 21 51.9970000  0 17                     
G 5  21770937.494   114407037.603       -3141.750          49.000  
G13  21032481.553   110526425.922       -2623.728          46.000  
G15  19609491.070   103048546.970        -851.578          42.000  
G24  19939541.749   104782992.125        1699.042          44.000  
G28  23754490.360   124830664.282        -951.465          41.000  
R 5  20618427.820   110217270.167       -2137.311          46.000  
R15  20623565.297   110205681.953       -3018.170          36.000  
J 2  36115845.571   189790028.544        -447.630          36.000  
R16  18928227.287   101111133.787        1055.296          41.000  
G20  22067064.513   115963285.701        2658.020          31.000  
R22  21963717.627                        -208.236          23.000  
R 6  19331306.283   103155467.511         665.049          26.000  
R 7  22218233.019   118936104.530        2162.059          31.000  
R 9  22240655.946   118763737.975        3899.450          45.000  
R21  21542409.382                       -3458.348          18.000  
J 3  36912293.593   193975478.793        -833.353          31.000  
J 1  37885216.174   199088192.479          39.573          29.000  
> 2019 10  9  7 21 52.9970000  0 17                     
G 5  21771535.495   114410179.500       -3142.336          49.000  
G13  21032980.594   110529049.734       -2624.339          46.000  
G15  19609653.689   103049398.398        -851.802          43.000  
G24  19939218.501   104781293.381        1698.199          44.000  
G28  23754671.580   124831616.069        -952.896          40.000  
R 5  20618827.656   110219407.698       -2137.999          46.000  
R15  20624130.317   110208699.715       -3018.226          35.000  
J 2  36115930.448   189790476.498        -448.584          36.000  
R16  18928030.152   101110079.177        1053.823          41.000  
G20  22066561.022   115960627.832        2657.159          31.000  
R22  21963758.583                        -201.888          22.000  
R 6  19331178.233   103154801.913         665.665          26.000  
R 7  22217822.485   118933942.392        2161.942          31.000  
R 9  22239925.794   118759838.582        3898.883          45.000  
R21  21543055.999                       -3467.791          18.000  
J 3  36912450.104   193976311.748        -833.333          30.000  
J 1  37885211.183   199088153.042          39.415          30.000  
> 2019 10  9  7 21 53.9970000  0 18                     
G 5  21772133.584   114413321.746       -3142.295          49.000  
G13  21033479.531   110531673.715       -2624.056          46.000  
G15  19609815.836   103050250.180        -851.966          43.000  
G24  19938895.567   104779595.223        1697.955          44.000  
G28  23754852.749   124832568.350        -952.662          40.000  
R 5  20619227.319   110221545.531       -2137.948          46.000  
R15  20624695.233   110211718.222       -3018.301          35.000  
J 2  36116015.745   189790924.591        -448.413          36.000  
R16  18927832.895   101109025.459        1053.133          41.000  
G20  22066054.931   115957970.146        2657.349          31.000  
R22  21963799.015                        -211.091          21.000  
R 6  19331048.665   103154136.741         665.216          26.000  
R 7  22217416.523   118931780.311        2161.708          30.000  
R 9  22239195.502   118755939.303        3899.298          45.000  
G21  21844561.533                         175.060          25.000  
R21  21543705.933                       -3461.472          18.000  
J 3  36912606.964   193977144.665        -832.703          30.000  
J 1  37885206.961   199088113.562          39.502          30.000  
> 2019 10  9  7 21 54.9970000  0 18                     
G 5  21772731.324   114416464.178       -3142.528          49.000  
G13  21033978.886   110534297.711       -2624.079          46.000  
G15  19609977.896   103051102.131        -851.895          42.000  
G24  19938572.250   104777897.498        1697.479          44.000  
G28  23755034.161   124833521.074        -953.041          40.000  
R 5  20619626.876   110223683.496       -2138.328          46.000  
R15  20625260.620   110214737.386       -3019.453          35.000  
J 2  36116100.780   189791372.663        -448.456          36.000  
R16  18927635.742   101107972.489        1052.575          41.000  
G20  22065549.467   115955312.472        2657.650          31.000  
R22  21963839.796                        -208.496          21.000  
R 6  19330921.715   103153471.619         664.655          26.000  
R 7  22217014.365   118929617.939        2162.210          29.000  
R 9  22238465.350   118752040.023        3899.233          45.000  
G21  21844522.410                         172.805          26.000  
R21  21544355.831                       -3473.322          18.000  
J 3  36912760.038   193977977.419        -832.740          29.000  
J 1  37885198.148   199088073.967          39.111          30.000  
> 2019 10  9  7 21 55.9970000  0 18                     
G 5  21773329.203   114419606.930       -3142.955          49.000  
G13  21034478.015   110536921.848       -2624.353          46.000  
G15  19610140.026   103051954.377        -852.467          42.000  
G24  19938249.229   104776200.304        1696.911          44.000  
G28  23755215.626   124834474.314        -953.362          40.000  
R 5  20620026.277   110225821.688       -2138.532          46.000  
R15  20625825.815   110217757.211       -3019.666          34.000  
J 2  36116185.867   189791820.851        -448.448          36.000  
R16  18927438.572   101106920.433        1051.412          41.000  
G20  22065044.196   115952654.914        2657.960          31.000  
R22  21963878.047                        -206.644          21.000  
R 6  19330795.323   103152806.695         664.185          26.000  
R 7  22216607.513   118927455.557        2162.605          29.000  
R 9  22237735.058   118748140.853        3899.100          45.000  
G21  21844490.162                         171.996          26.000  
R21  21545005.224                       -3468.651          20.000  
J 3  36912920.964   193978810.187        -832.028          29.000  
J 1  37885189.667   199088034.292          39.502          30.000  
> 2019 10  9  7 21 56.9970000  0 18                     
G 5  21773927.309   114422749.982       -3143.097          49.000  
G13  21034976.986   110539546.102       -2624.177          46.000  
G15  19610302.226   103052806.887        -852.539          42.000  
G24  19937926.277   104774503.645        1696.558          44.000  
G28  23755396.794   124835428.062        -953.716          40.000  
R 5  20620425.852   110227960.119       -2138.455          46.000  
R15  20626390.557   110220777.816       -3021.139          33.000  
J 2  36116271.024   189792269.088        -447.479          36.000  
R16  18927241.716   101105869.253        1050.950          40.000  
G20  22064538.960   115949997.564        2657.383          31.000  
R22  21963916.159                        -207.174          20.000  
R 6  19330668.163   103152141.986         663.850          26.000  
R 7  22216204.256   118925293.203        2162.522          30.000  
R 9  22237004.575   118744241.795        3899.245          45.000  
G21  21844457.268                         171.693          26.000  
R21  21545655.873                       -3467.120          23.000  
J 3  36913071.402   193979642.893        -832.805          28.000  
J 1  37885185.130   199087994.531          39.113          30.000  
> 2019 10  9  7 21 57.9970000  0 18                     
G 5  21774525.468   114425893.303       -3143.372          49.000  
G13  21035476.185   110542170.467       -2624.328          46.000  
G15  19610464.478   103053659.659        -852.647          42.000  
G24  19937603.396   104772807.479        1696.051          44.000  
G28  23755578.538   124836382.316        -954.339          39.000  
R 5  20620825.951   110230098.788       -2138.555          46.000  
R15  20626955.804   110223799.068       -3021.751          33.000  
J 2  36116356.112   189792717.464        -448.260          36.000  
R16  18927045.279   101104818.921        1050.083          40.000  
G20  22064033.550   115947340.276        2657.357          31.000  
R22  21963954.148                        -215.990          19.000  
R 6  19330540.724   103151477.305         664.817          26.000  
R 7  22215805.030   118923130.746        2162.345          30.000  
R 9  22236274.248   118740342.769        3899.166          45.000  
G21  21844427.027                         171.612          27.000  
R21  21546307.376                       -3470.074          25.000  
J 3  36913219.223   193980475.498        -832.263          28.000  
J 1  37885179.476   199087954.695          40.020          30.000  
> 2019 10  9  7 21 58.9970000  0 18                     
G 5  21775123.522   114429036.781       -3143.486          48.000  
G13  21035975.418   110544794.809       -2624.209          46.000  
G15  19610627.097   103054512.585        -853.034          42.000  
G24  19937280.602   104771111.722        1695.636          44.000  
G28  23755760.090   124837336.958        -954.868          39.000  
R 5  20621225.735   110232237.582       -2138.719          46.000  
R15  20627521.261   110226820.837       -3021.379          33.000  
J 2  36116441.077   189793165.761        -448.037          36.000  
R16  18926848.615   101103769.320        1049.112          40.000  
G20  22063528.610   115944683.020        2657.246          31.000  
R22  21963989.467                        -213.396          18.000  
R 6  19330412.186   103150812.849         664.752          25.000  
R 7  22215393.292   118920968.096        2163.110          30.000  
R 9  22235544.218   118736443.716        3899.108          45.000  
G21  21844396.384   114793066.5423        171.384          27.000  
R21  21546958.619                       -3470.514          26.000  
J 3  36913376.379   193981307.956        -832.139          28.000  
J 1  37885170.315   199087914.652          40.817          30.000  
> 2019 10  9  7 21 59.9970000  0 18                     
G 5  21775721.576   114432180.536       -3143.723          48.000  
G13  21036474.511   110547419.248       -2624.228          46.000  
G15  19610789.489   103055365.760        -853.224          42.000  
G24  19936957.738   104769416.472        1695.062          44.000  
G28  23755941.380   124838292.054        -954.987          39.000  
R 5  20621626.270   110234376.582       -2138.903          46.000  
R15  20628086.299   110229843.364       -3022.749          33.000  
J 2  36116525.728   189793614.134        -448.833          36.000  
R16  18926652.318   101102720.540        1048.358          40.000  
G20  22063023.339   115942025.850        2657.296          31.000  
R22  21964027.648                        -208.559          19.000  
R 6  19330284.869   103150148.478         664.530          26.000  
R 7  22214991.327   118918805.379        2162.780          30.000  
R 9  22234814.136   118732544.718        3899.218          45.000  
G21  21844364.345   114792895.2372        171.375          27.000  
R21  21547610.873   115305571.8483      -3470.131          27.000  
J 3  36913531.145   193982140.355        -832.227          28.000  
J 1  37885160.316   199087874.627          39.667          30.000  
> 2019 10  9  7 22  0.9970000  0 18                     
G 5  21776319.769   114435324.113       -3143.953          48.000  
G13  21036973.291   110550043.346       -2624.522          45.000  
G15  19610951.758   103056218.712        -853.371          42.000  
G24  19936635.049   104767721.264        1694.623          43.000  
G28  23756123.229   124839247.208        -955.408          39.000  
R 5  20622026.857   110236515.336       -2139.224          46.000  
R15  20628651.669   110232866.010       -3022.509          32.000  
J 2  36116610.780   189794062.110        -448.396          35.000  
R16  18926456.107   101101672.119        1047.550          40.000  
G20  22062517.928   115939368.281        2657.946          31.000  
R22  21964063.997                        -186.412          19.000  
R 6  19330160.013   103149484.2812        664.519          26.000  
R 7  22214579.083   118916642.107        2162.755          29.000  
R 9  22234083.635   118728645.350        3899.000          45.000  
G21  21844332.080   114792723.9802        171.257          28.000  
R21  21548261.242   115309042.618       -3471.347          27.000  
J 3  36913692.141   193982972.155        -832.194          28.000  
J 1  37885153.772   199087834.002          38.928          30.000  
> 2019 10  9  7 22  1.9970000  0 18                     
G 5  21776917.945   114438468.599       -3145.153          48.000  
G13  21037472.402   110552668.177       -2625.426          45.000  
G15  19611114.115   103057072.563        -854.458          42.000  
G24  19936312.150   104766027.198        1693.219          43.000  
G28  23756304.921   124840203.485        -957.006          39.000  
R 5  20622427.252   110238654.983       -2140.498          46.000  
R15  20629217.213   110235890.110       -3025.460          31.000  
J 2  36116695.867   189794510.780        -449.148          35.000  
R16  18926259.653   101100625.165        1046.092          40.000  
G20  22062012.780   115936711.585        2655.981          31.000  
R22  21964104.254                        -222.175          19.000  
R 6  19330032.958   103148820.5162        662.849          26.000  
R 7  22214170.521   118914479.355        2162.399          29.000  
R 9  22233353.169   118724746.694        3898.097          45.000  
G21  21844301.891   114792553.890         169.330          28.000  
R21  21548910.408   115312514.260       -3471.909          27.000  
J 3  36913853.241   193983804.537        -832.886          28.000  
J 1  37885144.506   199087793.842          39.939          29.000  
> 2019 10  9  7 22  2.9970000  0 18                     
G 5  21777516.453   114441613.794       -3145.335          48.000  
G13  21037972.211   110555293.555       -2625.667          45.000  
G15  19611276.454   103057927.127        -854.613          41.000  
G24  19935989.705   104764334.070        1693.036          43.000  
G28  23756487.136   124841160.704        -957.793          38.000  
R 5  20622827.944   110240795.298       -2140.504          46.000  
R15  20629782.827   110238915.242       -3025.139          30.000  
J 2  36116780.955   189794959.973        -449.318          35.000  
R16  18926063.251   101099579.539        1044.941          39.000  
G20  22061507.700   115934055.353        2656.037          31.000  
R22  21964147.077                        -225.582          19.000  
R 6  19329910.946   103148156.811         663.469          27.000  
R 7  22213761.331   118912317.039        2162.038          29.000  
R 9  22232623.314   118720848.544        3897.942          45.000  
G21  21844271.859   114792384.731         169.276          28.000  
R21  21549560.202   115315986.861       -3472.496          27.000  
J 3  36914014.115   193984637.261        -832.476          28.000  
J 1  37885137.805   199087754.134          39.688          30.000  
> 2019 10  9  7 22  3.9970000  0 18                     
G 5  21778115.414   114444759.236       -3145.502          49.000  
G13  21038471.829   110557918.982       -2625.387          46.000  
G15  19611438.619   103058781.900        -854.835          41.000  
G24  19935667.521   104762641.407        1692.365          43.000  
G28  23756668.967   124842118.321        -957.616          38.000  
R 5  20623228.392   110242935.785       -2140.430          46.000  
R15  20630343.746   110241941.050       -3026.476          31.000  
J 2  36116866.094   189795409.220        -449.625          35.000  
R16  18925867.075   101098534.683        1044.528          39.000  
G20  22061002.691   115931399.200        2656.088          31.000  
R22  21964188.539                        -213.179          19.000  
R 6  19329787.695   103147493.751         662.952          27.000  
R 7  22213351.791   118910154.528        2162.367          28.000  
R 9  22231892.848   118716950.413        3898.326          44.000  
G21  21844236.994   114792216.088         168.514          28.000  
R21  21550208.530   115319459.892       -3473.343          27.000  
J 3  36914172.685   193985469.879        -832.355          29.000  
J 1  37885131.855   199087714.272          40.771          30.000  
> 2019 10  9  7 22  4.9970000  0 18                     
G 5  21778714.166   114447904.861       -3145.669          49.000  
G13  21038971.446   110560544.436       -2625.449          46.000  
G15  19611600.924   103059636.838        -854.814          41.000  
G24  19935345.198   104760949.141        1692.139          43.000  
G28  23756851.025   124843076.403        -958.311          38.000  
R 5  20623628.979   110245076.401       -2140.620          46.000  
R15  20630905.434   110245249.4433      -3026.708          31.000  
J 2  36116951.234   189795858.394        -449.310          35.000  
R16  18925671.249   101097490.600        1043.817          39.000  
G20  22060497.472   115928743.132        2655.909          30.000  
R22  21964232.740                        -220.295          20.000  
R 6  19329665.299   103146830.815         663.512          27.000  
R 7  22212943.195   118907991.915        2163.037          28.000  
R 9  22231162.818   118713052.258        3898.131          44.000  
G21  21844201.901   114792047.850         167.448          28.000  
R21  21550857.974   115322933.241       -3473.283          27.000  
J 3  36914333.629   193986302.396        -832.550          28.000  
J 1  37885123.775   199087674.264          40.198          30.000  
> 2019 10  9  7 22  5.9970000  0 18                     
G 5  21779312.883   114451050.781       -3146.083          49.000  
G13  21039471.168   110563169.999       -2625.742          46.000  
G15  19611763.193   103060492.060        -855.471          41.000  
G24  19935022.980   104759257.418        1691.449          43.000  
G28  23757033.293   124844034.935        -958.625          38.000  
R 5  20624029.252   110247217.241       -2141.138          46.000  
R15  20631467.750   110248276.5442      -3026.952          31.000  
J 2  36117036.565   189796307.695        -449.449          35.000  
R16  18925475.492   101096447.385        1042.864          39.000  
G20  22059992.725   115926087.154        2655.206          30.000  
R22  21964274.987                        -221.420          21.000  
R 6  19329540.949   103146168.105         662.476          28.000  
R 7  22212533.743   118905829.299        2162.857          28.000  
R 9  22230432.910   118709154.207        3897.917          44.000  
G21  21844166.687   114791880.099         167.375          28.000  
R21  21551508.693   115326406.986       -3473.802          27.000  
J 3  36914492.583   193987134.830        -832.468          28.000  
J 1  37885110.583   199087634.211          39.020          30.000  
> 2019 10  9  7 22  6.9970000  0 18                     
G 5  21779911.652   114454196.975       -3146.339          49.000  
G13  21039970.698   110565795.654       -2625.819          46.000  
G15  19611925.585   103061347.525        -855.604          41.000  
G24  19934700.814   104757566.178        1691.016          43.000  
G28  23757215.421   124844993.997        -959.288          38.000  
R 5  20624429.839   110249358.295       -2141.005          46.000  
R15  20632033.835   110251304.325       -3028.114          31.000  
J 2  36117121.914   189796757.059        -449.417          35.000  
R16  18925279.649   101095405.000        1042.037          39.000  
G20  22059487.419   115923431.281        2655.136          29.000  
R22  21964317.740                        -214.202          21.000  
R 6  19329417.890   103145505.527         662.616          28.000  
R 7  22212125.547   118903666.585        2162.801          27.000  
R 9  22229702.723   118705256.215        3897.981          44.000  
G21  21844135.224   114791712.842         167.068          28.000  
R21  21552159.656   115329881.202       -3474.352          27.000  
J 3  36914654.817   193987967.125        -831.816          28.000  
J 1  37885104.737   199087594.014          40.491          30.000  
> 2019 10  9  7 22  7.9970000  0 18                     
G 5  21780510.491   114457343.397       -3146.560          49.000  
G13  21040470.664   110568421.369       -2625.875          46.000  
G15  19612088.204   103062203.200        -856.070          40.000  
G24  19934378.962   104755875.426        1690.448          43.000  
G28  23757397.566   124845953.494        -959.777          37.000  
R 5  20624830.113   110251499.543       -2141.476          46.000  
R15  20632600.531   110254332.768       -3029.222          32.000  
J 2  36117206.879   189797206.439        -449.565          35.000  
R16  18925084.328   101094363.402        1041.329          38.000  
G20  22058982.532   115920775.469        2655.397          28.000  
R22  21964360.179                        -220.704          20.000  
R 6  19329291.829   103144843.055         662.754          27.000  
R 7  22211715.799   118901503.640        2163.440          26.000  
R 9  22228972.606   118701358.253        3898.099          44.000  
G21  21844104.547   114791546.065         166.933          29.000  
R21  21552811.823   115333355.795       -3474.639          27.000  
J 3  36914816.965   193988799.388        -832.214          28.000  
J 1  37885100.811   199087553.750          39.716          30.000  
> 2019 10  9  7 22  8.9970000  0 18                     
G 5  21781109.330   114460490.066       -3146.759          49.000  
G13  21040970.246   110571047.143       -2625.672          46.000  
G15  19612250.368   103063059.116        -856.043          40.000  
G24  19934057.268   104754185.163        1689.868          43.000  
G28  23757579.938   124846913.437        -960.230          37.000  
R 5  20625230.578   110253640.982       -2141.486          46.000  
R15  20633173.823   110257361.829       -3028.926          32.000  
J 2  36117292.246   189797655.871        -449.332          36.000  
R16  18924889.218   101093322.581        1040.551          38.000  
G20  22058477.470   115918119.746        2655.789          28.000  
R22  21964403.543                        -227.280          18.000  
R 6  19329166.240   103144180.791         662.036          27.000  
R 7  22211307.359   118899340.726        2163.170          26.000  
R 9  22228242.820   118697460.361        3897.886          44.000  
G21  21844073.799   114791379.746         166.248          29.000  
R21  21553459.470   115336830.798       -3475.444          26.000  
J 3  36914976.774   193989631.462        -832.049          28.000  
J 1  37885093.517   199087513.301          40.137          30.000  
> 2019 10  9  7 22  9.9970000  0 18                     
G 5  21781707.978   114463636.935       -3146.562          49.000  
G13  21041470.038   110573672.954       -2625.341          46.000  
G15  19612412.900   103063915.216        -855.709          40.000  
G24  19933735.643   104752495.334        1690.167          43.000  
G28  23757762.398   124847873.817        -960.347          37.000  
R 5  20625631.392   110255782.594       -2141.359          47.000  
R15  20633740.344   110260391.518       -3029.897          33.000  
J 2  36117377.752   189798105.309        -448.796          36.000  
R16  18924694.421   101092282.549        1040.332          38.000  
G20  22057970.820   115915464.076        2656.110          28.000  
R22  21964444.883                        -219.291          17.000  
R 6  19329043.251                         662.371          26.000  
R 7  22210896.616                        2163.658          25.000  
R 9  22227512.948   118693562.461        3898.332          44.000  
G21  21844046.211   114791213.911         166.030          29.000  
R21  21554109.159   115340306.110       -3475.332          26.000  
J 3  36915137.089   193990463.437        -830.999          28.000  
J 1  37885084.774   199087472.794          40.497          30.000  
> 2019 10  9  7 22 10.9970000  0 18                     
G 5  21782306.712   114466783.547       -3147.096          49.000  
G13  21041969.812   110576298.330       -2625.975          46.000  
G15  19612575.640   103064771.017        -855.937          40.000  
G24  19933414.262   104750805.461        1689.478          43.000  
G28  23757944.718   124848834.114        -960.796          36.000  
R 5  20626031.926   110257923.875       -2141.610          47.000  
R15  20634311.245   110263421.335       -3030.150          33.000  
J 2  36117462.892   189798554.269        -449.309          35.000  
R16  18924499.537   101091242.846        1039.088          38.000  
G20  22057465.462   115912808.014        2655.279          28.000  
R22  21964486.292                        -235.815          17.000  
R 6  19328922.024                         661.019          27.000  
R 7  22210487.670                        2163.837          24.000  
R 9  22226782.813   118689664.046        3898.180          44.000  
G21  21844017.889   114791047.990         165.519          29.000  
R21  21554755.987                       -3476.660          25.000  
J 3  36915294.315   193991294.804        -831.226          28.000  
J 1  37885072.768   199087431.553          41.376          29.000  
> 2019 10  9  7 22 11.9970000  0 18                     
G 5  21782905.848   114469931.005       -3147.879          49.000  
G13  21042469.813   110578924.354       -2626.438          46.000  
G15  19612738.294   103065627.656        -857.125          40.000  
G24  19933093.265   104749116.685        1688.422          43.000  
G28  23758127.491   124849795.469        -961.867          36.000  
R 5  20626432.723   110260065.969       -2142.466          47.000  
R15  20634883.246   110266452.428       -3031.709          33.000  
J 2  36117548.380   189799003.857        -450.024          35.000  
R16  18924305.106   101090204.548        1037.755          38.000  
G20  22056962.931   115910152.530        2655.102          27.000  
R22  21964528.207                        -221.506          18.000  
R 6  19328802.438                         661.658          27.000  
R 7  22210079.893                        2162.360          23.000  
R 9  22226053.150   118685766.287        3897.440          44.000  
G21  21843988.607   114790883.171         164.361          29.000  
R21  21555404.576                       -3476.832          26.000  
J 3  36915453.252   193992126.699        -832.312          29.000  
J 1  37885064.986   199087390.872          40.485          30.000  
> 2019 10  9  7 22 12.9970000  0 18                     
G 5  21783505.018   114473079.115       -3148.132          49.000  
G13  21042969.325   110581550.861       -2626.447          46.000  
G15  19612901.523   103066484.923        -857.399          40.000  
G24  19932772.460   104747428.797        1687.823          43.000  
G28  23758310.230   124850757.719        -962.144          35.000  
R 5  20626833.677   110262208.632       -2142.429          47.000  
R15  20635448.476   110269484.579       -3032.271          33.000  
J 2  36117633.974   189799453.883        -449.472          35.000  
R16  18924110.955   101089167.477        1037.216          38.000  
G20  22056457.066   115907497.580        2655.480          25.000  
R22  21964567.436                        -228.850          19.000  
R 6  19328681.473   103141456.9861        660.733          28.000  
R 7  22209670.581                        2162.722          22.000  
R 9  22225323.643   118681868.991        3897.527          44.000  
G21  21843956.935                         165.183          29.000  
R21  21556054.841                       -3478.013          26.000  
J 3  36915619.779   193992958.784        -831.785          29.000  
J 1  37885056.348   199087350.458          40.979          29.000  
> 2019 10  9  7 22 13.9970000  0 17                     
G 5  21784104.294   114476227.593       -3148.693          49.000  
G13  21043469.484   110584177.546       -2626.643          46.000  
G15  19613064.648   103067342.527        -857.980          40.000  
G24  19932451.429   104745741.513        1687.036          43.000  
G28  23758492.759   124851720.565        -963.665          35.000  
R 5  20627234.979   110264351.617       -2143.164          47.000  
R15  20636017.283   110272517.538       -3033.019          34.000  
J 2  36117719.427   189799904.113        -450.388          35.000  
R16  18923916.874   101088131.339        1035.609          38.000  
R22  21964606.262                        -222.211          19.000  
R 6  19328558.816   103140795.983         660.656          29.000  
R 7  22209260.640                        2162.636          22.000  
R 9  22224594.050   118677971.871        3896.852          44.000  
G21  21843923.954   114790594.8513        163.058          29.000  
R21  21556703.780                       -3477.305          26.000  
J 3  36915783.654   193993790.954        -832.248          29.000  
J 1  37885047.151   199087310.111          40.245          29.000  
> 2019 10  9  7 22 14.9970000  0 17                     
G 5  21784703.779   114479376.378       -3148.798          49.000  
G13  21043969.345   110586804.388       -2626.714          46.000  
G15  19613227.458   103068200.425        -857.760          40.000  
G24  19932130.118   104744054.776        1686.560          43.000  
G28  23758675.707   124852683.878        -963.549          35.000  
R 5  20627636.474   110266494.865       -2143.379          47.000  
R15  20636584.921   110275551.209       -3034.012          34.000  
J 2  36117805.090   189800354.419        -450.653          36.000  
R16  18923723.124   101087096.057        1034.833          38.000  
R22  21964644.880                        -225.971          18.000  
R 6  19328437.955   103140135.244         660.245          29.000  
R 7  22208850.612                        2161.861          21.000  
R 9  22223864.840   118674074.828        3897.028          45.000  
G21  21843881.742   114790432.0362        162.395          28.000  
R21  21557354.254                       -3478.803          25.000  
J 3  36915938.054   193994623.090        -832.674          29.000  
J 1  37885038.740   199087269.688          40.255          29.000  
> 2019 10  9  7 22 15.9970000  0 17                     
G 5  21785302.984   114482525.368       -3149.025          49.000  
G13  21044468.788   110589431.251       -2626.769          46.000  
G15  19613390.478   103069058.510        -857.888          40.000  
G24  19931809.522   104742368.468        1686.017          43.000  
G28  23758859.039   124853647.620        -963.920          35.000  
R 5  20628037.637   110268638.275       -2143.468          48.000  
R15  20637152.821   110278585.447       -3034.436          33.000  
J 2  36117890.858   189800804.737        -450.800          35.000  
R16  18923529.444   101086061.579        1034.084          39.000  
R22  21964687.790                        -230.598          17.000  
R 6  19328316.833   103139474.559         661.096          28.000  
R 7  22208441.789                        2163.142          22.000  
R 9  22223135.508   118670177.784        3897.046          44.000  
G21  21843848.849   114790269.6832        162.129          27.000  
R21  21558005.845                       -3478.641          25.000  
J 3  36916099.817   193995455.056        -831.951          29.000  
J 1  37885027.851   199087229.098          40.342          29.000  
